{"version": 0.6, "generator": "Overpass API 0.7.62.8 e802775f", "osm3s": {"timestamp_osm_base": "2025-11-29T19:15:26Z", "copyright": "The data included in this document is from www.openstreetmap.org. The data is made available under ODbL."}, "elements": [{"type": "node", "id": 303917501, "lat": 12.9331091, "lon": 77.5835191, "tags": {"addr:postcode": "560011", "addr:street": "Elephant Cave Road", "amenity": "bank", "atm": "yes", "brand": "ICICI Bank", "brand:wikidata": "Q1653258", "name": "ICICI Bank", "name:en": "ICICI Bank", "name:kn": "\u0c90\u0cb8\u0cbf\u0c90\u0cb8\u0cbf\u0c90 \u0cac\u0ccd\u0caf\u0cbe\u0c82\u0c95\u0cc1", "operator": "icici bank 3rd block", "short_name": "ICICI", "website": "https://www.icicibank.com"}}, {"type": "node", "id": 303933809, "lat": 12.9365346, "lon": 77.627846, "tags": {"amenity": "bank", "brand": "State Bank of India", "brand:wikidata": "Q1340361", "brand:wikipedia": "en:State Bank of India", "name": "State Bank of India", "name:kn": "\u0cad\u0cbe\u0cb0\u0ca4\u0cc0\u0caf \u0cb8\u0ccd\u0c9f\u0cc7\u0c9f\u0ccd \u0cac\u0ccd\u0caf\u0cbe\u0c82\u0c95\u0ccd", "short_name": "SBI"}}, {"type": "node", "id": 307414664, "lat": 12.9309193, "lon": 77.5837775, "tags": {"amenity": "bank", "brand": "Canara Bank", "brand:en": "Canara Bank", "brand:hi": "\u0915\u0947\u0928\u0930\u093e \u092c\u0948\u0902\u0915", "brand:kn": "\u0c95\u0cc6\u0ca8\u0cb0\u0cbe \u0cac\u0ccd\u0caf\u0cbe\u0c82\u0c95\u0ccd", "brand:pa": "\u0a15\u0a47\u0a28\u0a30\u0a3e \u0a2c\u0a48\u0a02\u0a15", "brand:pnb": "\u06a9\u06cc\u0646\u0631\u0627 \u0628\u06cc\u0646\u06a9", "brand:ur": "\u06a9\u06cc\u0646\u0631\u0627 \u0628\u06cc\u0646\u06a9", "brand:wikidata": "Q2003777", "brand:wikipedia": "en:Canara Bank", "brand:wikipedia:pa": "\u0a15\u0a47\u0a28\u0a30\u0a3e \u0a2c\u0a48\u0a02\u0a15", "name": "Canara Bank", "name:en": "Canara Bank", "name:hi": "\u0915\u0947\u0928\u0930\u093e \u092c\u0948\u0902\u0915", "name:kn": "\u0c95\u0cc6\u0ca8\u0cb0\u0cbe \u0cac\u0ccd\u0caf\u0cbe\u0c82\u0c95\u0ccd", "name:pa": "\u0a15\u0a47\u0a28\u0a30\u0a3e \u0a2c\u0a48\u0a02\u0a15", "name:pnb": "\u06a9\u06cc\u0646\u0631\u0627 \u0628\u06cc\u0646\u06a9", "name:ur": "\u06a9\u06cc\u0646\u0631\u0627 \u0628\u06cc\u0646\u06a9", "website": "https://www.canarabank.com/"}}, {"type": "node", "id": 307414683, "lat": 12.9289702, "lon": 77.5839921, "tags": {"amenity": "bank", "brand": "State Bank of India", "brand:wikidata": "Q1340361", "brand:wikipedia": "en:State Bank of India", "name": "State Bank of India", "name:kn": "\u0cb8\u0ccd\u0c9f\u0cc7\u0c9f\u0ccd \u0cac\u0ccd\u0caf\u0cbe\u0c82\u0c95\u0ccd \u0c86\u0cab\u0ccd \u0c87\u0c82\u0ca1\u0cbf\u0caf\u0cbe", "old_name": "State Bank of mysore", "short_name": "SBI", "website": "https://www.sbi.co.in"}}, {"type": "node", "id": 308779330, "lat": 12.9353555, "lon": 77.6148616, "tags": {"addr:street": "80 Feet Road", "amenity": "bank", "atm": "yes", "brand": "ICICI Bank", "brand:wikidata": "Q1653258", "name": "ICICI Bank", "name:en": "ICICI Bank", "short_name": "ICICI", "website": "https://www.icicibank.com"}}, {"type": "node", "id": 315524768, "lat": 12.9602773, "lon": 77.6373781, "tags": {"amenity": "bank", "atm": "yes", "name": "Vijaya Bank", "name:kn": "\u0cb5\u0cbf\u0c9c\u0caf \u0cac\u0ccd\u0caf\u0cbe\u0c82\u0c95\u0cc1"}}, {"type": "node", "id": 316111336, "lat": 12.9606833, "lon": 77.6381838, "tags": {"amenity": "bank", "atm": "yes", "brand": "Union Bank of India", "brand:wikidata": "Q2004078", "brand:wikipedia": "en:Union Bank of India", "name": "Union Bank of India", "name:en": "Union Bank of India", "name:kn": "\u0caf\u0cc2\u0ca8\u0cbf\u0caf\u0ca8\u0ccd \u0cac\u0ccd\u0caf\u0cbe\u0c82\u0c95\u0ccd", "short_name": "UBI", "website": "https://www.unionbankofindia.co.in/"}}, {"type": "node", "id": 456214138, "lat": 12.9730205, "lon": 77.5804826, "tags": {"amenity": "bank", "atm": "yes", "brand": "State Bank of India", "brand:wikidata": "Q1340361", "brand:wikipedia": "en:State Bank of India", "name": "State Bank of India", "name:kn": "\u0c8e\u0cb8\u0ccd \u0cac\u0cbf \u0c90", "short_name": "SBI"}}, {"type": "node", "id": 456214157, "lat": 12.9738444, "lon": 77.578582, "tags": {"addr:street": "Kempe Gowda Road", "amenity": "bank", "atm": "yes", "brand": "Bank of India", "brand:wikidata": "Q2004439", "brand:wikipedia": "en:Bank of India", "name": "Bank of India", "name:en": "Bank of India", "short_name": "BoI", "website": "http://www.bankofindia.co.in"}}, {"type": "node", "id": 456214158, "lat": 12.973729, "lon": 77.578957, "tags": {"addr:street": "Kempe Gowda Road", "amenity": "bank", "atm": "yes", "brand": "Indian Bank", "brand:wikidata": "Q2003789", "brand:wikipedia": "en:Indian Bank", "name": "Indian Bank", "name:en": "Indian Bank", "name:kn": "\u0c87\u0c82\u0ca1\u0cbf\u0caf\u0ca8\u0ccd \u0cac\u0ccd\u0caf\u0cbe\u0c82\u0c95\u0ccd", "website": "https://www.indianbank.in/"}}, {"type": "node", "id": 525357113, "lat": 12.9990578, "lon": 77.5695202, "tags": {"addr:street": "Margosa Road", "amenity": "bank", "atm": "yes", "brand": "State Bank of India", "brand:wikidata": "Q1340361", "brand:wikipedia": "en:State Bank of India", "name": "State Bank of India", "name:kn": "\u0cad\u0cbe\u0cb0\u0ca4\u0cc0\u0caf \u0cb8\u0ccd\u0c9f\u0cc7\u0c9f\u0ccd \u0cac\u0ccd\u0caf\u0cbe\u0c82\u0c95\u0ccd", "operator": "SBI", "short_name": "SBI"}}, {"type": "node", "id": 576105013, "lat": 12.996974, "lon": 77.5678633, "tags": {"addr:postcode": "560003", "addr:street": "local_knowledge", "amenity": "bank", "atm": "yes", "brand": "ICICI Bank", "brand:wikidata": "Q1653258", "name": "ICICI Bank", "name:kn": "\u0c90\u0cb8\u0cbf\u0c90\u0cb8\u0cbf\u0c90 \u0cac\u0ccd\u0caf\u0cbe\u0c82\u0c95\u0cc1", "operator": "ICICI Bank", "operator:wikidata": "Q1653258", "short_name": "ICICI", "source": "local_knowledge"}}, {"type": "node", "id": 577027598, "lat": 12.9933312, "lon": 77.57187, "tags": {"addr:street": "Sampige Road", "amenity": "bank", "atm": "yes", "brand": "Corporation Bank", "brand:wikidata": "Q2003387", "brand:wikipedia": "en:Corporation Bank", "name": "Corporation Bank", "name:en": "Corporation Bank", "name:kn": "\u0c95\u0cbe\u0cb0\u0ccd\u0caa\u0cb0\u0cc7\u0cb7\u0ca8\u0ccd \u0cac\u0ccd\u0caf\u0cbe\u0c82\u0c95\u0ccd", "website": "https://corpbank.com/"}}, {"type": "node", "id": 598211169, "lat": 13.0016893, "lon": 77.5694475, "tags": {"addr:street": "Margosa Road", "amenity": "bank", "atm": "yes", "brand": "Bank of India", "brand:wikidata": "Q2004439", "brand:wikipedia": "en:Bank of India", "check_date": "2024-05-12", "name": "Bank of India", "name:en": "Bank of India", "operator": "Bank of India", "short_name": "BoI", "website": "http://www.bankofindia.co.in"}}, {"type": "node", "id": 605548779, "lat": 13.0085194, "lon": 77.5688573, "tags": {"addr:street": "Margosa Road", "amenity": "bank", "atm": "yes", "brand": "HDFC Bank", "brand:wikidata": "Q631047", "name": "HDFC Bank", "opening_hours": "Mo-Sa 10:30-20:30; Su 12:30-20:00", "operator": "HDFC", "short_name": "HDFC"}}, {"type": "node", "id": 610677236, "lat": 13.0055316, "lon": 77.56985, "tags": {"amenity": "bank", "brand": "UCO Bank", "brand:wikidata": "Q2005310", "brand:wikipedia": "en:UCO Bank", "name": "UCO Bank", "name:en": "UCO Bank", "name:kn": "\u0caf\u0cc2\u0c95\u0cca \u0cac\u0ccd\u0caf\u0cbe\u0c82\u0c95\u0ccd", "old_name": "United Commercial Bank", "website": "https://www.ucobank.com"}}, {"type": "node", "id": 616321839, "lat": 13.0019378, "lon": 77.5665159, "tags": {"amenity": "bank", "atm": "yes", "check_date": "2025-07-11", "name": "SVC Bank", "operator": "Shamrao Vittal Cooperative"}}, {"type": "node", "id": 619348631, "lat": 13.0011328, "lon": 77.5691982, "tags": {"addr:street": "Margosa Road", "amenity": "bank", "brand": "Kotak Mahindra Bank", "brand:wikidata": "Q2040404", "name": "Kotak Mahindra Bank", "name:kn": "\u0c95\u0ccb\u0c9f\u0c95\u0ccd \u0cae\u0cb9\u0cbf\u0c82\u0ca6\u0ccd\u0cb0 \u0cac\u0ccd\u0caf\u0cbe\u0c82\u0c95\u0ccd"}}, {"type": "node", "id": 622010321, "lat": 13.0084832, "lon": 77.5692697, "tags": {"addr:street": "Margosa Road", "amenity": "bank", "brand": "Syndicate Bank", "brand:wikidata": "Q2004088", "name": "Syndicate Bank", "name:kn": "\u0cb8\u0cbf\u0c82\u0ca1\u0cbf\u0c95\u0cc7\u0c9f\u0ccd \u0cac\u0ccd\u0caf\u0cbe\u0c82\u0c95\u0ccd", "operator": "Syndicate Bank"}}, {"type": "node", "id": 661983031, "lat": 12.9819402, "lon": 77.5955017, "tags": {"addr:city": "Bangalore", "addr:postcode": "560001", "addr:street": "Raj Bhavan Road", "amenity": "bank", "atm": "yes", "brand": "State Bank of India", "brand:wikidata": "Q1340361", "brand:wikipedia": "en:State Bank of India", "name": "State Bank of India", "name:kn": "\u0cad\u0cbe\u0cb0\u0ca4\u0cc0\u0caf \u0cb8\u0ccd\u0c9f\u0cc7\u0c9f\u0ccd \u0cac\u0ccd\u0caf\u0cbe\u0c82\u0c95\u0ccd", "short_name": "SBI", "website": "https://www.sbi.co.in"}}, {"type": "node", "id": 661983042, "lat": 12.9762175, "lon": 77.5993135, "tags": {"amenity": "bank", "atm": "yes", "brand": "Kotak Mahindra Bank", "brand:wikidata": "Q2040404", "brand:wikipedia": "en:Kotak Mahindra Bank", "name": "Kotak Mahindra Bank", "name:en": "Kotak Mahindra Bank", "name:kn": "\u0c95\u0ccb\u0c9f\u0c95\u0ccd \u0cae\u0cb9\u0cbf\u0c82\u0ca6\u0ccd\u0cb0 \u0cac\u0ccd\u0caf\u0cbe\u0c82\u0c95\u0ccd", "website": "http://www.kotak.com"}}, {"type": "node", "id": 661983048, "lat": 12.9885568, "lon": 77.5923112, "tags": {"amenity": "bank", "brand": "Canara Bank", "brand:en": "Canara Bank", "brand:hi": "\u0915\u0947\u0928\u0930\u093e \u092c\u0948\u0902\u0915", "brand:kn": "\u0c95\u0cc6\u0ca8\u0cb0\u0cbe \u0cac\u0ccd\u0caf\u0cbe\u0c82\u0c95\u0ccd", "brand:pa": "\u0a15\u0a47\u0a28\u0a30\u0a3e \u0a2c\u0a48\u0a02\u0a15", "brand:pnb": "\u06a9\u06cc\u0646\u0631\u0627 \u0628\u06cc\u0646\u06a9", "brand:ur": "\u06a9\u06cc\u0646\u0631\u0627 \u0628\u06cc\u0646\u06a9", "brand:wikidata": "Q2003777", "name": "Canara Bank", "name:en": "Canara Bank", "name:hi": "\u0915\u0947\u0928\u0930\u093e \u092c\u0948\u0902\u0915", "name:kn": "\u0c95\u0cc6\u0ca8\u0cb0\u0cbe \u0cac\u0ccd\u0caf\u0cbe\u0c82\u0c95\u0ccd", "name:pa": "\u0a15\u0a47\u0a28\u0a30\u0a3e \u0a2c\u0a48\u0a02\u0a15", "name:pnb": "\u06a9\u06cc\u0646\u0631\u0627 \u0628\u06cc\u0646\u06a9", "name:ur": "\u06a9\u06cc\u0646\u0631\u0627 \u0628\u06cc\u0646\u06a9"}}, {"type": "node", "id": 661983059, "lat": 12.9888226, "lon": 77.592415, "tags": {"amenity": "bank", "atm": "yes", "brand": "HDFC Bank", "brand:wikidata": "Q631047", "brand:wikipedia": "en:HDFC Bank", "name": "HDFC Bank", "name:kn": "\u0c8e\u0c9a\u0ccd \u0ca1\u0cbf \u0c8e\u0cab\u0ccd \u0cb8\u0cbf", "short_name": "HDFC", "website": "https://www.hdfcbank.com"}}, {"type": "node", "id": 663317713, "lat": 12.9681567, "lon": 77.5876645, "tags": {"amenity": "bank", "brand": "Canara Bank", "brand:en": "Canara Bank", "brand:hi": "\u0915\u0947\u0928\u0930\u093e \u092c\u0948\u0902\u0915", "brand:kn": "\u0c95\u0cc6\u0ca8\u0cb0\u0cbe \u0cac\u0ccd\u0caf\u0cbe\u0c82\u0c95\u0ccd", "brand:pa": "\u0a15\u0a47\u0a28\u0a30\u0a3e \u0a2c\u0a48\u0a02\u0a15", "brand:pnb": "\u06a9\u06cc\u0646\u0631\u0627 \u0628\u06cc\u0646\u06a9", "brand:ur": "\u06a9\u06cc\u0646\u0631\u0627 \u0628\u06cc\u0646\u06a9", "brand:wikidata": "Q2003777", "brand:wikipedia": "en:Canara Bank", "brand:wikipedia:pa": "\u0a15\u0a47\u0a28\u0a30\u0a3e \u0a2c\u0a48\u0a02\u0a15", "check_date": "2024-03-02", "name": "Canara Bank", "name:en": "Canara Bank", "name:hi": "\u0915\u0947\u0928\u0930\u093e \u092c\u0948\u0902\u0915", "name:kn": "\u0c95\u0cc6\u0ca8\u0cb0\u0cbe \u0cac\u0ccd\u0caf\u0cbe\u0c82\u0c95\u0ccd", "name:pa": "\u0a15\u0a47\u0a28\u0a30\u0a3e \u0a2c\u0a48\u0a02\u0a15", "name:pnb": "\u06a9\u06cc\u0646\u0631\u0627 \u0628\u06cc\u0646\u06a9", "name:ur": "\u06a9\u06cc\u0646\u0631\u0627 \u0628\u06cc\u0646\u06a9", "website": "https://www.canarabank.com/"}}, {"type": "node", "id": 663317714, "lat": 12.9681499, "lon": 77.5880527, "tags": {"amenity": "bank", "brand": "State Bank of India", "brand:wikidata": "Q1340361", "brand:wikipedia": "en:State Bank of India", "name": "State Bank of India", "name:kn": "\u0c8e\u0cb8\u0ccd \u0cac\u0cbf \u0c90", "short_name": "SBI", "website": "https://www.sbi.co.in"}}, {"type": "node", "id": 663334482, "lat": 13.0074751, "lon": 77.5793045, "tags": {"amenity": "bank", "atm": "yes", "brand": "State Bank of India", "brand:wikidata": "Q1340361", "brand:wikipedia": "en:State Bank of India", "name": "State Bank of India", "name:kn": "\u0cad\u0cbe\u0cb0\u0ca4\u0cc0\u0caf \u0cb8\u0ccd\u0c9f\u0cc7\u0c9f\u0ccd \u0cac\u0ccd\u0caf\u0cbe\u0c82\u0c95\u0ccd", "short_name": "SBI"}}, {"type": "node", "id": 663568577, "lat": 12.9734198, "lon": 77.5956885}, {"type": "node", "id": 663568578, "lat": 12.9732385, "lon": 77.5954929}, {"type": "node", "id": 663568589, "lat": 12.9735669, "lon": 77.5954642}, {"type": "node", "id": 663573129, "lat": 12.9734846, "lon": 77.595368}, {"type": "node", "id": 663573140, "lat": 12.9751175, "lon": 77.5976204, "tags": {"addr:street": "Kasturba Road", "amenity": "bank", "brand": "Dhanlaxmi Bank", "brand:wikidata": "Q2040440", "name": "Dhanlaxmi Bank"}}, {"type": "node", "id": 663592955, "lat": 12.9756522, "lon": 77.597345, "tags": {"addr:city": "Bangalore", "addr:street": "Kasturba Road", "amenity": "bank", "brand": "Yes Bank", "brand:wikidata": "Q2040394", "brand:wikipedia": "en:Yes Bank", "name": "Yes Bank", "name:en": "YES Bank", "name:kn": "\u0caf\u0cb8\u0ccd \u0cac\u0ccd\u0caf\u0cbe\u0c82\u0c95\u0ccd", "website": "https://www.yesbank.in"}}, {"type": "node", "id": 663599410, "lat": 12.9723026, "lon": 77.5863596, "tags": {"amenity": "bank", "brand": "Corporation Bank", "brand:wikidata": "Q2003387", "brand:wikipedia": "en:Corporation Bank", "name": "Corporation Bank", "name:en": "Corporation Bank", "name:kn": "\u0c95\u0cbe\u0cb0\u0ccd\u0caa\u0cb0\u0cc7\u0cb7\u0ca8\u0ccd \u0cac\u0ccd\u0caf\u0cbe\u0c82\u0c95\u0ccd", "website": "https://corpbank.com/"}}, {"type": "node", "id": 663920340, "lat": 13.0139649, "lon": 77.57891, "tags": {"amenity": "bank", "atm": "yes", "brand": "State Bank of India", "brand:wikidata": "Q1340361", "brand:wikipedia": "en:State Bank of India", "name": "State Bank of India", "name:kn": "\u0cad\u0cbe\u0cb0\u0ca4\u0cc0\u0caf \u0cb8\u0ccd\u0c9f\u0cc7\u0c9f\u0ccd \u0cac\u0ccd\u0caf\u0cbe\u0c82\u0c95\u0ccd", "short_name": "SBI"}}, {"type": "node", "id": 664332017, "lat": 13.0077699, "lon": 77.5794951, "tags": {"amenity": "bank", "atm": "no", "brand": "Punjab National Bank", "brand:wikidata": "Q2743499", "name": "Punjab National Bank", "name:en": "Punjab National Bank", "name:kn": "\u0caa\u0c82\u0c9c\u0cbe\u0cac \u0cb0\u0cbe\u0cb7\u0ccd\u0c9f\u0ccd\u0cb0\u0cc0\u0caf \u0cac\u0ccd\u0caf\u0cbe\u0c82\u0c95\u0ccd", "short_name": "PNB", "website": "https://www.pnbindia.in"}}, {"type": "node", "id": 664332019, "lat": 13.0071676, "lon": 77.5790958, "tags": {"amenity": "bank", "atm": "yes", "brand": "Bank of Baroda", "brand:wikidata": "Q2003797", "brand:wikipedia": "en:Bank of Baroda", "name": "Bank of Baroda", "name:en": "Bank of Baroda", "name:kn": "\u0cac\u0ccd\u0caf\u0cbe\u0c82\u0c95\u0ccd \u0c86\u0cab\u0ccd \u0cac\u0cb0\u0ccb\u0ca1", "short_name": "BoB", "website": "http://www.bankofbaroda.com"}}, {"type": "node", "id": 664332020, "lat": 13.0080052, "lon": 77.5796762, "tags": {"amenity": "bank", "atm": "yes", "brand": "Karnataka Bank", "brand:wikidata": "Q2042632", "name": "Karnataka Bank", "name:kn": "\u0c95\u0cb0\u0ccd\u0ca8\u0cbe\u0c9f\u0c95 \u0cac\u0ccd\u0caf\u0cbe\u0c82\u0c95\u0ccd"}}, {"type": "node", "id": 664332021, "lat": 13.0080972, "lon": 77.5797261, "tags": {"amenity": "bank", "atm": "no", "brand": "Syndicate Bank", "brand:wikidata": "Q2004088", "name": "Syndicate Bank", "name:en": "Syndicate Bank", "name:kn": "\u0cb8\u0cbf\u0c82\u0ca1\u0cbf\u0c95\u0cc7\u0c9f\u0ccd \u0cac\u0ccd\u0caf\u0cbe\u0c82\u0c95\u0ccd", "website": "https://www.syndicatebank.in"}}, {"type": "node", "id": 665871291, "lat": 12.98693, "lon": 77.5951971, "tags": {"addr:street": "Cunningham Road", "amenity": "bank", "atm": "yes", "brand": "Canara Bank", "brand:en": "Canara Bank", "brand:hi": "\u0915\u0947\u0928\u0930\u093e \u092c\u0948\u0902\u0915", "brand:kn": "\u0c95\u0cc6\u0ca8\u0cb0\u0cbe \u0cac\u0ccd\u0caf\u0cbe\u0c82\u0c95\u0ccd", "brand:pa": "\u0a15\u0a47\u0a28\u0a30\u0a3e \u0a2c\u0a48\u0a02\u0a15", "brand:pnb": "\u06a9\u06cc\u0646\u0631\u0627 \u0628\u06cc\u0646\u06a9", "brand:ur": "\u06a9\u06cc\u0646\u0631\u0627 \u0628\u06cc\u0646\u06a9", "brand:wikidata": "Q2003777", "brand:wikipedia": "en:Canara Bank", "brand:wikipedia:pa": "\u0a15\u0a47\u0a28\u0a30\u0a3e \u0a2c\u0a48\u0a02\u0a15", "name": "Canara Bank", "name:en": "Canara Bank", "name:hi": "\u0915\u0947\u0928\u0930\u093e \u092c\u0948\u0902\u0915", "name:kn": "\u0c95\u0cc6\u0ca8\u0cb0\u0cbe \u0cac\u0ccd\u0caf\u0cbe\u0c82\u0c95\u0ccd", "name:pa": "\u0a15\u0a47\u0a28\u0a30\u0a3e \u0a2c\u0a48\u0a02\u0a15", "name:pnb": "\u06a9\u06cc\u0646\u0631\u0627 \u0628\u06cc\u0646\u06a9", "name:ur": "\u06a9\u06cc\u0646\u0631\u0627 \u0628\u06cc\u0646\u06a9", "website": "https://www.canarabank.com/"}}, {"type": "node", "id": 665871301, "lat": 12.9993627, "lon": 77.6008367, "tags": {"addr:street": "Benson Cross Road", "amenity": "bank", "atm": "yes", "brand": "Indian Bank", "brand:wikidata": "Q2003789", "brand:wikipedia": "en:Indian Bank", "name": "Indian Bank", "name:en": "Indian Bank", "name:kn": "\u0c87\u0c82\u0ca1\u0cbf\u0caf\u0ca8\u0ccd \u0cac\u0ccd\u0caf\u0cbe\u0c82\u0c95\u0ccd", "website": "https://www.indianbank.in/"}}, {"type": "node", "id": 673972546, "lat": 12.9725957, "lon": 77.6014536}, {"type": "node", "id": 673972548, "lat": 12.9722012, "lon": 77.6014366}, {"type": "node", "id": 673972551, "lat": 12.9721817, "lon": 77.6019127}, {"type": "node", "id": 673972553, "lat": 12.9726617, "lon": 77.6019334}, {"type": "node", "id": 677286839, "lat": 12.9706824, "lon": 77.599609, "tags": {"addr:city": "Bangalore", "addr:street": "Lavelle Road", "amenity": "bank", "atm": "yes", "brand": "ICICI Bank", "brand:wikidata": "Q1653258", "name": "ICICI Bank", "name:en": "ICICI Bank", "name:kn": "\u0c90\u0cb8\u0cbf\u0c90\u0cb8\u0cbf\u0c90 \u0cac\u0ccd\u0caf\u0cbe\u0c82\u0c95\u0cc1", "short_name": "ICICI", "website": "https://www.icicibank.com"}}, {"type": "node", "id": 677286841, "lat": 12.9708631, "lon": 77.6010396, "tags": {"amenity": "bank", "atm": "yes", "branch": "Cantonment", "brand": "Bank of India", "brand:wikidata": "Q2004439", "brand:wikipedia": "en:Bank of India", "name": "Bank of India", "name:en": "Bank of India", "operator": "Bank of India", "short_name": "BoI", "website": "http://www.bankofindia.co.in"}}, {"type": "node", "id": 878034972, "lat": 12.9356089, "lon": 77.6151797, "tags": {"amenity": "bank", "atm": "yes", "brand": "HDFC Bank", "brand:wikidata": "Q631047", "brand:wikipedia": "en:HDFC Bank", "name": "HDFC Bank", "name:kn": "\u0c8e\u0c9a\u0ccd \u0ca1\u0cbf \u0c8e\u0cab\u0ccd \u0cb8\u0cbf", "operator": "HDFC", "short_name": "HDFC", "website": "https://www.hdfcbank.com"}}, {"type": "node", "id": 1085578877, "lat": 12.9443687, "lon": 77.573044, "tags": {"amenity": "bank", "atm": "yes", "brand": "Canara Bank", "brand:en": "Canara Bank", "brand:hi": "\u0915\u0947\u0928\u0930\u093e \u092c\u0948\u0902\u0915", "brand:kn": "\u0c95\u0cc6\u0ca8\u0cb0\u0cbe \u0cac\u0ccd\u0caf\u0cbe\u0c82\u0c95\u0ccd", "brand:pa": "\u0a15\u0a47\u0a28\u0a30\u0a3e \u0a2c\u0a48\u0a02\u0a15", "brand:pnb": "\u06a9\u06cc\u0646\u0631\u0627 \u0628\u06cc\u0646\u06a9", "brand:ur": "\u06a9\u06cc\u0646\u0631\u0627 \u0628\u06cc\u0646\u06a9", "brand:wikidata": "Q2003777", "brand:wikipedia": "en:Canara Bank", "brand:wikipedia:pa": "\u0a15\u0a47\u0a28\u0a30\u0a3e \u0a2c\u0a48\u0a02\u0a15", "name": "Canara Bank", "name:en": "Canara Bank", "name:hi": "\u0915\u0947\u0928\u0930\u093e \u092c\u0948\u0902\u0915", "name:kn": "\u0c95\u0cc6\u0ca8\u0cb0\u0cbe \u0cac\u0ccd\u0caf\u0cbe\u0c82\u0c95\u0ccd", "name:pa": "\u0a15\u0a47\u0a28\u0a30\u0a3e \u0a2c\u0a48\u0a02\u0a15", "name:pnb": "\u06a9\u06cc\u0646\u0631\u0627 \u0628\u06cc\u0646\u06a9", "name:ur": "\u06a9\u06cc\u0646\u0631\u0627 \u0628\u06cc\u0646\u06a9", "website": "https://www.canarabank.com/"}}, {"type": "node", "id": 1101598769, "lat": 12.9809052, "lon": 77.5754392, "tags": {"addr:street": "Sheshadri Road", "amenity": "bank", "atm": "yes", "brand": "Axis Bank", "brand:wikidata": "Q2003549", "brand:wikipedia": "en:Axis Bank", "name": "Axis Bank", "name:en": "Axis Bank", "name:kn": "\u0c86\u0c95\u0ccd\u0cb8\u0cbf\u0cb8\u0ccd \u0cac\u0ccd\u0caf\u0cbe\u0c82\u0c95\u0ccd", "website": "https://www.axisbank.com"}}, {"type": "node", "id": 1352675455, "lat": 12.978084, "lon": 77.6377484, "tags": {"addr:street": "Chinmaya Mission Hospital Road", "amenity": "bank", "atm": "yes", "brand": "HDFC Bank", "brand:wikidata": "Q631047", "brand:wikipedia": "en:HDFC Bank", "name": "HDFC Bank", "name:kn": "\u0c8e\u0c9a\u0ccd \u0ca1\u0cbf \u0c8e\u0cab\u0ccd \u0cb8\u0cbf", "short_name": "HDFC", "website": "https://www.hdfcbank.com"}}, {"type": "node", "id": 1420105711, "lat": 12.9701438, "lon": 77.6376584, "tags": {"amenity": "bank", "atm": "yes", "brand": "HDFC Bank", "brand:wikidata": "Q631047", "name": "HDFC Bank", "name:kn": "\u0c8e\u0c9a\u0ccd \u0ca1\u0cbf \u0c8e\u0cab\u0ccd \u0cb8\u0cbf", "short_name": "HDFC"}}, {"type": "node", "id": 1420105723, "lat": 12.9638721, "lon": 77.6400982, "tags": {"amenity": "bank", "atm": "yes", "check_date": "2023-10-08", "name": "Maha Bank"}}, {"type": "node", "id": 1438214050, "lat": 12.9365, "lon": 77.582432, "tags": {"amenity": "bank", "atm": "yes", "brand": "HDFC Bank", "brand:wikidata": "Q631047", "brand:wikipedia": "en:HDFC Bank", "name": "HDFC Bank", "name:kn": "\u0c8e\u0c9a\u0ccd \u0ca1\u0cbf \u0c8e\u0cab\u0ccd \u0cb8\u0cbf", "short_name": "HDFC", "website": "https://www.hdfcbank.com"}}, {"type": "node", "id": 1448049066, "lat": 12.932818, "lon": 77.5842985, "tags": {"amenity": "bank", "atm": "yes", "brand": "Corporation Bank", "brand:wikidata": "Q2003387", "brand:wikipedia": "en:Corporation Bank", "name": "Corporation Bank", "name:en": "Corporation Bank", "name:kn": "\u0c95\u0cbe\u0cb0\u0ccd\u0caa\u0cb0\u0cc7\u0cb7\u0ca8\u0ccd \u0cac\u0ccd\u0caf\u0cbe\u0c82\u0c95\u0ccd", "website": "https://corpbank.com/"}}, {"type": "node", "id": 1448051542, "lat": 12.9332256, "lon": 77.5837806}, {"type": "node", "id": 1448051543, "lat": 12.9334126, "lon": 77.5836076}, {"type": "node", "id": 1448051544, "lat": 12.933257, "lon": 77.5838209}, {"type": "node", "id": 1448051546, "lat": 12.933589, "lon": 77.5838128}, {"type": "node", "id": 1462691613, "lat": 13.002535, "lon": 77.578333, "tags": {"amenity": "bank", "atm": "yes", "brand": "State Bank of India", "brand:wikidata": "Q1340361", "brand:wikipedia": "en:State Bank of India", "name": "State Bank of India", "name:kn": "\u0c8e\u0cb8\u0ccd \u0cac\u0cbf \u0c90", "short_name": "SBI", "website": "https://www.sbi.co.in"}}, {"type": "node", "id": 1462692195, "lat": 13.0022031, "lon": 77.5783102, "tags": {"amenity": "bank", "atm": "yes", "brand": "Canara Bank", "brand:en": "Canara Bank", "brand:hi": "\u0915\u0947\u0928\u0930\u093e \u092c\u0948\u0902\u0915", "brand:kn": "\u0c95\u0cc6\u0ca8\u0cb0\u0cbe \u0cac\u0ccd\u0caf\u0cbe\u0c82\u0c95\u0ccd", "brand:pa": "\u0a15\u0a47\u0a28\u0a30\u0a3e \u0a2c\u0a48\u0a02\u0a15", "brand:pnb": "\u06a9\u06cc\u0646\u0631\u0627 \u0628\u06cc\u0646\u06a9", "brand:ur": "\u06a9\u06cc\u0646\u0631\u0627 \u0628\u06cc\u0646\u06a9", "brand:wikidata": "Q2003777", "brand:wikipedia": "en:Canara Bank", "brand:wikipedia:pa": "\u0a15\u0a47\u0a28\u0a30\u0a3e \u0a2c\u0a48\u0a02\u0a15", "name": "Canara Bank", "name:en": "Canara Bank", "name:hi": "\u0915\u0947\u0928\u0930\u093e \u092c\u0948\u0902\u0915", "name:kn": "\u0c95\u0cc6\u0ca8\u0cb0\u0cbe \u0cac\u0ccd\u0caf\u0cbe\u0c82\u0c95\u0ccd", "name:pa": "\u0a15\u0a47\u0a28\u0a30\u0a3e \u0a2c\u0a48\u0a02\u0a15", "name:pnb": "\u06a9\u06cc\u0646\u0631\u0627 \u0628\u06cc\u0646\u06a9", "name:ur": "\u06a9\u06cc\u0646\u0631\u0627 \u0628\u06cc\u0646\u06a9", "website": "https://www.canarabank.com/"}}, {"type": "node", "id": 1462984888, "lat": 12.9333844, "lon": 77.6132413, "tags": {"addr:postcode": "560095", "addr:street": "Hosur Road, Koramangala, Bangalore", "amenity": "bank", "atm": "yes", "brand": "Standard Chartered", "brand:wikidata": "Q548278", "name": "Standard Chartered", "name:kn": "\u0cb8\u0ccd\u0c9f\u0cbe\u0c82\u0ca1\u0cb0\u0ccd\u0ca1\u0ccd \u0c9a\u0cbe\u0cb0\u0ccd\u0c9f\u0cb0\u0ccd\u0ca1\u0ccd"}}, {"type": "node", "id": 1462991954, "lat": 12.9355699, "lon": 77.6142407, "tags": {"addr:postcode": "560095", "addr:street": "80 Feet Road, Koramangala, Bangalore", "amenity": "bank", "atm": "yes", "brand": "Axis Bank", "brand:wikidata": "Q2003549", "brand:wikipedia": "en:Axis Bank", "name": "Axis Bank", "name:en": "Axis Bank", "name:kn": "\u0c85\u0c95\u0ccd\u0cb8\u0cbf\u0cb8\u0ccd \u0cac\u0ccd\u0caf\u0cbe\u0c82\u0c95\u0ccd", "website": "https://www.axisbank.com"}}, {"type": "node", "id": 1463831750, "lat": 12.9338627, "lon": 77.6304381, "tags": {"amenity": "bank", "brand": "Axis Bank", "brand:wikidata": "Q2003549", "name": "Axis Bank", "name:kn": "\u0c86\u0c95\u0ccd\u0cb8\u0cbf\u0cb8\u0ccd \u0cac\u0ccd\u0caf\u0cbe\u0c82\u0c95\u0ccd", "operator": "Axix"}}, {"type": "node", "id": 1463863510, "lat": 12.9353385, "lon": 77.6138382, "tags": {"addr:postcode": "560095", "addr:street": "KORAMANGALA BRANCH, BANGALORE", "amenity": "bank", "atm": "yes", "brand": "State Bank of India", "brand:wikidata": "Q1340361", "brand:wikipedia": "en:State Bank of India", "name": "State Bank of India", "name:kn": "\u0cad\u0cbe\u0cb0\u0ca4\u0cc0\u0caf \u0cb8\u0ccd\u0c9f\u0cc7\u0c9f\u0ccd \u0cac\u0ccd\u0caf\u0cbe\u0c82\u0c95\u0ccd", "short_name": "SBI"}}, {"type": "node", "id": 1464784180, "lat": 12.9344222, "lon": 77.6240149, "tags": {"addr:street": "Koramangala, Bangalore", "amenity": "bank", "atm": "yes", "brand": "Canara Bank", "brand:en": "Canara Bank", "brand:hi": "\u0915\u0947\u0928\u0930\u093e \u092c\u0948\u0902\u0915", "brand:kn": "\u0c95\u0cc6\u0ca8\u0cb0\u0cbe \u0cac\u0ccd\u0caf\u0cbe\u0c82\u0c95\u0ccd", "brand:pa": "\u0a15\u0a47\u0a28\u0a30\u0a3e \u0a2c\u0a48\u0a02\u0a15", "brand:pnb": "\u06a9\u06cc\u0646\u0631\u0627 \u0628\u06cc\u0646\u06a9", "brand:ur": "\u06a9\u06cc\u0646\u0631\u0627 \u0628\u06cc\u0646\u06a9", "brand:wikidata": "Q2003777", "brand:wikipedia": "en:Canara Bank", "brand:wikipedia:pa": "\u0a15\u0a47\u0a28\u0a30\u0a3e \u0a2c\u0a48\u0a02\u0a15", "name": "Canara Bank", "name:en": "Canara Bank", "name:hi": "\u0915\u0947\u0928\u0930\u093e \u092c\u0948\u0902\u0915", "name:kn": "\u0c95\u0cc6\u0ca8\u0cb0\u0cbe \u0cac\u0ccd\u0caf\u0cbe\u0c82\u0c95\u0ccd", "name:pa": "\u0a15\u0a47\u0a28\u0a30\u0a3e \u0a2c\u0a48\u0a02\u0a15", "name:pnb": "\u06a9\u06cc\u0646\u0631\u0627 \u0628\u06cc\u0646\u06a9", "name:ur": "\u06a9\u06cc\u0646\u0631\u0627 \u0628\u06cc\u0646\u06a9", "website": "https://www.canarabank.com/"}}, {"type": "node", "id": 1464790791, "lat": 12.9336643, "lon": 77.6231619, "tags": {"addr:city": "Bengaluru", "addr:street": "Koramanagala", "amenity": "bank", "atm": "yes", "brand": "Kotak Mahindra Bank", "brand:wikidata": "Q2040404", "drive_through": "no", "name": "Kotak Mahindra Bank", "name:en": "Kotak Mahindra Bank", "name:kn": "\u0c95\u0ccb\u0c9f\u0c95\u0ccd \u0cae\u0cb9\u0cbf\u0c82\u0ca6\u0ccd\u0cb0 \u0cac\u0ccd\u0caf\u0cbe\u0c82\u0c95\u0ccd"}}, {"type": "node", "id": 1464790817, "lat": 12.9338891, "lon": 77.6232852, "tags": {"addr:city": "Bengaluru", "addr:street": "Koramangala", "amenity": "bank", "atm": "yes", "brand": "IDBI Bank", "brand:wikidata": "Q3633485", "drive_through": "no", "name": "IDBI Bank", "name:kn": "\u0c90\u0ca1\u0cbf\u0cac\u0cbf\u0c90 \u0cac\u0ccd\u0caf\u0cbe\u0c82\u0c95\u0ccd", "old_name": "Industrial Development Bank of India", "short_name": "IDBI"}}, {"type": "node", "id": 1464921660, "lat": 12.936103, "lon": 77.6251968, "tags": {"addr:street": "Koramangala, Bangalore", "amenity": "bank", "atm": "yes", "brand": "Karur Vysya Bank", "brand:wikidata": "Q6373724", "brand:wikipedia": "en:Karur Vysya Bank", "name": "Karur Vysya Bank", "name:en": "Karur Vysya Bank", "name:kn": "\u0c95\u0cb0\u0cc2\u0cb0\u0cc1 \u0cb5\u0cc8\u0cb6\u0ccd\u0caf \u0cac\u0ccd\u0caf\u0cbe\u0c82\u0c95\u0ccd", "short_name": "KVB", "website": "https://www.kvb.co.in"}}, {"type": "node", "id": 1464923222, "lat": 12.9358758, "lon": 77.6259621, "tags": {"addr:street": "Koramangala, Bangalore", "amenity": "bank", "atm": "yes", "name": "Dhanalakshmi Bank", "name:kn": "\u0ca6\u0ca8\u0cb2\u0c95\u0ccd\u0cb7\u0ccd\u0cae\u0cbf \u0cac\u0ccd\u0caf\u0cbe\u0c82\u0c95\u0ccd"}}, {"type": "node", "id": 1465008470, "lat": 12.9442215, "lon": 77.5725983, "tags": {"addr:street": "Gandhi Bazaar Main Road", "amenity": "bank", "brand": "Corporation Bank", "brand:wikidata": "Q2003387", "brand:wikipedia": "en:Corporation Bank", "name": "Corporation Bank", "name:en": "Corporation Bank", "name:kn": "\u0c95\u0cbe\u0cb0\u0ccd\u0caa\u0cb0\u0cc7\u0cb7\u0ca8\u0ccd \u0cac\u0ccd\u0caf\u0cbe\u0c82\u0c95\u0ccd", "source": "survey", "website": "https://corpbank.com/"}}, {"type": "node", "id": 1465033352, "lat": 12.9296755, "lon": 77.5519983, "tags": {"amenity": "bank", "atm": "yes", "brand": "State Bank of India", "brand:wikidata": "Q1340361", "brand:wikipedia": "en:State Bank of India", "name": "State Bank of India", "name:kn": "\u0cad\u0cbe\u0cb0\u0ca4\u0cc0\u0caf \u0cb8\u0ccd\u0c9f\u0cc7\u0c9f\u0ccd \u0cac\u0ccd\u0caf\u0cbe\u0c82\u0c95\u0ccd", "short_name": "SBI", "website": "https://www.sbi.co.in"}}, {"type": "node", "id": 1466328820, "lat": 12.9372141, "lon": 77.568841, "tags": {"addr:street": "N.R. Colony, 1st Main Road", "amenity": "bank", "atm": "yes", "brand": "Syndicate Bank", "brand:wikidata": "Q2004088", "name": "Syndicate Bank", "name:en": "Syndicate Bank", "name:kn": "\u0cb8\u0cbf\u0c82\u0ca1\u0cbf\u0c95\u0cc7\u0c9f\u0ccd \u0cac\u0ccd\u0caf\u0cbe\u0c82\u0c95\u0ccd", "website": "https://www.syndicatebank.in"}}, {"type": "node", "id": 1468449594, "lat": 12.9366883, "lon": 77.5488033, "tags": {"amenity": "bank", "atm": "yes", "brand": "State Bank of India", "brand:wikidata": "Q1340361", "name": "State Bank of India", "name:kn": "\u0cad\u0cbe\u0cb0\u0ca4\u0cc0\u0caf \u0cb8\u0ccd\u0c9f\u0cc7\u0c9f\u0ccd \u0cac\u0ccd\u0caf\u0cbe\u0c82\u0c95\u0ccd", "short_name": "SBI"}}, {"type": "node", "id": 1469274353, "lat": 12.9947968, "lon": 77.6152664, "tags": {"amenity": "bank", "atm": "yes", "brand": "ICICI Bank", "brand:wikidata": "Q1653258", "name": "ICICI Bank", "name:en": "ICICI Bank", "name:kn": "\u0c90\u0cb8\u0cbf\u0c90\u0cb8\u0cbf\u0c90 \u0cac\u0ccd\u0caf\u0cbe\u0c82\u0c95\u0cc1", "short_name": "ICICI", "website": "https://www.icicibank.com"}}, {"type": "node", "id": 1469314069, "lat": 12.9963828, "lon": 77.6202753, "tags": {"amenity": "bank", "name": "Vijaya Bank", "name:kn": "\u0cb5\u0cbf\u0c9c\u0caf \u0cac\u0ccd\u0caf\u0cbe\u0c82\u0c95\u0cc1"}}, {"type": "node", "id": 1469320280, "lat": 12.9969092, "lon": 77.6198773, "tags": {"amenity": "bank", "brand": "Axis Bank", "brand:wikidata": "Q2003549", "brand:wikipedia": "en:Axis Bank", "name": "Axis Bank", "name:en": "Axis Bank", "name:kn": "\u0c85\u0c95\u0ccd\u0cb8\u0cbf\u0cb8\u0ccd \u0cac\u0ccd\u0caf\u0cbe\u0c82\u0c95\u0ccd", "website": "https://www.axisbank.com"}}, {"type": "node", "id": 1470523385, "lat": 12.9420162, "lon": 77.6219426, "tags": {"amenity": "bank", "atm": "yes", "brand": "Federal Bank", "brand:wikidata": "Q2044983", "brand:wikipedia": "en:Federal Bank", "name": "Federal Bank", "name:en": "Federal Bank", "website": "https://www.federalbank.co.in"}}, {"type": "node", "id": 1470631822, "lat": 12.9366085, "lon": 77.6181363, "tags": {"amenity": "bank", "atm": "yes", "brand": "Oriental Bank of Commerce", "brand:wikidata": "Q367008", "brand:wikipedia": "en:Oriental Bank of Commerce", "name": "Oriental Bank of Commerce", "name:en": "Oriental Bank of Commerce", "short_name": "OBC", "website": "https://www.obcindia.co.in"}}, {"type": "node", "id": 1470856095, "lat": 12.9377559, "lon": 77.6239822, "tags": {"amenity": "bank", "atm": "yes", "brand": "Corporation Bank", "brand:wikidata": "Q2003387", "brand:wikipedia": "en:Corporation Bank", "name": "Corporation Bank", "name:en": "Corporation Bank", "name:kn": "\u0c95\u0cbe\u0cb0\u0ccd\u0caa\u0cb0\u0cc7\u0cb7\u0ca8\u0ccd \u0cac\u0ccd\u0caf\u0cbe\u0c82\u0c95\u0ccd", "website": "https://corpbank.com/"}}, {"type": "node", "id": 1471128658, "lat": 12.9386399, "lon": 77.6188173, "tags": {"amenity": "bank", "atm": "yes", "brand": "State Bank of India", "brand:wikidata": "Q1340361", "brand:wikipedia": "en:State Bank of India", "name": "State Bank of India", "name:kn": "\u0cad\u0cbe\u0cb0\u0ca4\u0cc0\u0caf \u0cb8\u0ccd\u0c9f\u0cc7\u0c9f\u0ccd \u0cac\u0ccd\u0caf\u0cbe\u0c82\u0c95\u0ccd", "short_name": "SBI", "website": "https://www.sbi.co.in"}}, {"type": "node", "id": 1472015388, "lat": 12.927395, "lon": 77.621901, "tags": {"amenity": "bank", "brand": "State Bank of India", "brand:wikidata": "Q1340361", "brand:wikipedia": "en:State Bank of India", "name": "State Bank of India", "name:kn": "\u0c8e\u0cb8\u0ccd \u0cac\u0cbf \u0c90", "short_name": "SBI", "website": "https://www.sbi.co.in"}}, {"type": "node", "id": 1472871254, "lat": 12.9322872, "lon": 77.6320394, "tags": {"addr:postcode": "560034", "addr:street": "80 Feet Road", "amenity": "bank", "name": "Unity Small Finance Bank"}}, {"type": "node", "id": 1473308099, "lat": 12.9386872, "lon": 77.6304956, "tags": {"amenity": "bank", "atm": "yes", "brand": "HDFC Bank", "brand:wikidata": "Q631047", "name": "HDFC Bank", "name:kn": "\u0c8e\u0c9a\u0ccd \u0ca1\u0cbf \u0c8e\u0cab\u0ccd \u0cb8\u0cbf", "short_name": "HDFC"}}, {"type": "node", "id": 1473309603, "lat": 12.9285393, "lon": 77.6001599, "tags": {"amenity": "bank", "atm": "yes", "brand": "ICICI Bank", "brand:wikidata": "Q1653258", "name": "ICICI Bank", "name:en": "ICICI Bank", "name:kn": "\u0c90\u0cb8\u0cbf\u0c90\u0cb8\u0cbf\u0c90 \u0cac\u0ccd\u0caf\u0cbe\u0c82\u0c95\u0cc1", "short_name": "ICICI", "website": "https://www.icicibank.com"}}, {"type": "node", "id": 1473902946, "lat": 12.940021, "lon": 77.5651693, "tags": {"amenity": "bank", "brand": "Allahabad Bank", "brand:wikidata": "Q2018840", "brand:wikipedia": "en:Allahabad Bank", "name": "Allahabad Bank", "name:en": "Allahabad Bank", "name:kn": "\u0c85\u0cb2\u0ccd\u0cb2\u0cb9\u0cbe\u0cac\u0cbe\u0ca6\u0ccd \u0cac\u0ccd\u0caf\u0cbe\u0c82\u0c95\u0ccd", "website": "https://www.allahabadbank.in"}}, {"type": "node", "id": 1473945527, "lat": 12.9473887, "lon": 77.568194, "tags": {"amenity": "bank", "brand": "HSBC", "brand:wikidata": "Q190464", "name": "HSBC"}}, {"type": "node", "id": 1473972586, "lat": 12.950339, "lon": 77.5673443, "tags": {"amenity": "bank", "atm": "yes", "brand": "ICICI Bank", "brand:wikidata": "Q1653258", "name": "ICICI Bank", "name:en": "ICICI Bank", "name:kn": "\u0c90\u0cb8\u0cbf\u0c90\u0cb8\u0cbf\u0c90 \u0cac\u0ccd\u0caf\u0cbe\u0c82\u0c95\u0cc1", "short_name": "ICICI", "website": "https://www.icicibank.com", "wheelchair": "no"}}, {"type": "node", "id": 1474088686, "lat": 12.928559, "lon": 77.5823467, "tags": {"amenity": "bank", "atm": "yes", "brand": "Union Bank of India", "brand:wikidata": "Q2004078", "brand:wikipedia": "en:Union Bank of India", "name": "Union Bank of India", "name:en": "Union Bank of India", "name:kn": "\u0caf\u0cc2\u0ca8\u0cbf\u0caf\u0ca8\u0ccd \u0cac\u0ccd\u0caf\u0cbe\u0c82\u0c95\u0ccd", "short_name": "UBI", "website": "https://www.unionbankofindia.co.in/"}}, {"type": "node", "id": 1474297275, "lat": 12.9918131, "lon": 77.6116694, "tags": {"addr:postcode": "560005", "addr:street": "ST JOHNS CHURCH ROAD", "alt_name": "Union Bank, St. John's Church Road Branch", "amenity": "bank", "atm": "yes", "brand": "Union Bank of India", "brand:wikidata": "Q2004078", "brand:wikipedia": "en:Union Bank of India", "name": "Union Bank of India", "name:en": "Union Bank of India", "name:kn": "\u0caf\u0cc2\u0ca8\u0cbf\u0caf\u0ca8\u0ccd \u0cac\u0ccd\u0caf\u0cbe\u0c82\u0c95\u0ccd", "short_name": "UBI", "website": "https://www.unionbankofindia.co.in/"}}, {"type": "node", "id": 1474308856, "lat": 12.9826498, "lon": 77.6104195, "tags": {"addr:postcode": "560042", "addr:street": "Commercial Street", "amenity": "bank", "atm": "yes", "name": "Corp Bank", "name:kn": "\u0c95\u0cbe\u0cb0\u0ccd\u0caa\u0ccd \u0cac\u0ccd\u0caf\u0cbe\u0c82\u0c95\u0ccd"}}, {"type": "node", "id": 1474473881, "lat": 12.9395395, "lon": 77.5959949, "tags": {"amenity": "bank", "atm": "yes", "brand": "State Bank of India", "brand:wikidata": "Q1340361", "brand:wikipedia": "en:State Bank of India", "name": "State Bank of India", "name:kn": "\u0cad\u0cbe\u0cb0\u0ca4\u0cc0\u0caf \u0cb8\u0ccd\u0c9f\u0cc7\u0c9f\u0ccd \u0cac\u0ccd\u0caf\u0cbe\u0c82\u0c95\u0ccd", "short_name": "SBI", "website": "https://www.sbi.co.in"}}, {"type": "node", "id": 1474820320, "lat": 12.9950177, "lon": 77.5716418, "tags": {"amenity": "bank", "brand": "State Bank of India", "brand:wikidata": "Q1340361", "brand:wikipedia": "en:State Bank of India", "name": "State Bank of India", "name:kn": "\u0cad\u0cbe\u0cb0\u0ca4\u0cc0\u0caf \u0cb8\u0ccd\u0c9f\u0cc7\u0c9f\u0ccd \u0cac\u0ccd\u0caf\u0cbe\u0c82\u0c95\u0ccd", "short_name": "SBI", "website": "https://www.sbi.co.in"}}, {"type": "node", "id": 1474821311, "lat": 12.978954, "lon": 77.5493836, "tags": {"amenity": "bank", "brand": "State Bank of India", "brand:wikidata": "Q1340361", "brand:wikipedia": "en:State Bank of India", "name": "State Bank of India", "name:kn": "\u0cad\u0cbe\u0cb0\u0ca4\u0cc0\u0caf \u0cb8\u0ccd\u0c9f\u0cc7\u0c9f\u0ccd \u0cac\u0ccd\u0caf\u0cbe\u0c82\u0c95\u0ccd", "short_name": "SBI", "website": "https://www.sbi.co.in"}}, {"type": "node", "id": 1568922438, "lat": 12.9643413, "lon": 77.5852008}, {"type": "node", "id": 1568922462, "lat": 12.9641084, "lon": 77.5851245}, {"type": "node", "id": 1568922499, "lat": 12.9645106, "lon": 77.5856471}, {"type": "node", "id": 1568922505, "lat": 12.9642157, "lon": 77.5850376}, {"type": "node", "id": 1568922525, "lat": 12.9646179, "lon": 77.5855602}, {"type": "node", "id": 1568922554, "lat": 12.964233, "lon": 77.5852865}, {"type": "node", "id": 1614268185, "lat": 12.9869904, "lon": 77.5786112, "tags": {"amenity": "bank", "atm": "yes", "brand": "Canara Bank", "brand:en": "Canara Bank", "brand:hi": "\u0915\u0947\u0928\u0930\u093e \u092c\u0948\u0902\u0915", "brand:kn": "\u0c95\u0cc6\u0ca8\u0cb0\u0cbe \u0cac\u0ccd\u0caf\u0cbe\u0c82\u0c95\u0ccd", "brand:pa": "\u0a15\u0a47\u0a28\u0a30\u0a3e \u0a2c\u0a48\u0a02\u0a15", "brand:pnb": "\u06a9\u06cc\u0646\u0631\u0627 \u0628\u06cc\u0646\u06a9", "brand:ur": "\u06a9\u06cc\u0646\u0631\u0627 \u0628\u06cc\u0646\u06a9", "brand:wikidata": "Q2003777", "brand:wikipedia": "en:Canara Bank", "brand:wikipedia:pa": "\u0a15\u0a47\u0a28\u0a30\u0a3e \u0a2c\u0a48\u0a02\u0a15", "name": "Canara Bank", "name:en": "Canara Bank", "name:hi": "\u0915\u0947\u0928\u0930\u093e \u092c\u0948\u0902\u0915", "name:kn": "\u0c95\u0cc6\u0ca8\u0cb0\u0cbe \u0cac\u0ccd\u0caf\u0cbe\u0c82\u0c95\u0ccd", "name:pa": "\u0a15\u0a47\u0a28\u0a30\u0a3e \u0a2c\u0a48\u0a02\u0a15", "name:pnb": "\u06a9\u06cc\u0646\u0631\u0627 \u0628\u06cc\u0646\u06a9", "name:ur": "\u06a9\u06cc\u0646\u0631\u0627 \u0628\u06cc\u0646\u06a9", "website": "https://www.canarabank.com/", "wheelchair": "no"}}, {"type": "node", "id": 1614268190, "lat": 12.9876512, "lon": 77.5799188, "tags": {"amenity": "bank", "atm": "yes", "brand": "ICICI Bank", "brand:wikidata": "Q1653258", "name": "ICICI Bank", "name:en": "ICICI Bank", "name:kn": "\u0c90\u0cb8\u0cbf\u0c90\u0cb8\u0cbf\u0c90 \u0cac\u0ccd\u0caf\u0cbe\u0c82\u0c95\u0cc1", "short_name": "ICICI", "website": "https://www.icicibank.com", "wheelchair": "no"}}, {"type": "node", "id": 1617398438, "lat": 12.9909647, "lon": 77.5748146, "tags": {"amenity": "bank", "atm": "yes", "brand": "Canara Bank", "brand:en": "Canara Bank", "brand:hi": "\u0915\u0947\u0928\u0930\u093e \u092c\u0948\u0902\u0915", "brand:kn": "\u0c95\u0cc6\u0ca8\u0cb0\u0cbe \u0cac\u0ccd\u0caf\u0cbe\u0c82\u0c95\u0ccd", "brand:pa": "\u0a15\u0a47\u0a28\u0a30\u0a3e \u0a2c\u0a48\u0a02\u0a15", "brand:pnb": "\u06a9\u06cc\u0646\u0631\u0627 \u0628\u06cc\u0646\u06a9", "brand:ur": "\u06a9\u06cc\u0646\u0631\u0627 \u0628\u06cc\u0646\u06a9", "brand:wikidata": "Q2003777", "brand:wikipedia": "en:Canara Bank", "brand:wikipedia:pa": "\u0a15\u0a47\u0a28\u0a30\u0a3e \u0a2c\u0a48\u0a02\u0a15", "name": "Canara Bank", "name:en": "Canara Bank", "name:hi": "\u0915\u0947\u0928\u0930\u093e \u092c\u0948\u0902\u0915", "name:kn": "\u0c95\u0cc6\u0ca8\u0cb0\u0cbe \u0cac\u0ccd\u0caf\u0cbe\u0c82\u0c95\u0ccd", "name:pa": "\u0a15\u0a47\u0a28\u0a30\u0a3e \u0a2c\u0a48\u0a02\u0a15", "name:pnb": "\u06a9\u06cc\u0646\u0631\u0627 \u0628\u06cc\u0646\u06a9", "name:ur": "\u06a9\u06cc\u0646\u0631\u0627 \u0628\u06cc\u0646\u06a9", "website": "https://www.canarabank.com/"}}, {"type": "node", "id": 1624836205, "lat": 13.0130617, "lon": 77.5578572}, {"type": "node", "id": 1657124481, "lat": 12.9308154, "lon": 77.5862906, "tags": {"amenity": "bank", "atm": "yes", "name": "Vijaya Bank", "name:kn": "\u0cb5\u0cbf\u0c9c\u0caf \u0cac\u0ccd\u0caf\u0cbe\u0c82\u0c95\u0cc1"}}, {"type": "node", "id": 1657124483, "lat": 12.9307984, "lon": 77.5865311, "tags": {"amenity": "bank", "atm": "yes", "brand": "Karur Vysya Bank", "brand:wikidata": "Q6373724", "brand:wikipedia": "en:Karur Vysya Bank", "name": "Karur Vysya Bank", "name:en": "Karur Vysya Bank", "name:kn": "\u0c95\u0cb0\u0cc2\u0cb0\u0cc1 \u0cb5\u0cc8\u0cb6\u0ccd\u0caf \u0cac\u0ccd\u0caf\u0cbe\u0c82\u0c95\u0ccd", "short_name": "KVB", "website": "https://www.kvb.co.in"}}, {"type": "node", "id": 1666861677, "lat": 12.9668886, "lon": 77.5993311, "tags": {"amenity": "bank", "brand": "Bank of Baroda", "brand:wikidata": "Q2003797", "level": "1", "name": "Bank of Baroda"}}, {"type": "node", "id": 1683016694, "lat": 12.9417658, "lon": 77.6158811, "tags": {"amenity": "bank", "atm": "yes", "brand": "Corporation Bank", "brand:wikidata": "Q2003387", "brand:wikipedia": "en:Corporation Bank", "name": "Corporation Bank", "name:en": "Corporation Bank", "name:kn": "\u0c95\u0cbe\u0cb0\u0ccd\u0caa\u0cb0\u0cc7\u0cb7\u0ca8\u0ccd \u0cac\u0ccd\u0caf\u0cbe\u0c82\u0c95\u0ccd", "website": "https://corpbank.com/"}}, {"type": "node", "id": 1719357865, "lat": 12.9345803, "lon": 77.5893442, "tags": {"addr:postcode": "560011", "addr:street": "Byrasandra Main Road", "amenity": "bank", "atm": "yes", "branch": "Byrasandra Branch", "brand": "State Bank of India", "brand:wikidata": "Q1340361", "brand:wikipedia": "en:State Bank of India", "name": "State Bank of India", "name:kn": "\u0cb8\u0ccd\u0c9f\u0cc7\u0c9f\u0ccd \u0cac\u0ccd\u0caf\u0cbe\u0c82\u0c95\u0ccd \u0c86\u0cab\u0ccd \u0c87\u0c82\u0ca1\u0cbf\u0caf\u0cbe", "short_name": "SBI"}}, {"type": "node", "id": 1741466668, "lat": 12.9371253, "lon": 77.5585054, "tags": {"amenity": "bank", "atm": "yes", "brand": "Corporation Bank", "brand:wikidata": "Q2003387", "brand:wikipedia": "en:Corporation Bank", "name": "Corporation Bank", "name:en": "Corporation Bank", "name:kn": "\u0c95\u0cbe\u0cb0\u0ccd\u0caa\u0ccb\u0cb0\u0cc7\u0cb6\u0ca8\u0ccd \u0cac\u0ccd\u0caf\u0cbe\u0c82\u0c95\u0ccd", "website": "https://corpbank.com/"}}, {"type": "node", "id": 1741799823, "lat": 12.9357213, "lon": 77.5609969, "tags": {"amenity": "bank", "atm": "yes", "brand": "Andhra Bank", "brand:wikidata": "Q2003476", "brand:wikipedia": "en:Andhra Bank", "name": "Andhra Bank", "name:en": "Andhra Bank", "name:kn": "\u0c86\u0c82\u0ca7\u0ccd\u0cb0 \u0cac\u0ccd\u0caf\u0cbe\u0c82\u0c95\u0ccd", "website": "https://www.andhrabank.in"}}, {"type": "node", "id": 1741832550, "lat": 12.9416578, "lon": 77.5644359, "tags": {"amenity": "bank", "atm": "yes", "brand": "Canara Bank", "brand:en": "Canara Bank", "brand:hi": "\u0915\u0947\u0928\u0930\u093e \u092c\u0948\u0902\u0915", "brand:kn": "\u0c95\u0cc6\u0ca8\u0cb0\u0cbe \u0cac\u0ccd\u0caf\u0cbe\u0c82\u0c95\u0ccd", "brand:pa": "\u0a15\u0a47\u0a28\u0a30\u0a3e \u0a2c\u0a48\u0a02\u0a15", "brand:pnb": "\u06a9\u06cc\u0646\u0631\u0627 \u0628\u06cc\u0646\u06a9", "brand:ur": "\u06a9\u06cc\u0646\u0631\u0627 \u0628\u06cc\u0646\u06a9", "brand:wikidata": "Q2003777", "brand:wikipedia": "en:Canara Bank", "brand:wikipedia:pa": "\u0a15\u0a47\u0a28\u0a30\u0a3e \u0a2c\u0a48\u0a02\u0a15", "name": "Canara Bank", "name:en": "Canara Bank", "name:hi": "\u0915\u0947\u0928\u0930\u093e \u092c\u0948\u0902\u0915", "name:kn": "\u0c95\u0cc6\u0ca8\u0cb0\u0cbe \u0cac\u0ccd\u0caf\u0cbe\u0c82\u0c95\u0ccd", "name:pa": "\u0a15\u0a47\u0a28\u0a30\u0a3e \u0a2c\u0a48\u0a02\u0a15", "name:pnb": "\u06a9\u06cc\u0646\u0631\u0627 \u0628\u06cc\u0646\u06a9", "name:ur": "\u06a9\u06cc\u0646\u0631\u0627 \u0628\u06cc\u0646\u06a9", "website": "https://www.canarabank.com/"}}, {"type": "node", "id": 1791592717, "lat": 12.9484672, "lon": 77.5716218, "tags": {"addr:street": "Uttaradi Mutt Road", "amenity": "bank", "atm": "yes", "brand": "Bank of Maharashtra", "brand:wikidata": "Q2004304", "brand:wikipedia": "en:Bank of Maharashtra", "name": "Bank of Maharashtra", "name:en": "Bank of Maharashtra", "website": "https://www.bankofmaharashtra.in/", "wheelchair": "no"}}, {"type": "node", "id": 1791991768, "lat": 12.9551211, "lon": 77.5663064, "tags": {"amenity": "bank", "atm": "yes", "brand": "HDFC Bank", "brand:wikidata": "Q631047", "brand:wikipedia": "en:HDFC Bank", "name": "HDFC Bank", "short_name": "HDFC", "website": "https://www.hdfcbank.com", "wheelchair": "no"}}, {"type": "node", "id": 1792713585, "lat": 12.9493264, "lon": 77.5679362, "tags": {"addr:street": "Bull Temple Road", "amenity": "bank", "atm": "yes", "branch": "Bull Temple Road", "brand": "State Bank of India", "brand:wikidata": "Q1340361", "brand:wikipedia": "en:State Bank of India", "check_date": "2023-09-09", "drive_through": "yes", "internet_access": "wlan", "internet_access:fee": "no", "name": "State Bank of India", "name:kn": "\u0cad\u0cbe\u0cb0\u0ca4\u0cc0\u0caf \u0cb8\u0ccd\u0c9f\u0cc7\u0c9f\u0ccd \u0cac\u0ccd\u0caf\u0cbe\u0c82\u0c95\u0ccd", "payment:mastercard": "yes", "payment:visa": "yes", "short_name": "SBI", "wheelchair": "yes"}}, {"type": "node", "id": 1792719335, "lat": 12.9416816, "lon": 77.5555618, "tags": {"addr:street": "Hanumantha Nagar Main Road", "amenity": "bank", "atm": "no", "name": "Mahila Co-operative Bank"}}, {"type": "node", "id": 1796636345, "lat": 12.9500847, "lon": 77.5679508, "tags": {"amenity": "bank", "atm": "no", "designation": "Karnatka State Industrial Co-operative Bank", "name": "Karnatka Rajya Kaigarika Sahakari Bank"}}, {"type": "node", "id": 1801375379, "lat": 12.9469992, "lon": 77.5641506, "tags": {"amenity": "bank", "atm": "yes", "brand": "Syndicate Bank", "brand:wikidata": "Q2004088", "name": "Syndicate Bank", "name:en": "Syndicate Bank", "name:kn": "\u0cb8\u0cbf\u0c82\u0ca1\u0cbf\u0c95\u0cc7\u0c9f\u0ccd \u0cac\u0ccd\u0caf\u0cbe\u0c82\u0c95\u0ccd", "website": "https://www.syndicatebank.in"}}, {"type": "node", "id": 1806971412, "lat": 12.95954, "lon": 77.5685551, "tags": {"amenity": "bank", "atm": "yes", "brand": "Canara Bank", "brand:en": "Canara Bank", "brand:hi": "\u0915\u0947\u0928\u0930\u093e \u092c\u0948\u0902\u0915", "brand:kn": "\u0c95\u0cc6\u0ca8\u0cb0\u0cbe \u0cac\u0ccd\u0caf\u0cbe\u0c82\u0c95\u0ccd", "brand:pa": "\u0a15\u0a47\u0a28\u0a30\u0a3e \u0a2c\u0a48\u0a02\u0a15", "brand:pnb": "\u06a9\u06cc\u0646\u0631\u0627 \u0628\u06cc\u0646\u06a9", "brand:ur": "\u06a9\u06cc\u0646\u0631\u0627 \u0628\u06cc\u0646\u06a9", "brand:wikidata": "Q2003777", "brand:wikipedia": "en:Canara Bank", "brand:wikipedia:pa": "\u0a15\u0a47\u0a28\u0a30\u0a3e \u0a2c\u0a48\u0a02\u0a15", "name": "Canara Bank", "name:en": "Canara Bank", "name:hi": "\u0915\u0947\u0928\u0930\u093e \u092c\u0948\u0902\u0915", "name:kn": "\u0c95\u0cc6\u0ca8\u0cb0\u0cbe \u0cac\u0ccd\u0caf\u0cbe\u0c82\u0c95\u0ccd", "name:pa": "\u0a15\u0a47\u0a28\u0a30\u0a3e \u0a2c\u0a48\u0a02\u0a15", "name:pnb": "\u06a9\u06cc\u0646\u0631\u0627 \u0628\u06cc\u0646\u06a9", "name:ur": "\u06a9\u06cc\u0646\u0631\u0627 \u0628\u06cc\u0646\u06a9", "toilets:wheelchair": "no", "website": "https://www.canarabank.com/", "wheelchair": "no"}}, {"type": "node", "id": 1813502850, "lat": 12.9993994, "lon": 77.5525068, "tags": {"amenity": "bank", "atm": "yes", "branch": "Rajajinagar", "brand": "Axis Bank", "brand:wikidata": "Q2003549", "check_date": "2023-01-02", "designation": "Axis Bank", "fee": "no", "name": "Axis Bank", "name:kn": "\u0c86\u0c95\u0ccd\u0cb8\u0cbf\u0cb8\u0ccd \u0cac\u0ccd\u0caf\u0cbe\u0c82\u0c95\u0ccd", "operator": "Axis Bank", "source": "Survey", "wheelchair": "no"}}, {"type": "node", "id": 1851618527, "lat": 12.9616161, "lon": 77.5986353, "tags": {"amenity": "bank", "atm": "yes", "brand": "IDFC First Bank", "brand:wikidata": "Q22031467", "brand:wikipedia": "en:IDFC First Bank", "drive_through": "no", "name": "IDFC First Bank", "not:brand:wikidata": "Q1653258", "operator": "IDFC First Bank"}}, {"type": "node", "id": 1851707242, "lat": 12.9655446, "lon": 77.601164, "tags": {"addr:city": "Bengaluru", "addr:district": "Bengaluru Urban", "addr:housenumber": "8/24", "addr:postcode": "560025", "addr:street": "Richmond Road", "amenity": "bank", "atm": "yes", "brand": "HDFC Bank", "brand:wikidata": "Q631047", "brand:wikipedia": "en:HDFC Bank", "name": "HDFC Bank", "name:kn": "\u0c8e\u0c9a\u0ccd \u0ca1\u0cbf \u0c8e\u0cab\u0ccd \u0cb8\u0cbf", "short_name": "HDFC", "website": "https://www.hdfcbank.com"}}, {"type": "node", "id": 1902387772, "lat": 12.9444288, "lon": 77.5724461, "tags": {"amenity": "bank", "brand": "Indian Bank", "brand:wikidata": "Q2003789", "brand:wikipedia": "en:Indian Bank", "name": "Indian Bank", "name:en": "Indian Bank", "name:kn": "\u0c87\u0c82\u0ca1\u0cbf\u0caf\u0ca8\u0ccd \u0cac\u0ccd\u0caf\u0cbe\u0c82\u0c95\u0ccd", "source": "survey", "website": "https://www.indianbank.in/"}}, {"type": "node", "id": 1905152109, "lat": 12.9410968, "lon": 77.5853528, "tags": {"amenity": "bank", "atm": "yes", "brand": "Andhra Bank", "brand:wikidata": "Q2003476", "brand:wikipedia": "en:Andhra Bank", "name": "Andhra Bank", "name:en": "Andhra Bank", "name:kn": "\u0c86\u0c82\u0ca7\u0ccd\u0cb0 \u0cac\u0ccd\u0caf\u0cbe\u0c82\u0c95\u0ccd", "source": "survey", "website": "https://www.andhrabank.in"}}, {"type": "node", "id": 1923771946, "lat": 12.9457543, "lon": 77.5724936, "tags": {"amenity": "bank", "name": "Sree Charan Bank", "name:kn": "\u0cb6\u0ccd\u0cb0\u0cc0 \u0c9a\u0cb0\u0ca3\u0ccd \u0cac\u0ccd\u0caf\u0cbe\u0c82\u0c95\u0ccd", "source:name": "survey"}}, {"type": "node", "id": 2014232345, "lat": 12.9700251, "lon": 77.5799594, "tags": {"amenity": "bank", "atm": "yes", "branch": "Vysya Bank", "brand": "ING", "brand:wikidata": "Q645708", "name": "ING", "wheelchair": "no"}}, {"type": "node", "id": 2014238900, "lat": 12.9732008, "lon": 77.5789268, "tags": {"amenity": "bank", "atm": "yes", "brand": "ICICI Bank", "brand:wikidata": "Q1653258", "name": "ICICI Bank", "name:en": "ICICI Bank", "name:kn": "\u0c90\u0cb8\u0cbf\u0c90\u0cb8\u0cbf\u0c90 \u0cac\u0ccd\u0caf\u0cbe\u0c82\u0c95\u0cc1", "short_name": "ICICI", "website": "https://www.icicibank.com", "wheelchair": "no"}}, {"type": "node", "id": 2019367760, "lat": 13.0050766, "lon": 77.5806041, "tags": {"amenity": "bank", "atm": "no", "brand": "Indian Bank", "brand:wikidata": "Q2003789", "brand:wikipedia": "en:Indian Bank", "name": "Indian Bank", "name:en": "Indian Bank", "name:kn": "\u0c87\u0c82\u0ca1\u0cbf\u0caf\u0ca8\u0ccd \u0cac\u0ccd\u0caf\u0cbe\u0c82\u0c95\u0ccd", "website": "https://www.indianbank.in/"}}, {"type": "node", "id": 2076240821, "lat": 12.9368837, "lon": 77.5785337}, {"type": "node", "id": 2076240823, "lat": 12.9368867, "lon": 77.5782978}, {"type": "node", "id": 2076240851, "lat": 12.9370935, "lon": 77.5785365}, {"type": "node", "id": 2076240852, "lat": 12.9370965, "lon": 77.5783005}, {"type": "node", "id": 2196133697, "lat": 13.0044109, "lon": 77.5668934, "tags": {"addr:street": "6th Main Road", "amenity": "bank", "atm": "yes", "name": "Sree Charan Bank", "name:kn": "\u0cb6\u0ccd\u0cb0\u0cc0 \u0c9a\u0cb0\u0ca3\u0ccd \u0cac\u0ccd\u0caf\u0cbe\u0c82\u0c95\u0ccd", "toilets:wheelchair": "no", "wheelchair": "no"}}, {"type": "node", "id": 2285451602, "lat": 12.9347958, "lon": 77.6298075, "tags": {"amenity": "bank", "atm": "yes", "brand": "HDFC Bank", "brand:wikidata": "Q631047", "name": "HDFC Bank", "name:kn": "\u0c8e\u0c9a\u0ccd \u0ca1\u0cbf \u0c8e\u0cab\u0ccd \u0cb8\u0cbf", "short_name": "HDFC"}}, {"type": "node", "id": 2285466693, "lat": 12.9299126, "lon": 77.621549, "tags": {"amenity": "bank", "atm": "yes", "brand": "Bank of Baroda", "brand:wikidata": "Q2003797", "brand:wikipedia": "en:Bank of Baroda", "name": "Bank of Baroda", "name:en": "Bank of Baroda", "short_name": "BoB", "website": "http://www.bankofbaroda.com"}}, {"type": "node", "id": 2314538270, "lat": 13.0012808, "lon": 77.5783329, "tags": {"amenity": "bank", "atm": "yes", "brand": "ICICI Bank", "brand:wikidata": "Q1653258", "name": "ICICI Bank", "name:kn": "\u0c90\u0cb8\u0cbf\u0c90\u0cb8\u0cbf\u0c90", "short_name": "ICICI"}}, {"type": "node", "id": 2314538271, "lat": 13.001239, "lon": 77.5783221, "tags": {"amenity": "bank", "atm": "yes", "brand": "HDFC Bank", "brand:wikidata": "Q631047", "name": "HDFC Bank", "short_name": "HDFC"}}, {"type": "node", "id": 2314538273, "lat": 13.0002354, "lon": 77.5781558, "tags": {"amenity": "bank", "atm": "yes", "brand": "Karnataka Bank", "brand:wikidata": "Q2042632", "name": "Karnataka Bank", "name:kn": "\u0c95\u0cb0\u0ccd\u0ca8\u0cbe\u0c9f\u0c95 \u0cac\u0ccd\u0caf\u0cbe\u0c82\u0c95\u0ccd"}}, {"type": "node", "id": 2468465645, "lat": 12.9921952, "lon": 77.5754609, "tags": {"amenity": "bank", "atm": "yes"}}, {"type": "node", "id": 2533910830, "lat": 13.0022734, "lon": 77.6177342, "tags": {"amenity": "bank", "atm": "yes", "brand": "State Bank of India", "brand:wikidata": "Q1340361", "brand:wikipedia": "en:State Bank of India", "name": "State Bank of India", "name:kn": "\u0cad\u0cbe\u0cb0\u0ca4\u0cc0\u0caf \u0cb8\u0ccd\u0c9f\u0cc7\u0c9f\u0ccd \u0cac\u0ccd\u0caf\u0cbe\u0c82\u0c95\u0ccd", "short_name": "SBI", "toilets:wheelchair": "no", "wheelchair": "limited"}}, {"type": "node", "id": 2547432010, "lat": 12.9306861, "lon": 77.6230253, "tags": {"amenity": "bank", "atm": "yes", "brand": "Syndicate Bank", "brand:wikidata": "Q2004088", "name": "Syndicate Bank", "name:en": "Syndicate Bank", "name:kn": "\u0cb8\u0cbf\u0c82\u0ca1\u0cbf\u0c95\u0cc7\u0c9f\u0ccd \u0cac\u0ccd\u0caf\u0cbe\u0c82\u0c95\u0ccd", "website": "https://www.syndicatebank.in"}}, {"type": "node", "id": 2554302473, "lat": 12.9846268, "lon": 77.5558117, "tags": {"amenity": "bank", "atm": "yes", "brand": "State Bank of India", "brand:wikidata": "Q1340361", "brand:wikipedia": "en:State Bank of India", "name": "State Bank of India", "name:kn": "\u0cad\u0cbe\u0cb0\u0ca4\u0cc0\u0caf \u0cb8\u0ccd\u0c9f\u0cc7\u0c9f\u0ccd \u0cac\u0ccd\u0caf\u0cbe\u0c82\u0c95\u0ccd", "short_name": "SBI"}}, {"type": "node", "id": 2631157902, "lat": 12.9943529, "lon": 77.5946809, "tags": {"amenity": "bank", "atm": "yes", "brand": "Canara Bank", "brand:en": "Canara Bank", "brand:hi": "\u0915\u0947\u0928\u0930\u093e \u092c\u0948\u0902\u0915", "brand:kn": "\u0c95\u0cc6\u0ca8\u0cb0\u0cbe \u0cac\u0ccd\u0caf\u0cbe\u0c82\u0c95\u0ccd", "brand:pa": "\u0a15\u0a47\u0a28\u0a30\u0a3e \u0a2c\u0a48\u0a02\u0a15", "brand:pnb": "\u06a9\u06cc\u0646\u0631\u0627 \u0628\u06cc\u0646\u06a9", "brand:ur": "\u06a9\u06cc\u0646\u0631\u0627 \u0628\u06cc\u0646\u06a9", "brand:wikidata": "Q2003777", "brand:wikipedia": "en:Canara Bank", "brand:wikipedia:pa": "\u0a15\u0a47\u0a28\u0a30\u0a3e \u0a2c\u0a48\u0a02\u0a15", "name": "Canara Bank", "name:en": "Canara Bank", "name:hi": "\u0915\u0947\u0928\u0930\u093e \u092c\u0948\u0902\u0915", "name:kn": "\u0c95\u0cc6\u0ca8\u0cb0\u0cbe \u0cac\u0ccd\u0caf\u0cbe\u0c82\u0c95\u0ccd", "name:pa": "\u0a15\u0a47\u0a28\u0a30\u0a3e \u0a2c\u0a48\u0a02\u0a15", "name:pnb": "\u06a9\u06cc\u0646\u0631\u0627 \u0628\u06cc\u0646\u06a9", "name:ur": "\u06a9\u06cc\u0646\u0631\u0627 \u0628\u06cc\u0646\u06a9", "opening_hours": "24/7", "website": "https://www.canarabank.com/"}}, {"type": "node", "id": 2631196042, "lat": 13.0019713, "lon": 77.5723357, "tags": {"amenity": "bank", "atm": "yes", "brand": "Canara Bank", "brand:en": "Canara Bank", "brand:hi": "\u0915\u0947\u0928\u0930\u093e \u092c\u0948\u0902\u0915", "brand:kn": "\u0c95\u0cc6\u0ca8\u0cb0\u0cbe \u0cac\u0ccd\u0caf\u0cbe\u0c82\u0c95\u0ccd", "brand:pa": "\u0a15\u0a47\u0a28\u0a30\u0a3e \u0a2c\u0a48\u0a02\u0a15", "brand:pnb": "\u06a9\u06cc\u0646\u0631\u0627 \u0628\u06cc\u0646\u06a9", "brand:ur": "\u06a9\u06cc\u0646\u0631\u0627 \u0628\u06cc\u0646\u06a9", "brand:wikidata": "Q2003777", "brand:wikipedia": "en:Canara Bank", "brand:wikipedia:pa": "\u0a15\u0a47\u0a28\u0a30\u0a3e \u0a2c\u0a48\u0a02\u0a15", "name": "Canara Bank", "name:en": "Canara Bank", "name:hi": "\u0915\u0947\u0928\u0930\u093e \u092c\u0948\u0902\u0915", "name:kn": "\u0c95\u0cc6\u0ca8\u0cb0\u0cbe \u0cac\u0ccd\u0caf\u0cbe\u0c82\u0c95\u0ccd", "name:pa": "\u0a15\u0a47\u0a28\u0a30\u0a3e \u0a2c\u0a48\u0a02\u0a15", "name:pnb": "\u06a9\u06cc\u0646\u0631\u0627 \u0628\u06cc\u0646\u06a9", "name:ur": "\u06a9\u06cc\u0646\u0631\u0627 \u0628\u06cc\u0646\u06a9", "website": "https://www.canarabank.com/"}}, {"type": "node", "id": 2774680147, "lat": 12.9652714, "lon": 77.5985205, "tags": {"addr:housename": "Ittiam", "addr:street": "Richmond Road", "amenity": "bank", "atm": "yes", "brand": "HDFC Bank", "brand:wikidata": "Q631047", "brand:wikipedia": "en:HDFC Bank", "name": "HDFC Bank", "name:kn": "\u0c8e\u0c9a\u0ccd \u0ca1\u0cbf \u0c8e\u0cab\u0ccd \u0cb8\u0cbf", "short_name": "HDFC", "source": "www.hdfcbank.com", "website": "https://www.hdfcbank.com"}}, {"type": "node", "id": 2868502488, "lat": 12.9573933, "lon": 77.582077, "tags": {"amenity": "bank", "atm": "yes", "brand": "Dena Bank", "brand:wikidata": "Q3595747", "brand:wikipedia": "en:Dena Bank", "name": "Dena Bank", "name:en": "Dena Bank", "name:kn": "\u0ca6\u0cc7\u0ca8 \u0cac\u0ccd\u0caf\u0cbe\u0c82\u0c95\u0ccd", "operator": "Dena Bank", "website": "http://www.denabank.com"}}, {"type": "node", "id": 2999562191, "lat": 12.9723534, "lon": 77.6186861, "tags": {"addr:street": "Mahatma Gandhi Road", "amenity": "bank", "name": "EXIM (Export-Import Bank of India)"}}, {"type": "node", "id": 3004782362, "lat": 12.9271848, "lon": 77.5910268, "tags": {"amenity": "bank", "atm": "yes", "brand": "Axis Bank", "brand:wikidata": "Q2003549", "brand:wikipedia": "en:Axis Bank", "name": "Axis Bank", "name:en": "Axis Bank", "name:kn": "\u0c86\u0c95\u0ccd\u0cb8\u0cbf\u0cb8\u0ccd \u0cac\u0ccd\u0caf\u0cbe\u0c82\u0c95\u0ccd", "website": "https://www.axisbank.com"}}, {"type": "node", "id": 3004782363, "lat": 12.9270197, "lon": 77.5903523, "tags": {"amenity": "bank", "atm": "yes", "brand": "Andhra Bank", "brand:wikidata": "Q2003476", "brand:wikipedia": "en:Andhra Bank", "name": "Andhra Bank", "name:en": "Andhra Bank", "name:kn": "\u0c86\u0c82\u0ca7\u0ccd\u0cb0 \u0cac\u0ccd\u0caf\u0cbe\u0c82\u0c95\u0ccd", "opening_hours": "Mo-Sa 09:30-16:00", "website": "https://www.andhrabank.in"}}, {"type": "node", "id": 3010263823, "lat": 12.9540038, "lon": 77.5801262, "tags": {"amenity": "bank", "atm": "yes", "brand": "Karnataka Bank", "brand:wikidata": "Q2042632", "name": "Karnataka Bank", "name:kn": "\u0c95\u0cb0\u0ccd\u0ca8\u0cbe\u0c9f\u0c95 \u0cac\u0ccd\u0caf\u0cbe\u0c82\u0c95\u0ccd", "operator": "Karnataka Bank", "source": "voice, GPS"}}, {"type": "node", "id": 3010263824, "lat": 12.9606096, "lon": 77.5835432, "tags": {"amenity": "bank", "brand": "State Bank of India", "brand:wikidata": "Q1340361", "brand:wikipedia": "en:State Bank of India", "name": "State Bank of India", "name:kn": "\u0cad\u0cbe\u0cb0\u0ca4\u0cc0\u0caf \u0cb8\u0ccd\u0c9f\u0cc7\u0c9f\u0ccd \u0cac\u0ccd\u0caf\u0cbe\u0c82\u0c95\u0ccd", "short_name": "SBI", "source": "voice, GPS", "website": "https://www.sbi.co.in"}}, {"type": "node", "id": 3010263825, "lat": 12.9579091, "lon": 77.5823797, "tags": {"amenity": "bank", "atm": "no", "brand": "State Bank of India", "brand:wikidata": "Q1340361", "brand:wikipedia": "en:State Bank of India", "name": "State Bank of India", "name:kn": "\u0cad\u0cbe\u0cb0\u0ca4\u0cc0\u0caf \u0cb8\u0ccd\u0c9f\u0cc7\u0c9f\u0ccd \u0cac\u0ccd\u0caf\u0cbe\u0c82\u0c95\u0ccd", "operator": "State Bank of India", "short_name": "SBI", "source": "voice, GPS"}}, {"type": "node", "id": 3010263826, "lat": 12.9503526, "lon": 77.579806, "tags": {"amenity": "bank", "atm": "no", "branch": "Zonal Office", "brand": "Syndicate Bank", "brand:wikidata": "Q2004088", "name": "Syndicate Bank", "name:en": "Syndicate Bank", "name:kn": "\u0cb8\u0cbf\u0c82\u0ca1\u0cbf\u0c95\u0cc7\u0c9f\u0ccd \u0cac\u0ccd\u0caf\u0cbe\u0c82\u0c95\u0ccd", "source": "voice, GPS", "website": "https://www.syndicatebank.in", "wikimedia_commons": "Category:Syndicate Bank"}}, {"type": "node", "id": 3016052469, "lat": 12.9520131, "lon": 77.6398096, "tags": {"amenity": "bank", "atm": "no", "brand": "Punjab National Bank", "brand:wikidata": "Q2743499", "name": "Punjab National Bank", "name:en": "Punjab National Bank", "name:kn": "\u0caa\u0c82\u0c9c\u0cbe\u0cac \u0cb0\u0cbe\u0cb7\u0ccd\u0c9f\u0ccd\u0cb0\u0cc0\u0caf \u0cac\u0ccd\u0caf\u0cbe\u0c82\u0c95\u0ccd", "operator": "Punjab National Bank", "short_name": "PNB", "source": "survey", "website": "https://www.pnbindia.in"}}, {"type": "node", "id": 3071135144, "lat": 12.9441523, "lon": 77.6232723}, {"type": "node", "id": 3071135145, "lat": 12.9440128, "lon": 77.6234204}, {"type": "node", "id": 3071135146, "lat": 12.944109, "lon": 77.6235635}, {"type": "node", "id": 3071135147, "lat": 12.9442822, "lon": 77.62345}, {"type": "node", "id": 3118722114, "lat": 12.9272865, "lon": 77.5615907, "tags": {"amenity": "bank", "atm": "yes", "brand": "IDBI", "brand:wikidata": "Q3633485", "brand:wikipedia": "en:IDBI Bank", "name": "IDBI Bank", "name:en": "IDBI Bank", "name:kn": "\u0c90\u0ca1\u0cbf\u0cac\u0cbf\u0c90 \u0cac\u0ccd\u0caf\u0cbe\u0c82\u0c95\u0ccd", "old_name": "Industrial Development Bank of India", "short_name": "IDBI", "website": "https://www.idbi.com"}}, {"type": "node", "id": 3193583765, "lat": 13.0004753, "lon": 77.6235286}, {"type": "node", "id": 3193583776, "lat": 13.0005322, "lon": 77.6233658}, {"type": "node", "id": 3193583785, "lat": 13.0005861, "lon": 77.6235693}, {"type": "node", "id": 3193583792, "lat": 13.0006105, "lon": 77.6234994}, {"type": "node", "id": 3193583795, "lat": 13.0006429, "lon": 77.6234065}, {"type": "node", "id": 3198981167, "lat": 12.9772096, "lon": 77.639037, "tags": {"amenity": "bank", "atm": "yes", "name": "Central Bank"}}, {"type": "node", "id": 3198992833, "lat": 12.9773806, "lon": 77.6389902, "tags": {"amenity": "bank", "atm": "yes", "brand": "Punjab National Bank", "brand:wikidata": "Q2743499", "name": "Punjab National Bank", "name:kn": "\u0caa\u0c82\u0c9c\u0cbe\u0cac \u0cb0\u0cbe\u0cb7\u0ccd\u0c9f\u0ccd\u0cb0\u0cc0\u0caf \u0cac\u0ccd\u0caf\u0cbe\u0c82\u0c95\u0ccd"}}, {"type": "node", "id": 3218746234, "lat": 12.9818224, "lon": 77.610245, "tags": {"addr:street": "Kamaraj Road", "amenity": "bank", "brand": "Corporation Bank", "brand:wikidata": "Q2003387", "brand:wikipedia": "en:Corporation Bank", "name": "Corporation Bank", "name:en": "Corporation Bank", "name:kn": "\u0c95\u0cbe\u0cb0\u0ccd\u0caa\u0cb0\u0cc7\u0cb7\u0ca8\u0ccd \u0cac\u0ccd\u0caf\u0cbe\u0c82\u0c95\u0ccd", "website": "https://corpbank.com/"}}, {"type": "node", "id": 3237635590, "lat": 12.9672272, "lon": 77.5871401, "tags": {"amenity": "bank", "brand": "Punjab National Bank", "brand:wikidata": "Q2743499", "name": "Punjab National Bank", "name:en": "Punjab National Bank", "name:kn": "\u0caa\u0c82\u0c9c\u0cbe\u0cac \u0cb0\u0cbe\u0cb7\u0ccd\u0c9f\u0ccd\u0cb0\u0cc0\u0caf \u0cac\u0ccd\u0caf\u0cbe\u0c82\u0c95\u0ccd", "short_name": "PNB", "website": "https://www.pnbindia.in"}}, {"type": "node", "id": 3292614929, "lat": 12.9736204, "lon": 77.6155256, "tags": {"amenity": "bank", "atm": "yes", "brand": "Citibank", "brand:wikidata": "Q857063", "name": "Citibank", "name:kn": "\u0cb8\u0cbf\u0c9f\u0cbf\u0cac\u0ccd\u0caf\u0cbe\u0c82\u0c95\u0ccd", "short_name": "Citi"}}, {"type": "node", "id": 3342048294, "lat": 12.9976504, "lon": 77.6095995, "tags": {"amenity": "bank", "brand": "Bank of Baroda", "brand:wikidata": "Q2003797", "brand:wikipedia": "en:Bank of Baroda", "name": "Bank of Baroda", "name:en": "Bank of Baroda", "name:kn": "\u0cac\u0ccd\u0caf\u0cbe\u0c82\u0c95\u0ccd \u0c86\u0cab\u0ccd \u0cac\u0cb0\u0ccb\u0ca1", "short_name": "BoB", "website": "http://www.bankofbaroda.com"}}, {"type": "node", "id": 3342080436, "lat": 12.9947176, "lon": 77.6153985, "tags": {"amenity": "bank", "atm": "yes", "brand": "IndusInd Bank", "brand:wikidata": "Q2040323", "brand:wikipedia": "en:Axis Bank", "check_date": "2024-05-19", "name": "IndusInd Bank", "name:en": "IndusInd Bank", "website": "https://www.axisbank.com"}}, {"type": "node", "id": 3342184333, "lat": 12.9974931, "lon": 77.6103558, "tags": {"amenity": "bank", "brand": "Axis Bank", "brand:wikidata": "Q2003549", "brand:wikipedia": "en:Axis Bank", "name": "Axis Bank", "name:en": "Axis Bank", "name:kn": "\u0c86\u0c95\u0ccd\u0cb8\u0cbf\u0cb8\u0ccd \u0cac\u0ccd\u0caf\u0cbe\u0c82\u0c95\u0ccd", "website": "https://www.axisbank.com"}}, {"type": "node", "id": 3342192953, "lat": 12.9982941, "lon": 77.608715, "tags": {"amenity": "bank", "brand": "Union Bank of India", "brand:wikidata": "Q2004078", "brand:wikipedia": "en:Corporation Bank", "check_date": "2024-05-19", "name": "Union Bank of India", "name:en": "Union Bank of India", "website": "https://corpbank.com/"}}, {"type": "node", "id": 3342219791, "lat": 13.0002582, "lon": 77.6112114, "tags": {"amenity": "bank", "atm": "yes", "brand": "State Bank of India", "brand:wikidata": "Q1340361", "brand:wikipedia": "en:State Bank of India", "name": "State Bank of India", "name:kn": "\u0cad\u0cbe\u0cb0\u0ca4\u0cc0\u0caf \u0cb8\u0ccd\u0c9f\u0cc7\u0c9f\u0ccd \u0cac\u0ccd\u0caf\u0cbe\u0c82\u0c95\u0ccd", "short_name": "SBI", "website": "https://www.sbi.co.in"}}, {"type": "node", "id": 3344233626, "lat": 12.9940387, "lon": 77.6156783, "tags": {"amenity": "bank", "atm": "yes", "brand": "Kotak Mahindra Bank", "brand:wikidata": "Q2040404", "brand:wikipedia": "en:Kotak Mahindra Bank", "name": "Kotak Mahindra Bank", "name:en": "Kotak Mahindra Bank", "name:kn": "\u0c95\u0ccb\u0c9f\u0c95\u0ccd \u0cae\u0cb9\u0cbf\u0c82\u0ca6\u0ccd\u0cb0 \u0cac\u0ccd\u0caf\u0cbe\u0c82\u0c95\u0ccd", "website": "http://www.kotak.com"}}, {"type": "node", "id": 3358130094, "lat": 12.9723229, "lon": 77.6017795}, {"type": "node", "id": 3358130097, "lat": 12.97254, "lon": 77.6015907}, {"type": "node", "id": 3358130131, "lat": 12.972331, "lon": 77.6015815}, {"type": "node", "id": 3358130145, "lat": 12.9726767, "lon": 77.6015674}, {"type": "node", "id": 3358130148, "lat": 12.9725318, "lon": 77.6017885}, {"type": "node", "id": 3369919926, "lat": 12.9778803, "lon": 77.6404428}, {"type": "node", "id": 3369919927, "lat": 12.9778833, "lon": 77.6405683}, {"type": "node", "id": 3369919930, "lat": 12.9779632, "lon": 77.6404407}, {"type": "node", "id": 3369919933, "lat": 12.9779662, "lon": 77.6405662}, {"type": "node", "id": 3369921219, "lat": 12.9757846, "lon": 77.6361056, "tags": {"addr:housenumber": "1312", "addr:street": "Indiranagar Double Road", "amenity": "bank", "brand": "Punjab & Sind Bank", "brand:en": "Punjab & Sind Bank", "brand:hi": "\u092a\u0902\u091c\u093e\u092c \u090f\u0923\u094d\u0921 \u0938\u093f\u0902\u0927 \u092c\u0948\u0902\u0915", "brand:ur": "\u067e\u0646\u062c\u0627\u0628 \u0627\u06cc\u0646\u0688 \u0633\u0646\u062f\u06be \u0628\u06cc\u0646\u06a9", "brand:website": "https://punjabandsindbank.co.in/", "brand:wikidata": "Q2003302", "name": "Punjab & Sind Bank", "name:en": "Punjab & Sind Bank", "name:hi": "\u092a\u0902\u091c\u093e\u092c \u090f\u0923\u094d\u0921 \u0938\u093f\u0902\u0927 \u092c\u0948\u0902\u0915", "name:pa": "\u0a2a\u0a70\u0a1c\u0a3e\u0a2c \u0a10\u0a02\u0a21 \u0a38\u0a3f\u0a70\u0a27 \u0a2c\u0a48\u0a02\u0a15", "name:ur": "\u067e\u0646\u062c\u0627\u0628 \u0627\u06cc\u0646\u0688 \u0633\u0646\u062f\u06be \u0628\u06cc\u0646\u06a9"}}, {"type": "node", "id": 3370003813, "lat": 12.9792133, "lon": 77.6367087, "tags": {"amenity": "bank", "atm": "yes", "name": "Lakshmi Vilas Bank", "name:kn": "\u0cb2\u0c95\u0ccd\u0cb7\u0ccd\u0cae\u0cbf \u0cb5\u0cbf\u0cb2\u0cbe\u0cb8 \u0cac\u0cbe\u0c82\u0c95\u0ccd"}}, {"type": "node", "id": 3370028964, "lat": 12.9787352, "lon": 77.6370118, "tags": {"amenity": "bank", "atm": "yes", "brand": "Bank of Baroda", "brand:wikidata": "Q2003797", "brand:wikipedia": "en:Bank of Baroda", "name": "Bank of Baroda", "name:en": "Bank of Baroda", "name:kn": "\u0cac\u0ccd\u0caf\u0cbe\u0c82\u0c95\u0ccd \u0c86\u0cab\u0ccd \u0cac\u0cb0\u0cca\u0ca1\u0cbe", "short_name": "BoB", "website": "http://www.bankofbaroda.com"}}, {"type": "node", "id": 3370083355, "lat": 12.9823857, "lon": 77.6380474, "tags": {"amenity": "bank", "atm": "yes", "brand": "Canara Bank", "brand:en": "Canara Bank", "brand:hi": "\u0915\u0947\u0928\u0930\u093e \u092c\u0948\u0902\u0915", "brand:kn": "\u0c95\u0cc6\u0ca8\u0cb0\u0cbe \u0cac\u0ccd\u0caf\u0cbe\u0c82\u0c95\u0ccd", "brand:pa": "\u0a15\u0a47\u0a28\u0a30\u0a3e \u0a2c\u0a48\u0a02\u0a15", "brand:pnb": "\u06a9\u06cc\u0646\u0631\u0627 \u0628\u06cc\u0646\u06a9", "brand:ur": "\u06a9\u06cc\u0646\u0631\u0627 \u0628\u06cc\u0646\u06a9", "brand:wikidata": "Q2003777", "brand:wikipedia": "en:Canara Bank", "brand:wikipedia:pa": "\u0a15\u0a47\u0a28\u0a30\u0a3e \u0a2c\u0a48\u0a02\u0a15", "name": "Canara Bank", "name:en": "Canara Bank", "name:hi": "\u0915\u0947\u0928\u0930\u093e \u092c\u0948\u0902\u0915", "name:kn": "\u0c95\u0cc6\u0ca8\u0cb0\u0cbe \u0cac\u0ccd\u0caf\u0cbe\u0c82\u0c95\u0ccd", "name:pa": "\u0a15\u0a47\u0a28\u0a30\u0a3e \u0a2c\u0a48\u0a02\u0a15", "name:pnb": "\u06a9\u06cc\u0646\u0631\u0627 \u0628\u06cc\u0646\u06a9", "name:ur": "\u06a9\u06cc\u0646\u0631\u0627 \u0628\u06cc\u0646\u06a9", "website": "https://www.canarabank.com/"}}, {"type": "node", "id": 3370083356, "lat": 12.9823745, "lon": 77.6378264, "tags": {"amenity": "bank", "atm": "yes", "brand": "Punjab National Bank", "brand:wikidata": "Q2743499", "name": "Punjab National Bank", "name:en": "Punjab National Bank", "name:kn": "\u0caa\u0c82\u0c9c\u0cbe\u0cac \u0cb0\u0cbe\u0cb7\u0ccd\u0c9f\u0ccd\u0cb0\u0cc0\u0caf \u0cac\u0ccd\u0caf\u0cbe\u0c82\u0c95\u0ccd", "short_name": "PNB", "website": "https://www.pnbindia.in"}}, {"type": "node", "id": 3370279045, "lat": 12.9772103, "lon": 77.6363398, "tags": {"addr:street": "Indiranagar Double Road (Paramahansa Yogananda road)", "amenity": "bank", "brand": "Western Union", "brand:wikidata": "Q861042", "brand:wikipedia": "en:Western Union", "name": "Western Union"}}, {"type": "node", "id": 3370468050, "lat": 12.978098, "lon": 77.6368529, "tags": {"amenity": "bank", "atm": "yes", "brand": "HDFC Bank", "brand:wikidata": "Q631047", "brand:wikipedia": "en:HDFC Bank", "name": "HDFC Bank", "name:kn": "\u0c8e\u0c9a\u0ccd \u0ca1\u0cbf \u0c8e\u0cab\u0ccd \u0cb8\u0cbf", "short_name": "HDFC", "website": "https://www.hdfcbank.com"}}, {"type": "node", "id": 3371304651, "lat": 12.9816267, "lon": 77.6404828, "tags": {"amenity": "bank", "atm": "yes", "brand": "Federal Bank", "brand:wikidata": "Q2044983", "brand:wikipedia": "en:Federal Bank", "name": "Federal Bank", "name:en": "Federal Bank", "name:kn": "\u0cab\u0cc6\u0ca1\u0cc6\u0cb0\u0cb2\u0ccd \u0cac\u0ccd\u0caf\u0cbe\u0c82\u0c95\u0ccd", "website": "https://www.federalbank.co.in"}}, {"type": "node", "id": 3371304652, "lat": 12.9817742, "lon": 77.640521, "tags": {"amenity": "bank", "atm": "yes", "brand": "Karur Vysya Bank", "brand:wikidata": "Q6373724", "brand:wikipedia": "en:Karur Vysya Bank", "name": "Karur Vysya Bank", "name:en": "Karur Vysya Bank", "name:kn": "\u0c95\u0cb0\u0cc2\u0cb0\u0cc1 \u0cb5\u0cc8\u0cb6\u0ccd\u0caf \u0cac\u0ccd\u0caf\u0cbe\u0c82\u0c95\u0ccd", "short_name": "KVB", "website": "https://www.kvb.co.in"}}, {"type": "node", "id": 3389064656, "lat": 12.981424, "lon": 77.6353009, "tags": {"addr:housenumber": "532", "amenity": "bank", "atm": "yes", "brand": "UCO Bank", "brand:wikidata": "Q2005310", "brand:wikipedia": "en:UCO Bank", "name": "UCO Bank", "name:en": "UCO Bank", "name:kn": "\u0caf\u0cc2\u0c95\u0cca \u0cac\u0ccd\u0caf\u0cbe\u0c82\u0c95\u0ccd", "old_name": "United Commercial Bank", "website": "https://www.ucobank.com"}}, {"type": "node", "id": 3389691978, "lat": 12.9783537, "lon": 77.635859, "tags": {"amenity": "bank", "atm": "yes", "brand": "Allahabad Bank", "brand:wikidata": "Q2018840", "brand:wikipedia": "en:Allahabad Bank", "name": "Allahabad Bank", "name:en": "Allahabad Bank", "name:kn": "\u0c85\u0cb2\u0cb9\u0cbe\u0cac\u0cbe\u0ca6\u0ccd \u0cac\u0ccd\u0caf\u0cbe\u0c82\u0c95", "website": "https://www.indianbank.in"}}, {"type": "node", "id": 3391135055, "lat": 12.9852058, "lon": 77.5564437, "tags": {"amenity": "bank", "brand": "Axis Bank", "brand:wikidata": "Q2003549", "brand:wikipedia": "en:Axis Bank", "name": "Axis Bank", "name:en": "Axis Bank", "name:kn": "\u0c86\u0c95\u0ccd\u0cb8\u0cbf\u0cb8\u0ccd \u0cac\u0ccd\u0caf\u0cbe\u0c82\u0c95\u0ccd", "website": "https://www.axisbank.com"}}, {"type": "node", "id": 3392655602, "lat": 12.9874289, "lon": 77.5541838, "tags": {"amenity": "bank", "brand": "State Bank of India", "brand:wikidata": "Q1340361", "name": "State Bank of India", "operator": "State Bank Of India", "short_name": "SBI"}}, {"type": "node", "id": 3406380502, "lat": 12.967159, "lon": 77.5891728, "tags": {"amenity": "bank", "atm": "yes", "brand": "Punjab National Bank", "brand:wikidata": "Q2743499", "ele": "1", "name": "Punjab National Bank", "name:en": "Punjab National Bank", "name:kn": "\u0caa\u0c82\u0c9c\u0cbe\u0cac \u0cb0\u0cbe\u0cb7\u0ccd\u0c9f\u0ccd\u0cb0\u0cc0\u0caf \u0cac\u0ccd\u0caf\u0cbe\u0c82\u0c95\u0ccd", "operator": "Punjab National Bank", "short_name": "PNB", "website": "https://www.pnbindia.in"}}, {"type": "node", "id": 3412653430, "lat": 12.9890694, "lon": 77.5558999, "tags": {"amenity": "bank", "atm": "yes", "brand": "Syndicate Bank", "brand:wikidata": "Q2004088", "building": "bank", "name": "Syndicate Bank", "name:en": "Syndicate Bank", "name:kn": "\u0cb8\u0cbf\u0c82\u0ca1\u0cbf\u0c95\u0cc7\u0c9f\u0ccd \u0cac\u0ccd\u0caf\u0cbe\u0c82\u0c95\u0ccd", "website": "https://www.syndicatebank.in"}}, {"type": "node", "id": 3453254017, "lat": 12.9426705, "lon": 77.580202}, {"type": "node", "id": 3453254018, "lat": 12.9425529, "lon": 77.5802046}, {"type": "node", "id": 3453254019, "lat": 12.9425503, "lon": 77.5803562}, {"type": "node", "id": 3453254020, "lat": 12.9426705, "lon": 77.5803548}, {"type": "node", "id": 3453556768, "lat": 12.9598751, "lon": 77.6384088, "tags": {"amenity": "bank", "brand": "Corporation Bank", "brand:wikidata": "Q2003387", "brand:wikipedia": "en:Corporation Bank", "name": "Corporation Bank", "name:en": "Corporation Bank", "name:kn": "\u0c95\u0cbe\u0cb0\u0ccd\u0caa\u0cb0\u0cc7\u0cb7\u0ca8\u0ccd \u0cac\u0ccd\u0caf\u0cbe\u0c82\u0c95\u0ccd", "website": "https://corpbank.com/"}}, {"type": "node", "id": 3453556772, "lat": 12.9594282, "lon": 77.6383636, "tags": {"amenity": "bank", "brand": "ICICI Bank", "brand:wikidata": "Q1653258", "name": "ICICI Bank", "name:kn": "\u0c90\u0cb8\u0cbf\u0c90\u0cb8\u0cbf\u0c90 \u0cac\u0ccd\u0caf\u0cbe\u0c82\u0c95\u0ccd", "short_name": "ICICI"}}, {"type": "node", "id": 3453556781, "lat": 12.9593491, "lon": 77.6383498, "tags": {"amenity": "bank", "brand": "HDFC Bank", "brand:wikidata": "Q631047", "name": "HDFC Bank", "name:kn": "\u0c8e\u0c9a\u0ccd \u0ca1\u0cbf \u0c8e\u0cab\u0ccd \u0cb8\u0cbf", "short_name": "HDFC"}}, {"type": "node", "id": 3453558195, "lat": 12.9577479, "lon": 77.6382507, "tags": {"amenity": "bank", "brand": "Canara Bank", "brand:en": "Canara Bank", "brand:hi": "\u0915\u0947\u0928\u0930\u093e \u092c\u0948\u0902\u0915", "brand:kn": "\u0c95\u0cc6\u0ca8\u0cb0\u0cbe \u0cac\u0ccd\u0caf\u0cbe\u0c82\u0c95\u0ccd", "brand:pa": "\u0a15\u0a47\u0a28\u0a30\u0a3e \u0a2c\u0a48\u0a02\u0a15", "brand:pnb": "\u06a9\u06cc\u0646\u0631\u0627 \u0628\u06cc\u0646\u06a9", "brand:ur": "\u06a9\u06cc\u0646\u0631\u0627 \u0628\u06cc\u0646\u06a9", "brand:wikidata": "Q2003777", "brand:wikipedia": "en:Canara Bank", "brand:wikipedia:pa": "\u0a15\u0a47\u0a28\u0a30\u0a3e \u0a2c\u0a48\u0a02\u0a15", "name": "Canara Bank", "name:en": "Canara Bank", "name:hi": "\u0915\u0947\u0928\u0930\u093e \u092c\u0948\u0902\u0915", "name:kn": "\u0c95\u0cc6\u0ca8\u0cb0\u0cbe \u0cac\u0ccd\u0caf\u0cbe\u0c82\u0c95\u0ccd", "name:pa": "\u0a15\u0a47\u0a28\u0a30\u0a3e \u0a2c\u0a48\u0a02\u0a15", "name:pnb": "\u06a9\u06cc\u0646\u0631\u0627 \u0628\u06cc\u0646\u06a9", "name:ur": "\u06a9\u06cc\u0646\u0631\u0627 \u0628\u06cc\u0646\u06a9", "website": "https://www.canarabank.com/"}}, {"type": "node", "id": 3476877519, "lat": 12.9617214, "lon": 77.6366258, "tags": {"amenity": "bank", "brand": "State Bank of India", "brand:wikidata": "Q1340361", "brand:wikipedia": "en:State Bank of India", "name": "State Bank of India", "name:kn": "\u0cad\u0cbe\u0cb0\u0ca4\u0cc0\u0caf \u0cb8\u0ccd\u0c9f\u0cc7\u0c9f\u0ccd \u0cac\u0ccd\u0caf\u0cbe\u0c82\u0c95\u0ccd", "short_name": "SBI"}}, {"type": "node", "id": 3520665041, "lat": 12.935925, "lon": 77.6061828, "tags": {"amenity": "bank", "atm": "yes", "brand": "South Indian Bank", "brand:wikidata": "Q2044973", "name": "South Indian Bank"}}, {"type": "node", "id": 3526180139, "lat": 13.0035234, "lon": 77.6166155, "tags": {"amenity": "bank", "atm": "yes", "brand": "ICICI Bank", "brand:wikidata": "Q1653258", "brand:wikipedia": "en:ICICI Bank", "name": "ICICI Bank", "name:en": "ICICI Bank", "name:kn": "\u0c90\u0cb8\u0cbf\u0c90\u0cb8\u0cbf\u0c90 \u0cac\u0ccd\u0caf\u0cbe\u0c82\u0c95\u0ccd", "short_name": "ICICI", "website": "https://www.icicibank.com", "wheelchair": "no"}}, {"type": "node", "id": 3527850981, "lat": 12.9916079, "lon": 77.6148985}, {"type": "node", "id": 3527850985, "lat": 12.9916611, "lon": 77.6147762}, {"type": "node", "id": 3527853795, "lat": 12.9917498, "lon": 77.6149635}, {"type": "node", "id": 3527853802, "lat": 12.991803, "lon": 77.6148412}, {"type": "node", "id": 3529777088, "lat": 13.0077257, "lon": 77.5630414}, {"type": "node", "id": 3529777089, "lat": 13.0077187, "lon": 77.5632298}, {"type": "node", "id": 3529777132, "lat": 13.0078624, "lon": 77.5630467}, {"type": "node", "id": 3529777137, "lat": 13.0078554, "lon": 77.5632351}, {"type": "node", "id": 3535249753, "lat": 12.9598601, "lon": 77.5715986}, {"type": "node", "id": 3535249754, "lat": 12.9598616, "lon": 77.5713708}, {"type": "node", "id": 3535249997, "lat": 12.9600049, "lon": 77.5715996}, {"type": "node", "id": 3535249998, "lat": 12.9600053, "lon": 77.5715451}, {"type": "node", "id": 3535250335, "lat": 12.9603725, "lon": 77.5715477}, {"type": "node", "id": 3535250337, "lat": 12.9603736, "lon": 77.5713745}, {"type": "node", "id": 3535450125, "lat": 12.9771468, "lon": 77.5761657}, {"type": "node", "id": 3535450128, "lat": 12.9771477, "lon": 77.5760503}, {"type": "node", "id": 3535450160, "lat": 12.9772357, "lon": 77.5761664}, {"type": "node", "id": 3535450164, "lat": 12.9772366, "lon": 77.576051}, {"type": "node", "id": 3544269655, "lat": 12.9391648, "lon": 77.5722572}, {"type": "node", "id": 3544269657, "lat": 12.9392237, "lon": 77.5723572}, {"type": "node", "id": 3544269667, "lat": 12.9393189, "lon": 77.5721617}, {"type": "node", "id": 3544269675, "lat": 12.9393778, "lon": 77.5722618}, {"type": "node", "id": 3546214608, "lat": 12.9365408, "lon": 77.5778936}, {"type": "node", "id": 3546214609, "lat": 12.9365406, "lon": 77.5777674}, {"type": "node", "id": 3546214639, "lat": 12.9366389, "lon": 77.5778934}, {"type": "node", "id": 3546214641, "lat": 12.9366387, "lon": 77.5777672}, {"type": "node", "id": 3546906645, "lat": 12.9719127, "lon": 77.6076587}, {"type": "node", "id": 3546906647, "lat": 12.9719697, "lon": 77.6078002}, {"type": "node", "id": 3546906650, "lat": 12.972071, "lon": 77.6075916}, {"type": "node", "id": 3546906654, "lat": 12.972128, "lon": 77.6077331}, {"type": "node", "id": 3546942453, "lat": 12.9469955, "lon": 77.5966589}, {"type": "node", "id": 3546942596, "lat": 12.9470912, "lon": 77.5967299}, {"type": "node", "id": 3546942604, "lat": 12.9471036, "lon": 77.5965055}, {"type": "node", "id": 3546942655, "lat": 12.9471993, "lon": 77.5965765}, {"type": "node", "id": 3547060887, "lat": 13.0136546, "lon": 77.6358773}, {"type": "node", "id": 3547060889, "lat": 13.0136866, "lon": 77.6356835}, {"type": "node", "id": 3547061399, "lat": 13.0137535, "lon": 77.6358945}, {"type": "node", "id": 3547061404, "lat": 13.0137855, "lon": 77.6357007}, {"type": "node", "id": 3556033537, "lat": 12.9821893, "lon": 77.638025, "tags": {"amenity": "bank", "atm": "yes", "name": "Bharath Co-Operative bank"}}, {"type": "node", "id": 3556263706, "lat": 12.9784446, "lon": 77.637751, "tags": {"amenity": "bank", "brand": "Vijaya Bank", "brand:wikidata": "Q2003171", "brand:wikipedia": "en:Vijaya Bank", "name": "Vijaya Bank", "name:kn": "\u0cb5\u0cbf\u0c9c\u0caf \u0cac\u0ccd\u0caf\u0cbe\u0c82\u0c95\u0cc1"}}, {"type": "node", "id": 3725661958, "lat": 12.9811664, "lon": 77.6405443, "tags": {"amenity": "bank", "name": "Karnataka State Cooperative Apex Bank"}}, {"type": "node", "id": 3760164254, "lat": 12.9751161, "lon": 77.6040333, "tags": {"amenity": "bank", "level": "0", "name": "Abu Dhabi Commercial Bank"}}, {"type": "node", "id": 3760192985, "lat": 12.9758241, "lon": 77.6043486, "tags": {"amenity": "bank", "brand": "State Bank of India", "brand:wikidata": "Q1340361", "brand:wikipedia": "en:State Bank of India", "level": "2", "name": "State Bank of India", "name:kn": "\u0cad\u0cbe\u0cb0\u0ca4\u0cc0\u0caf \u0cb8\u0ccd\u0c9f\u0cc7\u0c9f\u0ccd \u0cac\u0ccd\u0caf\u0cbe\u0c82\u0c95\u0ccd", "short_name": "SBI", "website": "https://www.sbi.co.in"}}, {"type": "node", "id": 3760200292, "lat": 12.975421, "lon": 77.6045772, "tags": {"amenity": "bank", "atm": "yes", "brand": "Canara Bank", "brand:en": "Canara Bank", "brand:hi": "\u0915\u0947\u0928\u0930\u093e \u092c\u0948\u0902\u0915", "brand:kn": "\u0c95\u0cc6\u0ca8\u0cb0\u0cbe \u0cac\u0ccd\u0caf\u0cbe\u0c82\u0c95\u0ccd", "brand:pa": "\u0a15\u0a47\u0a28\u0a30\u0a3e \u0a2c\u0a48\u0a02\u0a15", "brand:pnb": "\u06a9\u06cc\u0646\u0631\u0627 \u0628\u06cc\u0646\u06a9", "brand:ur": "\u06a9\u06cc\u0646\u0631\u0627 \u0628\u06cc\u0646\u06a9", "brand:wikidata": "Q2003777", "brand:wikipedia": "en:Canara Bank", "brand:wikipedia:pa": "\u0a15\u0a47\u0a28\u0a30\u0a3e \u0a2c\u0a48\u0a02\u0a15", "name": "Canara Bank", "name:en": "Canara Bank", "name:hi": "\u0915\u0947\u0928\u0930\u093e \u092c\u0948\u0902\u0915", "name:kn": "\u0c95\u0cc6\u0ca8\u0cb0\u0cbe \u0cac\u0ccd\u0caf\u0cbe\u0c82\u0c95\u0ccd", "name:pa": "\u0a15\u0a47\u0a28\u0a30\u0a3e \u0a2c\u0a48\u0a02\u0a15", "name:pnb": "\u06a9\u06cc\u0646\u0631\u0627 \u0628\u06cc\u0646\u06a9", "name:ur": "\u06a9\u06cc\u0646\u0631\u0627 \u0628\u06cc\u0646\u06a9", "website": "https://www.canarabank.com/"}}, {"type": "node", "id": 3760209816, "lat": 12.9755804, "lon": 77.6053256, "tags": {"amenity": "bank", "atm": "yes", "brand": "UCO Bank", "brand:wikidata": "Q2005310", "brand:wikipedia": "en:UCO Bank", "name": "UCO Bank", "name:en": "UCO Bank", "name:kn": "\u0caf\u0cc2\u0c95\u0cca \u0cac\u0ccd\u0caf\u0cbe\u0c82\u0c95\u0ccd", "old_name": "United Commercial Bank", "website": "https://www.ucobank.com"}}, {"type": "node", "id": 3760645311, "lat": 12.9761842, "lon": 77.602631, "tags": {"addr:postcode": "560001", "addr:street": "Mahatma Gandhi Road", "amenity": "bank", "atm": "yes", "brand": "Union Bank of India", "brand:wikidata": "Q2004078", "name": "Union Bank of India"}}, {"type": "node", "id": 3761074061, "lat": 12.9730522, "lon": 77.6085652, "tags": {"amenity": "bank", "brand": "State Bank of India", "brand:wikidata": "Q1340361", "brand:wikipedia": "en:State Bank of India", "level": "1", "name": "State Bank of India", "name:kn": "\u0cad\u0cbe\u0cb0\u0ca4\u0cc0\u0caf \u0cb8\u0ccd\u0c9f\u0cc7\u0c9f\u0ccd \u0cac\u0ccd\u0caf\u0cbe\u0c82\u0c95\u0ccd", "short_name": "SBI"}}, {"type": "node", "id": 3761261085, "lat": 12.9775007, "lon": 77.5883584, "tags": {"amenity": "bank", "atm": "yes", "brand": "Syndicate Bank", "brand:wikidata": "Q2004088", "level": "-1", "name": "Syndicate Bank", "name:en": "Syndicate Bank", "name:kn": "\u0cb8\u0cbf\u0c82\u0ca1\u0cbf\u0c95\u0cc7\u0c9f\u0ccd \u0cac\u0ccd\u0caf\u0cbe\u0c82\u0c95\u0ccd", "website": "https://www.syndicatebank.in"}}, {"type": "node", "id": 3761265943, "lat": 12.9782832, "lon": 77.5879912, "tags": {"amenity": "bank", "brand": "State Bank of India", "brand:wikidata": "Q1340361", "brand:wikipedia": "en:State Bank of India", "name": "State Bank of India", "name:kn": "\u0cb8\u0ccd\u0c9f\u0cc7\u0c9f\u0ccd \u0cac\u0ccd\u0caf\u0cbe\u0c82\u0c95\u0ccd \u0c86\u0cab\u0ccd \u0cae\u0cc8\u0cb8\u0cc2\u0cb0\u0cc1", "short_name": "SBI", "website": "https://www.sbi.co.in"}}, {"type": "node", "id": 3785881931, "lat": 12.9733286, "lon": 77.6167758, "tags": {"amenity": "bank", "atm": "yes", "brand": "Axis Bank", "brand:wikidata": "Q2003549", "brand:wikipedia": "en:Axis Bank", "level": "0", "name": "Axis Bank", "name:en": "Axis Bank", "name:kn": "\u0c85\u0c95\u0ccd\u0cb8\u0cbf\u0cb8\u0ccd \u0cac\u0ccd\u0caf\u0cbe\u0c82\u0c95\u0ccd", "website": "https://www.axisbank.com"}}, {"type": "node", "id": 3785884274, "lat": 12.9733953, "lon": 77.6169631, "tags": {"amenity": "bank", "brand": "Corporation Bank", "brand:wikidata": "Q2003387", "brand:wikipedia": "en:Corporation Bank", "level": "3", "name": "Corporation Bank", "name:en": "Corporation Bank", "name:kn": "\u0c95\u0cbe\u0cb0\u0ccd\u0caa\u0cb0\u0cc7\u0cb7\u0ca8\u0ccd \u0cac\u0ccd\u0caf\u0cbe\u0c82\u0c95\u0ccd", "website": "https://corpbank.com/"}}, {"type": "node", "id": 3785905427, "lat": 12.9733651, "lon": 77.6164843, "tags": {"amenity": "bank", "atm": "yes", "brand": "State Bank of India", "brand:wikidata": "Q1340361", "brand:wikipedia": "en:State Bank of India", "level": "0", "name": "State Bank of India", "name:kn": "\u0cad\u0cbe\u0cb0\u0ca4\u0cc0\u0caf \u0cb8\u0ccd\u0c9f\u0cc7\u0c9f\u0ccd \u0cac\u0ccd\u0caf\u0cbe\u0c82\u0c95\u0ccd", "short_name": "SBI"}}, {"type": "node", "id": 3785911557, "lat": 12.9734064, "lon": 77.6163313, "tags": {"amenity": "bank", "atm": "yes", "level": "0", "name": "Tamil Nadu Marcantile Bank"}}, {"type": "node", "id": 3804505582, "lat": 12.9608001, "lon": 77.6372345, "tags": {"amenity": "bank", "brand": "HDFC Bank", "brand:wikidata": "Q631047", "level": "0", "name": "HDFC Bank", "short_name": "HDFC", "wheelchair": "no"}}, {"type": "node", "id": 3805493606, "lat": 12.9721008, "lon": 77.6184589, "tags": {"amenity": "bank", "atm": "no", "level": "4", "name": "EXIM Bank;Export-Import Bank of India"}}, {"type": "node", "id": 3805499875, "lat": 12.9723831, "lon": 77.6184938, "tags": {"amenity": "bank", "atm": "no", "brand": "Canara Bank", "brand:en": "Canara Bank", "brand:hi": "\u0915\u0947\u0928\u0930\u093e \u092c\u0948\u0902\u0915", "brand:kn": "\u0c95\u0cc6\u0ca8\u0cb0\u0cbe \u0cac\u0ccd\u0caf\u0cbe\u0c82\u0c95\u0ccd", "brand:pa": "\u0a15\u0a47\u0a28\u0a30\u0a3e \u0a2c\u0a48\u0a02\u0a15", "brand:pnb": "\u06a9\u06cc\u0646\u0631\u0627 \u0628\u06cc\u0646\u06a9", "brand:ur": "\u06a9\u06cc\u0646\u0631\u0627 \u0628\u06cc\u0646\u06a9", "brand:wikidata": "Q2003777", "brand:wikipedia": "en:Canara Bank", "brand:wikipedia:pa": "\u0a15\u0a47\u0a28\u0a30\u0a3e \u0a2c\u0a48\u0a02\u0a15", "level": "3", "name": "Canara Bank", "name:en": "Canara Bank", "name:hi": "\u0915\u0947\u0928\u0930\u093e \u092c\u0948\u0902\u0915", "name:kn": "\u0c95\u0cc6\u0ca8\u0cb0\u0cbe \u0cac\u0ccd\u0caf\u0cbe\u0c82\u0c95\u0ccd", "name:pa": "\u0a15\u0a47\u0a28\u0a30\u0a3e \u0a2c\u0a48\u0a02\u0a15", "name:pnb": "\u06a9\u06cc\u0646\u0631\u0627 \u0628\u06cc\u0646\u06a9", "name:ur": "\u06a9\u06cc\u0646\u0631\u0627 \u0628\u06cc\u0646\u06a9", "website": "https://www.canarabank.com/"}}, {"type": "node", "id": 3808148855, "lat": 12.9741304, "lon": 77.6095504, "tags": {"amenity": "bank", "brand": "State Bank of India", "brand:wikidata": "Q1340361", "brand:wikipedia": "en:State Bank of India", "level": "0", "name": "State Bank of India", "name:kn": "\u0cad\u0cbe\u0cb0\u0ca4\u0cc0\u0caf \u0cb8\u0ccd\u0c9f\u0cc7\u0c9f\u0ccd \u0cac\u0ccd\u0caf\u0cbe\u0c82\u0c95\u0ccd", "short_name": "SBI", "website": "https://www.sbi.co.in"}}, {"type": "node", "id": 3808186286, "lat": 12.9739333, "lon": 77.6123872, "tags": {"amenity": "bank", "brand:wikidata": "Q5266685", "brand:wikipedia": "en:DCB Bank", "level": "0,1", "name": "DCB Bank", "name:en": "DCB Bank", "name:kn": "\u0ca1\u0cbf\u0cb8\u0cbf\u0cac\u0cbf \u0cac\u0ccd\u0caf\u0cbe\u0c82\u0c95\u0ccd", "website": "https://www.dcbbank.com"}}, {"type": "node", "id": 3808206692, "lat": 12.9731313, "lon": 77.6080088, "tags": {"amenity": "bank", "brand": "State Bank of India", "brand:wikidata": "Q1340361", "brand:wikipedia": "en:State Bank of India", "level": "3", "name": "State Bank of India", "name:kn": "\u0cad\u0cbe\u0cb0\u0ca4\u0cc0\u0caf \u0cb8\u0ccd\u0c9f\u0cc7\u0c9f\u0ccd \u0cac\u0ccd\u0caf\u0cbe\u0c82\u0c95\u0ccd", "short_name": "SBI"}}, {"type": "node", "id": 3808538485, "lat": 12.9729256, "lon": 77.6160971, "tags": {"addr:floor": "G;1", "amenity": "bank", "brand": "Kotak Mahindra Bank", "brand:wikidata": "Q2040404", "check_date": "2025-05-20", "level": "0;1", "name": "Kotak Mahindra Bank", "operator": "Kotak Mahindra Bank", "operator:wikidata": "Q2040404"}}, {"type": "node", "id": 3808553984, "lat": 12.9730752, "lon": 77.6155935, "tags": {"amenity": "bank", "brand": "HDFC Bank", "brand:wikidata": "Q631047", "brand:wikipedia": "en:HDFC Bank", "level": "0", "name": "HDFC Bank", "name:kn": "\u0c8e\u0c9a\u0ccd \u0ca1\u0cbf \u0c8e\u0cab\u0ccd \u0cb8\u0cbf", "short_name": "HDFC", "website": "https://www.hdfcbank.com"}}, {"type": "node", "id": 3808565777, "lat": 12.9731241, "lon": 77.6136623, "tags": {"amenity": "bank", "brand": "Deutsche Bank", "brand:wikidata": "Q66048", "level": "0;2-3", "name": "Deutsche Bank"}}, {"type": "node", "id": 3808565778, "lat": 12.9732234, "lon": 77.6137669, "tags": {"amenity": "bank", "brand": "Standard Chartered", "brand:wikidata": "Q548278", "level": "0;6", "name": "Standard Chartered", "name:kn": "\u0cb8\u0ccd\u0c9f\u0cbe\u0c82\u0ca1\u0cb0\u0ccd\u0ca1\u0ccd \u0c9a\u0cbe\u0cb0\u0ccd\u0c9f\u0cb0\u0ccd\u0ca1\u0ccd"}}, {"type": "node", "id": 3808573610, "lat": 12.9733488, "lon": 77.6136783, "tags": {"amenity": "bank", "brand": "Kotak Mahindra Bank", "brand:wikidata": "Q2040404", "brand:wikipedia": "en:Kotak Mahindra Bank", "level": "5", "name": "Kotak Mahindra Bank", "name:en": "Kotak Mahindra Bank", "name:kn": "\u0c95\u0ccb\u0c9f\u0c95\u0ccd \u0cae\u0cb9\u0cbf\u0c82\u0ca6\u0ccd\u0cb0 \u0cac\u0ccd\u0caf\u0cbe\u0c82\u0c95\u0ccd", "website": "http://www.kotak.com"}}, {"type": "node", "id": 3808614236, "lat": 12.9728784, "lon": 77.6138634, "tags": {"amenity": "bank", "brand": "Standard Chartered", "brand:wikidata": "Q548278", "level": "0,2,3", "name": "Standard Chartered", "name:kn": "\u0cb8\u0ccd\u0c9f\u0cbe\u0c82\u0ca1\u0cb0\u0ccd\u0ca1\u0ccd \u0c9a\u0cbe\u0cb0\u0ccd\u0c9f\u0cb0\u0ccd\u0ca1\u0ccd"}}, {"type": "node", "id": 3808615938, "lat": 12.972813, "lon": 77.6138715, "tags": {"amenity": "bank", "branch": "Zonal Office", "brand": "Punjab National Bank", "brand:wikidata": "Q2743499", "level": "1", "name": "Punjab National Bank", "name:kn": "\u0caa\u0c82\u0c9c\u0cbe\u0cac \u0cb0\u0cbe\u0cb7\u0ccd\u0c9f\u0ccd\u0cb0\u0cc0\u0caf \u0cac\u0ccd\u0caf\u0cbe\u0c82\u0c95\u0ccd"}}, {"type": "node", "id": 3808617598, "lat": 12.972881, "lon": 77.6139332, "tags": {"amenity": "bank", "branch": "Circle Office", "brand": "Indian Bank", "brand:wikidata": "Q2003789", "level": "4", "name": "Indian Bank"}}, {"type": "node", "id": 3820249093, "lat": 12.9735781, "lon": 77.6135363, "tags": {"amenity": "bank", "brand": "IndusInd Bank", "brand:wikidata": "Q2040323", "brand:wikipedia": "en:IndusInd Bank", "level": "0", "name": "IndusInd Bank", "name:en": "IndusInd Bank", "name:kn": "\u0c87\u0c82\u0ca1\u0cb8\u0ccd\u0c87\u0c82\u0ca1\u0ccd \u0cac\u0ccd\u0caf\u0cbe\u0c82\u0c95\u0ccd", "website": "https://www.indusind.com"}}, {"type": "node", "id": 3820249100, "lat": 12.973633, "lon": 77.6131796, "tags": {"amenity": "bank", "brand": "IndusInd Bank", "brand:wikidata": "Q2040323", "brand:wikipedia": "en:IndusInd Bank", "level": "5", "name": "IndusInd Bank", "name:en": "IndusInd Bank", "name:kn": "\u0c87\u0c82\u0ca1\u0cb8\u0ccd\u0c87\u0c82\u0ca1\u0ccd", "website": "https://www.indusind.com"}}, {"type": "node", "id": 3820249102, "lat": 12.9736382, "lon": 77.6131447, "tags": {"amenity": "bank", "brand": "Punjab National Bank", "brand:wikidata": "Q2743499", "level": "2", "name": "Punjab National Bank", "name:en": "Punjab National Bank", "name:kn": "\u0caa\u0c82\u0c9c\u0cbe\u0cac \u0cb0\u0cbe\u0cb7\u0ccd\u0c9f\u0ccd\u0cb0\u0cc0\u0caf \u0cac\u0ccd\u0caf\u0cbe\u0c82\u0c95\u0ccd", "short_name": "PNB", "website": "https://www.pnbindia.in"}}, {"type": "node", "id": 3844308319, "lat": 12.9730644, "lon": 77.6155317, "tags": {"amenity": "bank", "brand": "HDFC Bank", "brand:wikidata": "Q631047", "level": "-1", "name": "HDFC Bank", "short_name": "HDFC"}}, {"type": "node", "id": 3846361461, "lat": 12.9751927, "lon": 77.614784, "tags": {"amenity": "bank", "brand": "Allahabad Bank", "brand:wikidata": "Q2018840", "brand:wikipedia": "en:Allahabad Bank", "level": "1", "name": "Allahabad Bank", "name:en": "Allahabad Bank", "name:kn": "\u0c85\u0cb2\u0cb9\u0cbe\u0cac\u0cbe\u0ca6\u0ccd \u0cac\u0ccd\u0caf\u0cbe\u0c82\u0c95", "website": "https://www.allahabadbank.in"}}, {"type": "node", "id": 3846361464, "lat": 12.9751587, "lon": 77.6148698, "tags": {"amenity": "bank", "brand": "Syndicate Bank", "brand:wikidata": "Q2004088", "level": "1", "name": "Syndicate Bank", "name:kn": "\u0cb8\u0cbf\u0c82\u0ca1\u0cbf\u0c95\u0cc7\u0c9f\u0ccd \u0cac\u0ccd\u0caf\u0cbe\u0c82\u0c95\u0ccd"}}, {"type": "node", "id": 3862107357, "lat": 12.9677866, "lon": 77.6002508, "tags": {"amenity": "bank", "atm": "yes", "brand": "ICICI Bank", "brand:wikidata": "Q1653258", "name": "ICICI Bank", "short_name": "ICICI"}}, {"type": "node", "id": 3862569635, "lat": 12.9668801, "lon": 77.599278, "tags": {"amenity": "bank", "atm": "yes", "brand": "Indian Overseas Bank", "brand:wikidata": "Q2003611", "brand:wikipedia": "en:Indian Overseas Bank", "level": "0", "name": "Indian Overseas Bank", "name:en": "Indian Overseas Bank", "name:kn": "\u0c90 \u0c93 \u0cac\u0cbf", "short_name": "IOB", "website": "https://www.iob.in"}}, {"type": "node", "id": 3913898883, "lat": 13.0017248, "lon": 77.632187, "tags": {"amenity": "bank", "brand": "South Indian Bank", "brand:wikidata": "Q2044973", "name": "South Indian Bank", "name:kn": "\u0cb8\u0ccc\u0ca4\u0ccd \u0c87\u0c82\u0ca1\u0cbf\u0caf\u0ca8\u0ccd \u0cac\u0ccd\u0caf\u0cbe\u0c82\u0c95\u0ccd", "wheelchair": "no"}}, {"type": "node", "id": 3933474857, "lat": 13.0055578, "lon": 77.5711662, "tags": {"amenity": "bank", "atm": "yes", "brand": "Karur Vysya Bank", "brand:wikidata": "Q6373724", "brand:wikipedia": "en:Karur Vysya Bank", "name": "Karur Vysya Bank", "name:en": "Karur Vysya Bank", "name:kn": "\u0c95\u0cb0\u0cc2\u0cb0\u0ccd \u0cb5\u0cc8\u0cb6\u0ccd\u0caf \u0cac\u0ccd\u0caf\u0cbe\u0c82\u0c95\u0ccd", "short_name": "KVB", "source:amenity": "survey", "toilets:wheelchair": "no", "website": "https://www.kvb.co.in", "wheelchair": "no"}}, {"type": "node", "id": 3933475757, "lat": 13.0055552, "lon": 77.5708738, "tags": {"amenity": "bank", "atm": "yes", "brand": "South Indian Bank", "brand:wikidata": "Q2044973", "brand:wikipedia": "en:South Indian Bank", "name": "South Indian Bank", "name:kn": "\u0cb8\u0ccc\u0ca4\u0ccd \u0c87\u0c82\u0ca1\u0cbf\u0caf\u0ca8\u0ccd \u0cac\u0ccd\u0caf\u0cbe\u0c82\u0c95\u0ccd", "wheelchair": "no"}}, {"type": "node", "id": 3960924263, "lat": 12.9324956, "lon": 77.631848, "tags": {"addr:postcode": "560034", "addr:street": "80 Feet Road", "amenity": "bank", "atm": "yes", "brand": "Axis Bank", "brand:wikidata": "Q2003549", "brand:wikipedia": "en:Axis Bank", "level": "0", "name": "Axis Bank", "name:en": "Axis Bank", "name:kn": "\u0c85\u0c95\u0ccd\u0cb8\u0cbf\u0cb8\u0ccd \u0cac\u0ccd\u0caf\u0cbe\u0c82\u0c95\u0ccd", "website": "https://www.axisbank.com", "wheelchair": "no"}}, {"type": "node", "id": 4087938731, "lat": 12.9985096, "lon": 77.5700901, "tags": {"amenity": "bank", "brand": "State Bank of India", "brand:wikidata": "Q1340361", "brand:wikipedia": "en:State Bank of India", "name": "State Bank of India", "name:kn": "\u0cad\u0cbe\u0cb0\u0ca4\u0cc0\u0caf \u0cb8\u0ccd\u0c9f\u0cc7\u0c9f\u0ccd \u0cac\u0ccd\u0caf\u0cbe\u0c82\u0c95\u0ccd", "short_name": "SBI", "website": "https://www.sbi.co.in"}}, {"type": "node", "id": 4109505103, "lat": 13.0014995, "lon": 77.6308859, "tags": {"amenity": "bank", "brand": "Canara Bank", "brand:en": "Canara Bank", "brand:hi": "\u0915\u0947\u0928\u0930\u093e \u092c\u0948\u0902\u0915", "brand:kn": "\u0c95\u0cc6\u0ca8\u0cb0\u0cbe \u0cac\u0ccd\u0caf\u0cbe\u0c82\u0c95\u0ccd", "brand:pa": "\u0a15\u0a47\u0a28\u0a30\u0a3e \u0a2c\u0a48\u0a02\u0a15", "brand:pnb": "\u06a9\u06cc\u0646\u0631\u0627 \u0628\u06cc\u0646\u06a9", "brand:ur": "\u06a9\u06cc\u0646\u0631\u0627 \u0628\u06cc\u0646\u06a9", "brand:wikidata": "Q2003777", "brand:wikipedia": "en:Canara Bank", "brand:wikipedia:pa": "\u0a15\u0a47\u0a28\u0a30\u0a3e \u0a2c\u0a48\u0a02\u0a15", "name": "Canara Bank", "name:en": "Canara Bank", "name:hi": "\u0915\u0947\u0928\u0930\u093e \u092c\u0948\u0902\u0915", "name:kn": "\u0c95\u0cc6\u0ca8\u0cb0\u0cbe \u0cac\u0ccd\u0caf\u0cbe\u0c82\u0c95\u0ccd", "name:pa": "\u0a15\u0a47\u0a28\u0a30\u0a3e \u0a2c\u0a48\u0a02\u0a15", "name:pnb": "\u06a9\u06cc\u0646\u0631\u0627 \u0628\u06cc\u0646\u06a9", "name:ur": "\u06a9\u06cc\u0646\u0631\u0627 \u0628\u06cc\u0646\u06a9", "website": "https://www.canarabank.com/"}}, {"type": "node", "id": 4173847693, "lat": 13.0041697, "lon": 77.5822694, "tags": {"amenity": "bank", "atm": "yes", "brand": "HDFC Bank", "brand:wikidata": "Q631047", "brand:wikipedia": "en:HDFC Bank", "name": "HDFC Bank", "name:kn": "\u0c8e\u0c9a\u0ccd \u0ca1\u0cbf \u0c8e\u0cab\u0ccd \u0cb8\u0cbf", "operator": "HDFC Bank", "short_name": "HDFC", "website": "https://www.hdfcbank.com"}}, {"type": "node", "id": 4237195595, "lat": 13.00579, "lon": 77.5932698, "tags": {"amenity": "bank", "brand": "Axis Bank", "brand:wikidata": "Q2003549", "brand:wikipedia": "en:Axis Bank", "name": "Axis Bank", "name:en": "Axis Bank", "name:kn": "\u0c85\u0c95\u0ccd\u0cb8\u0cbf\u0cb8\u0ccd \u0cac\u0ccd\u0caf\u0cbe\u0c82\u0c95\u0ccd", "website": "https://www.axisbank.com"}}, {"type": "node", "id": 4254064797, "lat": 12.9378029, "lon": 77.5755637, "tags": {"amenity": "bank", "brand": "ICICI Bank", "brand:wikidata": "Q1653258", "name": "ICICI Bank", "name:en": "ICICI Bank", "name:kn": "\u0c90\u0cb8\u0cbf\u0c90\u0cb8\u0cbf\u0c90 \u0cac\u0ccd\u0caf\u0cbe\u0c82\u0c95\u0cc1", "opening_hours": "Mo-Fr 10:00-17:00; Sa 10:00-12:00", "short_name": "ICICI", "website": "https://www.icicibank.com"}}, {"type": "node", "id": 4254094089, "lat": 12.9404668, "lon": 77.5757675, "tags": {"addr:postcode": "560004", "addr:street": "Deewan Madhava Rao Road", "amenity": "bank", "brand": "IDBI Bank", "brand:wikidata": "Q3633485", "brand:wikipedia": "en:IDBI Bank", "name": "IDBI Bank", "name:kn": "\u0c90\u0ca1\u0cbf\u0cac\u0cbf\u0c90 \u0cac\u0ccd\u0caf\u0cbe\u0c82\u0c95\u0ccd", "old_name": "Industrial Development Bank of India", "opening_hours": "Mo-Fr 10:00-16:00; Sa 10:00-12:00", "short_name": "IDBI", "website": "https://www.idbi.com"}}, {"type": "node", "id": 4269429087, "lat": 12.9776666, "lon": 77.6364638, "tags": {"amenity": "bank", "atm": "yes", "brand": "State Bank of India", "brand:wikidata": "Q1340361", "brand:wikipedia": "en:State Bank of India", "name": "State Bank of India", "name:kn": "\u0cad\u0cbe\u0cb0\u0ca4\u0cc0\u0caf \u0cb8\u0ccd\u0c9f\u0cc7\u0c9f\u0ccd \u0cac\u0ccd\u0caf\u0cbe\u0c82\u0c95\u0ccd", "short_name": "SBI"}},