{"version": 0.6, "generator": "Overpass API 0.7.62.8 e802775f", "osm3s": {"timestamp_osm_base": "2025-11-29T05:56:59Z", "copyright": "The data included in this document is from www.openstreetmap.org. The data is made available under ODbL."}, "elements": [{"type": "node", "id": 2353058301, "lat": 12.3052918, "lon": 76.2985441, "tags": {"amenity": "fuel", "brand": "Hindustan Petroleum", "brand:wikidata": "Q1619375", "compressed_air": "yes", "fuel:diesel": "yes", "name": "HP", "name:kn": "\u0cb9\u0cbf\u0c82\u0ca6\u0cc1\u0cb8\u0ccd\u0ca4\u0cbe\u0ca8\u0ccd \u0caa\u0cc6\u0c9f\u0ccd\u0cb0\u0ccb\u0cb2\u0cbf\u0caf\u0c82", "official_name": "Hindustan Petroleum", "shop": "no"}}, {"type": "node", "id": 2353097440, "lat": 12.306521, "lon": 76.296543, "tags": {"amenity": "fuel", "brand": "Indian Oil", "brand:wikidata": "Q1289348", "brand:wikipedia": "en:Indian Oil Corporation", "name": "Indian Oil petrol Bunk"}}, {"type": "node", "id": 2354824512, "lat": 12.3086829, "lon": 76.290608, "tags": {"amenity": "fuel", "brand": "Bharath", "compressed_air": "yes", "fuel:diesel": "yes", "name": "Bharath Petrol bunk", "shop": "no"}}, {"type": "node", "id": 2354824530, "lat": 12.3124486, "lon": 76.2884162, "tags": {"amenity": "fuel", "brand": "Bharat Petroleum", "check_date": "2023-10-08", "compressed_air": "yes", "fuel:diesel": "yes", "self_service": "no"}}, {"type": "node", "id": 2354824542, "lat": 12.3100139, "lon": 76.2963689, "tags": {"amenity": "fuel", "brand": "Hindustan Petroleum", "brand:wikidata": "Q1619375", "fuel:diesel": "yes", "name": "HP Petrol Bunk", "name:kn": "\u0cb9\u0cbf\u0c82\u0ca6\u0cc1\u0cb8\u0ccd\u0ca4\u0cbe\u0ca8\u0ccd \u0caa\u0cc6\u0c9f\u0ccd\u0cb0\u0ccb\u0cb2\u0cbf\u0caf\u0c82", "official_name": "Hindustan Petroleum"}}, {"type": "node", "id": 2380299183, "lat": 12.3087282, "lon": 76.3083069}, {"type": "node", "id": 11248279565, "lat": 12.3125004, "lon": 76.2872143, "tags": {"amenity": "fuel", "brand": "Indian Oil", "brand:wikidata": "Q1289348", "check_date": "2023-10-08", "name": "Indian Oil", "name:kn": "\u0c87\u0c82\u0ca1\u0cbf\u0caf\u0ca8\u0ccd \u0c86\u0caf\u0cbf\u0cb2\u0ccd", "self_service": "no"}}, {"type": "node", "id": 12022543347, "lat": 12.3087176, "lon": 76.308508}, {"type": "node", "id": 12022543348, "lat": 12.308294, "lon": 76.308533}, {"type": "node", "id": 12022543349, "lat": 12.3082986, "lon": 76.3082851}, {"type": "way", "id": 1297644796, "nodes": [2380299183, 12022543347, 12022543348, 12022543349, 2380299183], "tags": {"amenity": "fuel", "brand": "Indian Oil", "brand:wikidata": "Q1289348", "brand:wikipedia": "en:Indian Oil Corporation", "name": "Indian Oil", "shop": "no"}}]}