{"version": 0.6, "generator": "Overpass API 0.7.62.8 e802775f", "osm3s": {"timestamp_osm_base": "2025-11-29T19:15:26Z", "copyright": "The data included in this document is from www.openstreetmap.org. The data is made available under ODbL."}, "elements": [{"type": "node", "id": 254923100, "lat": 12.9343816, "lon": 77.6104072}, {"type": "node", "id": 254923101, "lat": 12.9354655, "lon": 77.6115834}, {"type": "node", "id": 254923102, "lat": 12.9345176, "lon": 77.6120798}, {"type": "node", "id": 254923103, "lat": 12.9337057, "lon": 77.6112694}, {"type": "node", "id": 299524904, "lat": 13.0146763, "lon": 77.5681459, "tags": {"name": "Tata Book Store", "shop": "books"}}, {"type": "node", "id": 302493530, "lat": 12.930046, "lon": 77.5840522}, {"type": "node", "id": 302493531, "lat": 12.930046, "lon": 77.5844986}, {"type": "node", "id": 302493532, "lat": 12.9295942, "lon": 77.5844986}, {"type": "node", "id": 302493533, "lat": 12.9295942, "lon": 77.5840522}, {"type": "node", "id": 307411444, "lat": 12.9328185, "lon": 77.5830433, "tags": {"name": "Foodworld", "name:kn": "\u0cab\u0cc1\u0ca1\u0ccd \u0cb5\u0cb0\u0ccd\u0cb2\u0ccd\u0ca1\u0ccd", "shop": "supermarket"}}, {"type": "node", "id": 308925923, "lat": 12.9667188, "lon": 77.6113661}, {"type": "node", "id": 308925924, "lat": 12.966995, "lon": 77.611466}, {"type": "node", "id": 308925925, "lat": 12.9668617, "lon": 77.6120194}, {"type": "node", "id": 308925926, "lat": 12.966511, "lon": 77.6119031}, {"type": "node", "id": 312504711, "lat": 12.9588137, "lon": 77.6382484, "tags": {"name": "Family Mall", "opening_hours": "Mo-Su,PH 08:00-22:00", "shop": "supermarket"}}, {"type": "node", "id": 312504777, "lat": 12.9591813, "lon": 77.6382984, "tags": {"addr:city": "Bangalore", "addr:postcode": "560071", "addr:street": "7th Cross Road", "name": "Spencers Express", "organic": "yes", "shop": "supermarket", "website": "https://www.spencers.in/"}}, {"type": "node", "id": 312504798, "lat": 12.9595527, "lon": 77.638381, "tags": {"brand": "More", "brand:wikidata": "Q6910891", "name": "More", "name:kn": "\u0cae\u0ccb\u0cb0\u0ccd", "opening_hours": "Mo-Su,PH 09:00-21:00", "shop": "supermarket"}}, {"type": "node", "id": 312506295, "lat": 12.9621752, "lon": 77.6373877, "tags": {"shop": "supermarket"}}, {"type": "node", "id": 312543003, "lat": 12.9683637, "lon": 77.6125681}, {"type": "node", "id": 312832762, "lat": 12.9621887, "lon": 77.6363771, "tags": {"created_by": "Potlatch 0.10f", "shop": "bicycle"}}, {"type": "node", "id": 316483286, "lat": 12.9748429, "lon": 77.608086, "tags": {"addr:street": "M G Road", "craft": "handicraft", "name": "Cauvery Arts And Crafts Emporium", "shop": "craft"}}, {"type": "node", "id": 317119985, "lat": 12.9543746, "lon": 77.5930172, "tags": {"amenity": "restaurant", "brand": "Adyar Ananda Bhavan", "brand:wikidata": "Q15178238", "name": "Adyar Ananda Bhavan", "name:kn": "\u0c95\u0ca6\u0c82\u0cac \u0cb5\u0cc6\u0c9c\u0ccd", "opening_hours": "PH,Mo-Su 07:00-22:30", "shop": "confectionery", "survey:date": "2024-02-01"}}, {"type": "node", "id": 323638044, "lat": 12.9737535, "lon": 77.5959935, "tags": {"addr:city": "Bangalore", "addr:housenumber": "107", "addr:postcode": "560 001", "addr:street": "Kasturba Road", "brand": "General Motors", "email": "salesgmblr@sundarammotors.com", "name": "TVS Sundaram Motors", "phone": "+91-80-22070713;+91-80-22070709", "service": "dealer;repair;tyres;parts", "shop": "car", "website": "https://www.sundarammotors.com/"}}, {"type": "node", "id": 343089650, "lat": 12.9915471, "lon": 77.614181, "tags": {"addr:housenumber": "# 1/2", "addr:postcode": "560005", "addr:street": "Wheeler Road", "name": "Thom's Bakery", "name:ar": "\u062f\u0643\u0627\u0646 \u0643\u0628\u064a\u0631", "name:kn": "\u0ca5\u0cbe\u0cae\u0ccd\u0cb8\u0ccd \u0cac\u0cc7\u0c95\u0cb0\u0cbf", "shop": "bakery"}}, {"type": "node", "id": 428305621, "lat": 13.0016175, "lon": 77.5713543, "tags": {"name": "Archies Gallery", "shop": "gift"}}, {"type": "node", "id": 428457212, "lat": 12.9697383, "lon": 77.6003775, "tags": {"addr:city": "Bangalore", "addr:country": "IN", "addr:hamlet": "Shanthala Nagar", "addr:housename": "Sophia's Choice", "addr:postcode": "560001", "addr:street": "Saint Mark's Road", "amenity": "cafe", "delivery": "yes", "name": "Old Madras Baking Company", "opening_hours": "08:00-23:00", "operator": "Old Madras Baking Company", "shop": "bakery", "takeaway": "yes"}}, {"type": "node", "id": 428497519, "lat": 13.0037901, "lon": 77.5691874, "tags": {"addr:street": "Margosa Road", "check_date": "2024-05-12", "name": "Geojit Financial Services", "shop": "mobile_phone"}}, {"type": "node", "id": 456039717, "lat": 12.9923538, "lon": 77.5713854}, {"type": "node", "id": 456214161, "lat": 12.9735992, "lon": 77.5803131, "tags": {"name": "Kids Kemp", "shop": "clothes"}}, {"type": "node", "id": 457920057, "lat": 12.9351332, "lon": 77.6110165}, {"type": "node", "id": 459815988, "lat": 12.9717341, "lon": 77.5952057}, {"type": "node", "id": 459815990, "lat": 12.972257, "lon": 77.5969489}, {"type": "node", "id": 459815991, "lat": 12.9725942, "lon": 77.5961729}, {"type": "node", "id": 459815992, "lat": 12.9731455, "lon": 77.5963896}, {"type": "node", "id": 459815994, "lat": 12.9730804, "lon": 77.5953278}, {"type": "node", "id": 517874462, "lat": 12.9510696, "lon": 77.5775371, "tags": {"name": "Mumbai Badam & Lassi Center", "shop": "beverages"}}, {"type": "node", "id": 571124364, "lat": 13.0042882, "lon": 77.5710889, "tags": {"addr:street": "Sampige Road", "brand": "Reliance Fresh", "brand:wikidata": "Q7311014", "brand:wikipedia": "en:Reliance Fresh", "name": "Reliance Fresh", "name:kn": "\u0cb0\u0cbf\u0cb2\u0cbe\u0caf\u0ca8\u0ccd\u0cb8\u0ccd \u0cab\u0ccd\u0cb0\u0cc6\u0cb6\u0ccd", "shop": "supermarket"}}, {"type": "node", "id": 574254132, "lat": 13.00559, "lon": 77.570496, "tags": {"name": "HOPCOMS", "name:kn": "\u0cb9\u0cbe\u0caa\u0ccd \u0c95\u0cbe\u0cae\u0ccd\u0cb8\u0ccd", "operator": "milk store", "shop": "convenience"}}, {"type": "node", "id": 574499845, "lat": 13.0061977, "lon": 77.5693737, "tags": {"branch": "Malleshwaram", "check_date": "2025-08-09", "name": "Reliance smart", "shop": "supermarket"}}, {"type": "node", "id": 595408704, "lat": 12.9318838, "lon": 77.5840243, "tags": {"shop": "books"}}, {"type": "node", "id": 596453203, "lat": 12.9756872, "lon": 77.6016983}, {"type": "node", "id": 598969458, "lat": 12.9751738, "lon": 77.604825, "tags": {"addr:street": "Church Street", "name": "Blossoms", "shop": "books"}}, {"type": "node", "id": 599205803, "lat": 13.0068052, "lon": 77.5645334, "tags": {"brand": "Reliance Fresh", "brand:wikidata": "Q7311014", "name": "Reliance Fresh", "name:kn": "\u0cb0\u0cbf\u0cb2\u0cbe\u0caf\u0ca8\u0ccd\u0cb8\u0ccd \u0cab\u0ccd\u0cb0\u0cc6\u0cb6\u0ccd", "shop": "supermarket"}}, {"type": "node", "id": 621310418, "lat": 13.0002063, "lon": 77.5697663, "tags": {"name": "Baker's Hut", "name:kn": "\u0cac\u0cc7\u0c95\u0cb0\u0ccd\u0cb8\u0ccd \u0cb9\u0c9f\u0ccd", "shop": "bakery"}}, {"type": "node", "id": 661056775, "lat": 13.0075667, "lon": 77.5780609, "tags": {"name": "Naturals Unisex Salon", "shop": "hairdresser"}}, {"type": "node", "id": 661056776, "lat": 13.0074878, "lon": 77.5781867, "tags": {"name": "Regal Voyages", "shop": "travel_agency"}}, {"type": "node", "id": 661983020, "lat": 12.9720317, "lon": 77.6009309, "tags": {"addr:street": "Saint Mark's Road", "amenity": "cafe", "name": "Juice Junction", "shop": "beverages"}}, {"type": "node", "id": 661983060, "lat": 12.9889922, "lon": 77.5925712, "tags": {"brand": "Citro\u00ebn", "brand:wikidata": "Q6746", "name": "PPS Motors", "shop": "car"}}, {"type": "node", "id": 662894703, "lat": 12.949455, "lon": 77.6171956, "tags": {"shop": "General store", "ups_shop": "shop"}}, {"type": "node", "id": 662894707, "lat": 12.9497687, "lon": 77.6175899, "tags": {"shop": "General store", "ups_shop": "shop"}}, {"type": "node", "id": 662894713, "lat": 12.9501905, "lon": 77.6177916, "tags": {"shop": "electrical"}}, {"type": "node", "id": 663334484, "lat": 13.0078677, "lon": 77.5795899, "tags": {"addr:street": "13th Cross Sadashivanagar", "name": "Fernspetals", "shop": "florist"}}, {"type": "node", "id": 663568585, "lat": 12.9733904, "lon": 77.5960342}, {"type": "node", "id": 663568587, "lat": 12.9734006, "lon": 77.596257}, {"type": "node", "id": 663568594, "lat": 12.9736825, "lon": 77.5957952}, {"type": "node", "id": 663568595, "lat": 12.9735002, "lon": 77.5961755}, {"type": "node", "id": 663568596, "lat": 12.9740876, "lon": 77.5963168}, {"type": "node", "id": 663568604, "lat": 12.9737869, "lon": 77.5965628}, {"type": "node", "id": 663568605, "lat": 12.9737132, "lon": 77.596468}, {"type": "node", "id": 663568606, "lat": 12.9736223, "lon": 77.5965424}, {"type": "node", "id": 663573132, "lat": 12.9712726, "lon": 77.5963037}, {"type": "node", "id": 663604686, "lat": 12.9885784, "lon": 77.5705925, "tags": {"name": "sri lakshmi venkteshwara flower decoraters", "shop": "garden_centre", "ups_other": "shop"}}, {"type": "node", "id": 663604707, "lat": 12.9501149, "lon": 77.6134771, "tags": {"shop": "general", "ups_shop": "shop"}}, {"type": "node", "id": 663604717, "lat": 12.9499142, "lon": 77.616417, "tags": {"name": "Jewellery shops", "shop": "jewelry", "ups_shop": "shop"}}, {"type": "node", "id": 663920336, "lat": 13.0145146, "lon": 77.5735683, "tags": {"addr:street": "Dr. C V Raman Road", "name": "Voltas", "shop": "electronics"}}, {"type": "node", "id": 665062645, "lat": 12.9679032, "lon": 77.5893757, "tags": {"name": "Used Car Sales", "operator": "Indian Oil", "shop": "car"}}, {"type": "node", "id": 665338930, "lat": 13.0068707, "lon": 77.5789709, "tags": {"name": "Regal Palace Men's Salon", "shop": "hairdresser"}}, {"type": "node", "id": 665871266, "lat": 12.9641674, "lon": 77.5819272, "tags": {"name": "Karnakata Hardware Store", "shop": "hardware"}}, {"type": "node", "id": 665871278, "lat": 12.9855486, "lon": 77.5961594, "tags": {"name": "Lakme", "shop": "hairdresser"}}, {"type": "node", "id": 665871289, "lat": 12.9857313, "lon": 77.595832, "tags": {"addr:street": "Cunningham Road", "amenity": "cafe", "brand": "Sweet Chariot", "delivery": "yes", "name": "Sweet Chariot", "shop": "pastry", "takeaway": "yes"}}, {"type": "node", "id": 665871296, "lat": 12.9967968, "lon": 77.6045046, "tags": {"addr:street": "Benson Cross Road", "name": "Family Super Market", "phone": "+91-80-23634305;+91-80-23430462", "shop": "supermarket"}}, {"type": "node", "id": 665871310, "lat": 12.9998077, "lon": 77.5996733, "tags": {"addr:street": "Nandi Durg Road", "brand": "More", "brand:wikidata": "Q6910891", "name": "More", "name:kn": "\u0cae\u0ccb\u0cb0\u0ccd", "shop": "supermarket"}}, {"type": "node", "id": 665871311, "lat": 12.9969644, "lon": 77.6041292, "tags": {"addr:street": "Benson Cross Road", "name": "Arafa Stores", "shop": "supermarket"}}, {"type": "node", "id": 665871313, "lat": 12.9979339, "lon": 77.6031017, "tags": {"addr:street": "Benson Cross Road", "name": "Benson Auto Garage", "shop": "car_repair"}}, {"type": "node", "id": 667751121, "lat": 13.0009809, "lon": 77.6138953, "tags": {"addr:city": "Bangalore", "addr:postcode": "560005", "addr:street": "Madhavaraya Mudaliar Road", "name": "Namdhari Fresh, Frazer Town", "name:kn": "\u0ca8\u0cbe\u0cae\u0ca7\u0cbe\u0cb0\u0cbf \u0cab\u0ccd\u0cb0\u0cc6\u0cb6\u0ccd", "operator": "Namdhari Fresh", "organic": "yes", "shop": "supermarket", "website": "https://www.namdharifresh.com/"}}, {"type": "node", "id": 673377218, "lat": 13.0068753, "lon": 77.5789296, "tags": {"name": "Lakme Salon", "shop": "hairdresser"}}, {"type": "node", "id": 673860151, "lat": 13.0068023, "lon": 77.5789171, "tags": {"name": "Touch of Joy Womens' Beauty Parlor", "shop": "hairdresser"}}, {"type": "node", "id": 673860154, "lat": 13.014501, "lon": 77.5734712, "tags": {"addr:street": "Dr. C V Raman Road", "name": "Sandeep Motors", "shop": "car"}}, {"type": "node", "id": 673860155, "lat": 13.0144757, "lon": 77.5736759, "tags": {"name": "Scotchyard", "shop": "alcohol"}}, {"type": "node", "id": 673860157, "lat": 13.014347, "lon": 77.5736987, "tags": {"name": "Sparsh", "shop": "hairdresser"}}, {"type": "node", "id": 673860158, "lat": 13.014268, "lon": 77.5737154, "tags": {"name": "Sri Balaji Stores", "shop": "supermarket"}}, {"type": "node", "id": 673974004, "lat": 12.9695785, "lon": 77.6106113}, {"type": "node", "id": 673974005, "lat": 12.9698427, "lon": 77.6112514}, {"type": "node", "id": 673974008, "lat": 12.9701015, "lon": 77.6105053}, {"type": "node", "id": 677286824, "lat": 12.9554112, "lon": 77.5918509, "tags": {"addr:street": "KH Road (Double Road)", "name": "Mysore Resham Emporium", "shop": "clothes"}}, {"type": "node", "id": 677286831, "lat": 12.9711284, "lon": 77.5959911, "tags": {"addr:city": "Bangalore", "addr:street": "Lavelle Road", "name": "LimeLite Unisex Salon & Spa", "shop": "hairdresser"}}, {"type": "node", "id": 677286837, "lat": 12.9710106, "lon": 77.598276, "tags": {"addr:street": "Lavelle Road", "brand": "Levi's", "brand:wikidata": "Q127962", "clothes": "denim;men;women", "name": "Levi's", "name:kn": "\u0cb2\u0cc6\u0cb5\u0cbf\u0cb8\u0ccd", "shop": "clothes"}}, {"type": "node", "id": 677286838, "lat": 12.9708747, "lon": 77.5990041, "tags": {"addr:street": "Lavelle Road", "name": "Espirit", "shop": "clothes"}}, {"type": "node", "id": 677286840, "lat": 12.9707183, "lon": 77.6005293, "tags": {"addr:street": "Saint Mark's Road", "name": "Giovani", "shop": "clothes"}}, {"type": "node", "id": 678511831, "lat": 12.9300837, "lon": 77.5839979}, {"type": "node", "id": 678511834, "lat": 12.9303688, "lon": 77.5839953}, {"type": "node", "id": 678511837, "lat": 12.930082, "lon": 77.5842729}, {"type": "node", "id": 678511839, "lat": 12.930362, "lon": 77.5842694}, {"type": "node", "id": 680004485, "lat": 12.9757747, "lon": 77.5628988}, {"type": "node", "id": 739931005, "lat": 12.958125, "lon": 77.64049, "tags": {"shop": "butcher"}}, {"type": "node", "id": 857105893, "lat": 13.0068553, "lon": 77.6241647, "tags": {"addr:city": "Bangalore", "addr:country": "IN", "addr:postcode": "560084", "addr:street": "Hutchins Main Road", "name": "Mini Bazaar", "name:kn": "\u0cae\u0cbf\u0ca8\u0cbf \u0cac\u0c9c\u0cbe\u0cb0\u0ccd", "shop": "supermarket", "wheelchair": "no"}}, {"type": "node", "id": 992414866, "lat": 12.9328809, "lon": 77.5835292, "tags": {"name": "Web Nirnaya Laptop Service Station", "shop": "computer"}}, {"type": "node", "id": 1065137173, "lat": 12.9684968, "lon": 77.6063205, "tags": {"name": "Alcohol Shop", "shop": "alcohol"}}, {"type": "node", "id": 1070361684, "lat": 12.9341778, "lon": 77.6115043}, {"type": "node", "id": 1101831257, "lat": 13.0065656, "lon": 77.5837018, "tags": {"addr:street": "Ramana Maharshi Road", "brand": "\u0160koda", "brand:wikidata": "Q29637", "name": "\u0160koda", "shop": "car"}}, {"type": "node", "id": 1121253486, "lat": 12.9834716, "lon": 77.5856742, "tags": {"branch": "Showroom", "brand": "Nike", "brand:wikidata": "Q483915", "name": "Nike", "shop": "clothes"}}, {"type": "node", "id": 1232939382, "lat": 12.9729763, "lon": 77.5948551}, {"type": "node", "id": 1232939416, "lat": 12.9728515, "lon": 77.5954034}, {"type": "node", "id": 1232939458, "lat": 12.9725427, "lon": 77.5955431}, {"type": "node", "id": 1274328859, "lat": 12.9372497, "lon": 77.6278433}, {"type": "node", "id": 1274328860, "lat": 12.9372439, "lon": 77.6277661}, {"type": "node", "id": 1274328867, "lat": 12.9378621, "lon": 77.628332}, {"type": "node", "id": 1274328876, "lat": 12.9373106, "lon": 77.6280314}, {"type": "node", "id": 1274328890, "lat": 12.9374212, "lon": 77.6275695}, {"type": "node", "id": 1274328893, "lat": 12.9372089, "lon": 77.6277061}, {"type": "node", "id": 1274328908, "lat": 12.9375312, "lon": 77.6285859}, {"type": "node", "id": 1274328913, "lat": 12.9375259, "lon": 77.6285418}, {"type": "node", "id": 1274328920, "lat": 12.9373463, "lon": 77.6286539}, {"type": "node", "id": 1274338603, "lat": 12.9695547, "lon": 77.610672}, {"type": "node", "id": 1274338604, "lat": 12.9696686, "lon": 77.6096731}, {"type": "node", "id": 1274338612, "lat": 12.9702026, "lon": 77.6092622}, {"type": "node", "id": 1274338613, "lat": 12.9702143, "lon": 77.6092143}, {"type": "node", "id": 1274338617, "lat": 12.9695893, "lon": 77.6099987}, {"type": "node", "id": 1274338618, "lat": 12.9698988, "lon": 77.6091843}, {"type": "node", "id": 1274338620, "lat": 12.9702818, "lon": 77.6101764}, {"type": "node", "id": 1274338621, "lat": 12.9704984, "lon": 77.6092872}, {"type": "node", "id": 1274338622, "lat": 12.9697731, "lon": 77.6097}, {"type": "node", "id": 1289831090, "lat": 13.0061761, "lon": 77.5647018, "tags": {"shop": "florist"}}, {"type": "node", "id": 1289988648, "lat": 12.9801353, "lon": 77.6068971}, {"type": "node", "id": 1289988652, "lat": 12.9800177, "lon": 77.6072539}, {"type": "node", "id": 1289988654, "lat": 12.9795446, "lon": 77.6066611}, {"type": "node", "id": 1289988664, "lat": 12.9794087, "lon": 77.6070313}, {"type": "node", "id": 1290107583, "lat": 13.0044751, "lon": 77.5711942, "tags": {"name": "Olympic Sports", "shop": "sports"}}, {"type": "node", "id": 1290107596, "lat": 13.0075028, "lon": 77.5635659, "tags": {"name": "Bun World", "shop": "bakery"}}, {"type": "node", "id": 1290107600, "lat": 13.0077909, "lon": 77.564002, "tags": {"shop": "convenience"}}, {"type": "node", "id": 1290107610, "lat": 13.0078203, "lon": 77.5639866, "tags": {"shop": "convenience"}}, {"type": "node", "id": 1290125200, "lat": 13.0069619, "lon": 77.5644724, "tags": {"shop": "convenience"}}, {"type": "node", "id": 1290125205, "lat": 13.0067371, "lon": 77.5643678, "tags": {"shop": "clothes"}}, {"type": "node", "id": 1290125220, "lat": 13.0043093, "lon": 77.5653307, "tags": {"name": "Homely Organic", "shop": "supermarket", "website": "https://homelysupermarket.com/"}}, {"type": "node", "id": 1290125226, "lat": 13.0038729, "lon": 77.5653254, "tags": {"shop": "convenience"}}, {"type": "node", "id": 1290152826, "lat": 12.9984695, "lon": 77.5692319, "tags": {"shop": "jewelry"}}, {"type": "node", "id": 1290152828, "lat": 12.9989399, "lon": 77.569256, "tags": {"shop": "gift"}}, {"type": "node", "id": 1290152830, "lat": 12.9986733, "lon": 77.5692346, "tags": {"shop": "convenience"}}, {"type": "node", "id": 1290152832, "lat": 12.9987298, "lon": 77.5692354, "tags": {"check_date": "2024-05-12", "name": "Excel Dry Cleaners", "shop": "laundry"}}, {"type": "node", "id": 1290203319, "lat": 13.0009705, "lon": 77.5696315, "tags": {"shop": "jewelry"}}, {"type": "node", "id": 1290203335, "lat": 13.0043393, "lon": 77.5743495, "tags": {"shop": "laundry"}}, {"type": "node", "id": 1290203366, "lat": 13.0011038, "lon": 77.5723003, "tags": {"name": "Iyengar's Bakery", "name:kn": "\u0c90\u0caf\u0ccd\u0caf\u0c82\u0c97\u0cbe\u0cb0\u0ccd \u0cac\u0cc7\u0c95\u0cb0\u0cbf", "shop": "bakery"}}, {"type": "node", "id": 1307555240, "lat": 12.9308436, "lon": 77.5955007, "tags": {"name": "Sagar Automobiles", "shop": "car"}}, {"type": "node", "id": 1328610694, "lat": 12.9781311, "lon": 77.640699, "tags": {"addr:street": "100 Feet Road( S K Karim Khan Road)", "check_date": "2025-08-15", "name": "Pai Electronics", "shop": "hifi"}}, {"type": "node", "id": 1328615128, "lat": 12.9337818, "lon": 77.6232571, "tags": {"name": "Pai Electronics", "shop": "hifi"}}, {"type": "node", "id": 1328617011, "lat": 12.9692586, "lon": 77.6286912, "tags": {"addr:city": "Bengaluru", "addr:housenumber": "15/39", "addr:postcode": "560008", "addr:street": "Cambridge Road, Halasuru Police Station Road, Halasuru", "name": "lal rakhra sports shop", "opening_hours": "10:00-20:00", "phone": "080 2555 5684", "shop": "sports"}}, {"type": "node", "id": 1342910456, "lat": 12.9516439, "lon": 77.5950678, "tags": {"shop": "motorcycle"}}, {"type": "node", "id": 1348265190, "lat": 12.9827809, "lon": 77.5592036, "tags": {"addr:city": "Bengaluru", "addr:postcode": "560010", "addr:street": "1st Main Road", "name": "Total Superstore", "organic": "yes", "shop": "supermarket", "website": "http://www.totalsuperstore.com/"}}, {"type": "node", "id": 1375978217, "lat": 12.9359939, "lon": 77.6151031, "tags": {"amenity": "cafe", "brand": "Sweet Chariot", "delivery": "yes", "name": "Sweet Chariot", "shop": "pastry", "takeaway": "yes"}}, {"type": "node", "id": 1375978275, "lat": 12.9334928, "lon": 77.6157175, "tags": {"service": "spair", "shop": "car"}}, {"type": "node", "id": 1375978284, "lat": 12.9358031, "lon": 77.6147343, "tags": {"addr:city": "Bangalore", "addr:postcode": "560065", "addr:street": "80 Feet Road, Koramangala, Bangalore", "alt_name": "A2B", "amenity": "restaurant", "brand": "Adyar Ananda Bhavan", "brand:wikidata": "Q15178238", "cuisine": "regional", "diet:vegetarian": "only", "name": "Adyar Ananda Bhavan", "name:kn": "\u0c86\u0ca6\u0ccd\u0caf\u0cbe\u0cb0\u0ccd \u0c86\u0ca8\u0c82\u0ca6 \u0cad\u0cb5\u0ca8", "operator": "Adyar Ananda Bhavan", "phone": "+91 77950 73031", "shop": "confectionery", "smoking": "no", "website": "https://aabsweets.com"}}, {"type": "node", "id": 1375978285, "lat": 12.9361583, "lon": 77.6146013, "tags": {"name": "Mobile Store", "shop": "mobile_phone"}}, {"type": "node", "id": 1387516391, "lat": 12.9803877, "lon": 77.6046163, "tags": {"addr:city": "Bangalore", "addr:street": "Infantry Road", "name": "Gem Plaza", "shop": "mall"}}, {"type": "node", "id": 1389206600, "lat": 12.965161, "lon": 77.584016, "tags": {"addr:city": "Bangalore", "addr:street": "S P Road", "name": "Arihant Computers", "shop": "computer"}}, {"type": "node", "id": 1420066677, "lat": 12.964528, "lon": 77.6396738, "tags": {"shop": "bakery"}}, {"type": "node", "id": 1420105706, "lat": 12.9701103, "lon": 77.6373408, "tags": {"amenity": "ice_cream", "brand": "Corner House", "check_date": "2023-10-08", "delivery": "yes", "name": "Corner House", "shop": "confectionery", "takeaway": "yes"}}, {"type": "node", "id": 1420105905, "lat": 12.9724613, "lon": 77.6391823, "tags": {"name": "Daily Bread", "shop": "bakery"}}, {"type": "node", "id": 1437301865, "lat": 12.9586516, "lon": 77.5716741, "tags": {"name": "Kannada Sahitya Parishath", "name:kn": "\u0c95\u0ca8\u0ccd\u0ca8\u0ca1 \u0cb8\u0cbe\u0cb9\u0cbf\u0ca4\u0ccd\u0caf \u0caa\u0cb0\u0cbf\u0cb7\u0ca4\u0ccd\u0ca4\u0cc1", "shop": "books", "wheelchair": "limited"}}, {"type": "node", "id": 1440255893, "lat": 12.945726, "lon": 77.5956109}, {"type": "node", "id": 1440255899, "lat": 12.9454643, "lon": 77.596027}, {"type": "node", "id": 1440255905, "lat": 12.9455445, "lon": 77.5954904}, {"type": "node", "id": 1440255909, "lat": 12.9452827, "lon": 77.5959067}, {"type": "node", "id": 1455123611, "lat": 12.9354419, "lon": 77.6141569, "tags": {"name": "Sree Mittai", "shop": "bakery"}}, {"type": "node", "id": 1459719058, "lat": 12.934745, "lon": 77.611659, "tags": {"addr:city": "Bangalore", "addr:housename": "Forum Mall", "addr:street": "Hosur Road", "brand": "Westside", "brand:wikidata": "Q123376384", "name": "Westside", "shop": "clothes"}}, {"type": "node", "id": 1459720916, "lat": 12.934792, "lon": 77.6113, "tags": {"addr:city": "Bangalore", "addr:housename": "Forum Mall", "addr:housenumber": "21, Shop No.5", "addr:postcode": "560095", "addr:street": "Hosur Road", "brand": "Reebok", "brand:wikidata": "Q466183", "name": "Reebok", "name:kn": "\u0cb0\u0cc0\u0cac\u0cbe\u0c95\u0ccd", "shop": "clothes"}}, {"type": "node", "id": 1459722798, "lat": 12.934546, "lon": 77.61107, "tags": {"addr:city": "Bangalore", "addr:housename": "Forum Mall", "addr:street": "Hosur Road", "brand": "Metro", "brand:wikidata": "Q16938284", "name": "Metro", "shop": "shoes", "wheelchair": "yes"}}, {"type": "node", "id": 1460720496, "lat": 12.96527, "lon": 77.6172392, "tags": {"name": "India Garage", "shop": "car_repair"}}, {"type": "node", "id": 1462103980, "lat": 12.9330809, "lon": 77.5813312}, {"type": "node", "id": 1462103981, "lat": 12.9330914, "lon": 77.5808484}, {"type": "node", "id": 1462103982, "lat": 12.9333371, "lon": 77.5811005}, {"type": "node", "id": 1462127117, "lat": 12.9805233, "lon": 77.6288041, "tags": {"name": "Kolimi Motors", "shop": "car_repair"}}, {"type": "node", "id": 1462141029, "lat": 12.9324379, "lon": 77.5862539, "tags": {"addr:housename": "addidas", "addr:postcode": "560011", "addr:street": "11th main road", "designation": "addidas", "name": "Addidas", "shop": "clothes"}}, {"type": "node", "id": 1462540475, "lat": 13.0049266, "lon": 77.5787343, "tags": {"name": "Maha Bazaar", "shop": "supermarket"}}, {"type": "node", "id": 1462973987, "lat": 12.9378468, "lon": 77.6107028, "tags": {"name": "Tata Docomo Show Room", "shop": "mobile_phone"}}, {"type": "node", "id": 1462976045, "lat": 12.9337269, "lon": 77.6112285, "tags": {"addr:postcode": "560095", "addr:street": "Near Forum Mall, Koramangala, Bangalore", "shop": "florist"}}, {"type": "node", "id": 1462977137, "lat": 12.9341298, "lon": 77.6109889, "tags": {"addr:city": "Bangalore", "addr:housename": "Forum Mall", "addr:postcode": "560095", "addr:street": "Hosur Road", "brand": "More", "brand:wikidata": "Q6910891", "name": "More", "shop": "supermarket", "toilets:wheelchair": "yes", "wheelchair": "yes"}}, {"type": "node", "id": 1462977852, "lat": 12.9348719, "lon": 77.6114029, "tags": {"addr:city": "Bangalore", "addr:housename": "Forum Mall", "addr:postcode": "560095", "addr:street": "Hosur Road", "brand": "Archies", "brand:wikidata": "Q4786843", "name": "Archies", "shop": "gift", "website": "https://archiecomics.com/"}}, {"type": "node", "id": 1462978306, "lat": 12.9342498, "lon": 77.6099223, "tags": {"addr:postcode": "560095", "addr:street": "Near Forum Mall, Koramangala", "name": "Forum Cars", "shop": "car"}}, {"type": "node", "id": 1462994517, "lat": 12.9365162, "lon": 77.6135755, "tags": {"addr:postcode": "560095", "addr:street": "Near BOSCH Back Gate, Koramangala, Bangalore", "name": "Sachin's Autoshop", "shop": "car_repair"}}, {"type": "node", "id": 1463612973, "lat": 12.9351451, "lon": 77.611553, "tags": {"addr:city": "Bangalore", "addr:housename": "Forum Mall", "addr:postcode": "560095", "addr:street": "Hosur Road", "name": "Ali-n-Arts Florist", "shop": "florist"}}, {"type": "node", "id": 1464156665, "lat": 12.9423147, "lon": 77.6150065, "tags": {"addr:postcode": "560095", "addr:street": "Adugodi main road", "name": "More Supermarket", "name:kn": "\u0cae\u0ccb\u0cb0\u0ccd", "shop": "supermarket"}}, {"type": "node", "id": 1464768303, "lat": 13.0107647, "lon": 77.5558746}, {"type": "node", "id": 1464768314, "lat": 13.0105026, "lon": 77.5558786}, {"type": "node", "id": 1464782313, "lat": 12.9375475, "lon": 77.6279931, "tags": {"addr:street": "Near SonyWorld Signal, Koramangala, Bangalore", "brand": "Lifestyle", "brand:wikidata": "Q6545496", "name": "Lifestyle", "shop": "clothes", "wheelchair": "yes"}}, {"type": "node", "id": 1464782937, "lat": 12.9380019, "lon": 77.62749, "tags": {"addr:street": "near Sony World signal, Koramangala, Bangalore", "brand": "Crom\u0101", "brand:wikidata": "Q5187683", "name": "Crom\u0101", "name:kn": "\u0c95\u0ccd\u0cb0\u0ccb\u0cae", "shop": "electronics"}}, {"type": "node", "id": 1464791102, "lat": 12.935716, "lon": 77.6218199, "tags": {"name": "Nilgiris", "name:kn": "\u0ca8\u0cc0\u0cb2\u0ccd\u0c97\u0cbf\u0cb0\u0cbf\u0cb8\u0ccd", "shop": "convenience"}}, {"type": "node", "id": 1464792416, "lat": 12.9352432, "lon": 77.6248678, "tags": {"addr:street": "Koramangala, Bangalore", "name": "Mystique Saloons", "shop": "hairdresser"}}, {"type": "node", "id": 1464886374, "lat": 12.9337444, "lon": 77.6301835, "tags": {"name": "Levi's and Nike", "shop": "shoes"}}, {"type": "node", "id": 1464958052, "lat": 12.9376456, "lon": 77.626351, "tags": {"addr:street": "80 Feet Peripheral Rd, Koramangala 6 Block, KoramangalaBengaluru, Karnataka, India", "brand": "Manyavar", "brand:wikidata": "Q24906783", "check_date": "2024-01-10", "name": "Manyavar", "shop": "clothes"}}, {"type": "node", "id": 1465008466, "lat": 12.9454627, "lon": 77.5714069, "tags": {"addr:street": "Gandhi Bazar", "name": "Ladies Wear House", "shop": "clothes"}}, {"type": "node", "id": 1465009282, "lat": 12.9444504, "lon": 77.5722351, "tags": {"addr:street": "Gandhi Bazar Main Road", "name": "Food world", "name:kn": "\u0cab\u0cc1\u0ca1\u0ccd \u0cb5\u0cb0\u0ccd\u0cb2\u0ccd\u0ca1\u0ccd", "shop": "supermarket"}}, {"type": "node", "id": 1465190491, "lat": 12.9352032, "lon": 77.6228947, "tags": {"description": "Convenience store for all household items & accessories", "name": "Sowbhagya Traders", "shop": "supermarket"}}, {"type": "node", "id": 1465272544, "lat": 12.9371376, "lon": 77.6241392, "tags": {"addr:postcode": "560095", "addr:street": "17th C Main", "designation": "Saree/Salwar shop", "name": "Navya shree sarees", "shop": "clothes"}}, {"type": "node", "id": 1465515463, "lat": 12.9345734, "lon": 77.6115121, "tags": {"addr:city": "Bangalore", "addr:housename": "Forum Mall", "addr:postcode": "560095", "addr:street": "Hosur Road", "name": "Landmark", "shop": "hifi", "website": "http://www.landmarkonthenet.com/"}}, {"type": "node", "id": 1465570259, "lat": 12.9362282, "lon": 77.61472, "tags": {"addr:street": "Koramangala, Bangalore", "name": "Computer Mall", "shop": "computer"}}, {"type": "node", "id": 1465577230, "lat": 12.9365387, "lon": 77.6144945, "tags": {"name": "Banchaaram Sweets", "shop": "confectionery"}}, {"type": "node", "id": 1465646870, "lat": 12.9368587, "lon": 77.6200385, "tags": {"addr:street": "Koramangala 5t cross", "designation": "Liqour boutique", "name": "Madhuloka", "name:kn": "\u0cae\u0ca7\u0cc1\u0cb2\u0ccb\u0c95", "shop": "alcohol"}}, {"type": "node", "id": 1465668254, "lat": 12.9366384, "lon": 77.6206523, "tags": {"addr:housename": "Fulki Boutique", "addr:housenumber": "55", "addr:postcode": "560095", "addr:street": "6th block koramangala", "designation": "Salwars, sarees and designer tops boutique", "name": "fulki", "shop": "clothes"}}, {"type": "node", "id": 1465678880, "lat": 12.9365443, "lon": 77.6205772, "tags": {"addr:housename": "U fashion store", "addr:housenumber": "100", "addr:postcode": "560095", "addr:street": "5th cross 5th block koramangala", "designation": "garments for women", "name": "U Fashion store", "shop": "clothes"}}, {"type": "node", "id": 1465714385, "lat": 12.9357629, "lon": 77.6219971, "tags": {"name": "Printo", "operator": "printo document services pvt.ltd", "shop": "copyshop"}}, {"type": "node", "id": 1465777960, "lat": 12.9418577, "lon": 77.6159961, "tags": {"addr:postcode": "560095", "addr:street": "Adugodi main road", "name": "Forum bakery", "shop": "convenience"}}, {"type": "node", "id": 1466479502, "lat": 12.927054, "lon": 77.5506405, "tags": {"addr:city": "Bengaluru", "addr:housenumber": "92/3", "addr:postcode": "560085", "addr:street": "Kathriguppa Main Road", "addr:suburb": "Banashankri", "brand": "Puma", "brand:wikidata": "Q157064", "name": "Puma", "name:kn": "\u0caa\u0cc2\u0cae", "opening_hours": "10:00-22:00", "phone": "080 4171 1671", "shop": "clothes", "website": "https://in.puma.com/?mktID=PL:Brand%20Marketing:Puma.com-CatchAllPage:India-en&plinkID=Brand"}}, {"type": "node", "id": 1466688319, "lat": 12.9303845, "lon": 77.6007306}, {"type": "node", "id": 1466688325, "lat": 12.9301626, "lon": 77.6011209, "tags": {"addr:city": "Bangalore", "addr:housename": "Spar Hyper Market", "addr:housenumber": "39/3", "addr:postcode": "560029", "addr:street": "Bannerghatta Road", "branch": "Hypermarket", "brand": "Spar", "brand:wikidata": "Q610492", "name": "Spar", "phone": "(91)-80-41811600", "shop": "supermarket"}}, {"type": "node", "id": 1466688328, "lat": 12.9298939, "lon": 77.6016934}, {"type": "node", "id": 1466688329, "lat": 12.9301631, "lon": 77.6018146}, {"type": "node", "id": 1466688331, "lat": 12.9299644, "lon": 77.6008144}, {"type": "node", "id": 1466690355, "lat": 12.9284409, "lon": 77.5899078, "tags": {"shop": "bakery"}}, {"type": "node", "id": 1466724441, "lat": 12.9417187, "lon": 77.5601963, "tags": {"name": "Kaggi's Bakery", "shop": "bakery"}}, {"type": "node", "id": 1466726396, "lat": 12.9309732, "lon": 77.5901342, "tags": {"addr:street": "2nd Cross LIC Colony", "name": "Nandini Milk Diary", "shop": "convenience"}}, {"type": "node", "id": 1466728973, "lat": 12.9307824, "lon": 77.5905204, "tags": {"name": "Hopcoms", "name:kn": "\u0cb9\u0cbe\u0caa\u0ccd \u0c95\u0cbe\u0cae\u0ccd\u0cb8\u0ccd", "shop": "convenience"}}, {"type": "node", "id": 1466731605, "lat": 12.9351927, "lon": 77.6136464, "tags": {"addr:housename": "F M Silks", "addr:housenumber": "115", "addr:postcode": "560095", "addr:street": "80 feet road", "designation": "Garment retailers - sarees, salwars", "name": "F M Silks", "shop": "clothes"}}, {"type": "node", "id": 1466735001, "lat": 12.9393809, "lon": 77.5712615, "tags": {"alt_name": "Bhavani Kangans", "name": "Bhavani Bangles", "shop": "jewelry"}}, {"type": "node", "id": 1466752184, "lat": 12.9402493, "lon": 77.6201159, "tags": {"shop": "florist"}}, {"type": "node", "id": 1466753854, "lat": 12.9373737, "lon": 77.6194722, "tags": {"name": "Shri Venkateshwara flowers", "shop": "florist"}}, {"type": "node", "id": 1467496954, "lat": 12.9321895, "lon": 77.5862459, "tags": {"addr:street": "11th main", "brand": "Nike", "brand:wikidata": "Q483915", "name": "Nike", "name:kn": "\u0ca8\u0cc8\u0c95\u0ccd", "shop": "clothes"}}, {"type": "node", "id": 1467498342, "lat": 12.9322783, "lon": 77.5862513, "tags": {"addr:street": "11th main", "brand": "United Colors of Benetton", "brand:wikidata": "Q817139", "name": "United Colors of Benetton", "shop": "clothes", "short_name": "Benetton"}}, {"type": "node", "id": 1467500275, "lat": 12.9318182, "lon": 77.5862459, "tags": {"addr:street": "11th main", "brand": "Max", "brand:wikidata": "Q24939079", "name": "Max", "shop": "clothes", "source": "survey"}}, {"type": "node", "id": 1467501709, "lat": 12.9305893, "lon": 77.5862057, "tags": {"addr:street": "11th main", "designation": "she", "name": "she", "shop": "clothes", "source": "survey"}}, {"type": "node", "id": 1467778590, "lat": 12.9333966, "lon": 77.5660039, "tags": {"addr:housename": "'Omkara Nilaya'", "addr:housenumber": "161", "addr:postcode": "560028", "addr:street": "3rd Block, T. R. Nagar, 6th Cross, 6th Main", "name": "Sri Lakshmi Venkateshwara Provision Stores", "shop": "convenience"}}, {"type": "node", "id": 1467794484, "lat": 12.9341451, "lon": 77.566062, "tags": {"addr:postcode": "560028", "addr:street": "6th Main, T. R. Nagar", "shop": "motorcycle"}}, {"type": "node", "id": 1468014995, "lat": 12.9364151, "lon": 77.6144033, "tags": {"name": "Safal Supermarket", "shop": "supermarket"}}, {"type": "node", "id": 1468015000, "lat": 12.9365288, "lon": 77.6150063, "tags": {"name": "Glamorous Unisex salon", "shop": "hairdresser"}}, {"type": "node", "id": 1468025772, "lat": 12.9350683, "lon": 77.6245014, "tags": {"name": "Ooty Chocolates", "shop": "confectionery"}}, {"type": "node", "id": 1468025786, "lat": 12.9390944, "lon": 77.6229075, "tags": {"name": "The boutique", "shop": "clothes"}}, {"type": "node", "id": 1468025793, "lat": 12.9397911, "lon": 77.6222423, "tags": {"name": "Aanchal", "shop": "clothes"}}, {"type": "node", "id": 1468032543, "lat": 12.9825987, "lon": 77.6070246, "tags": {"addr:city": "Bangalore", "addr:housename": "Shivajinagar", "addr:street": "Commercial Street", "name": "Baby Center", "shop": "clothes"}}, {"type": "node", "id": 1468032545, "lat": 12.9821744, "lon": 77.6081695, "tags": {"addr:city": "Bangalore", "addr:housename": "Shivajinagar", "addr:street": "Commercial Street", "brand": "Bata", "brand:wikidata": "Q688082", "check_date": "2023-04-07", "name": "Bata", "name:kn": "\u0cac\u0cbe\u0c9f\u0cbe", "payment:mastercard": "yes", "payment:upi": "yes", "payment:visa": "yes", "shop": "shoes", "wheelchair": "no"}}, {"type": "node", "id": 1468032547, "lat": 12.9826293, "lon": 77.6068536, "tags": {"addr:city": "Bangalore", "addr:housename": "Shivajinagar", "addr:postcode": "560084", "addr:street": "Commercial Street", "brand": "Westside", "name": "Westside", "shop": "clothes"}}, {"type": "node", "id": 1468164170, "lat": 12.9349392, "lon": 77.6129828, "tags": {"name": "Vodafone Store", "shop": "kiosk"}}, {"type": "node", "id": 1468190772, "lat": 12.9371612, "lon": 77.6129292, "tags": {"name": "Yem and Tee Beauty parlor", "shop": "hairdresser"}}, {"type": "node", "id": 1468190776, "lat": 12.935294, "lon": 77.61306, "tags": {"addr:postcode": "560095", "name": "The Book shoppe", "shop": "books"}}, {"type": "node", "id": 1468190779, "lat": 12.9353286, "lon": 77.6128207, "tags": {"designation": "Dresses/Toys for Kids", "name": "Baby's day out", "shop": "convenience"}}, {"type": "node", "id": 1468235026, "lat": 12.9364451, "lon": 77.6170968, "tags": {"name": "Nandini Shoppe", "shop": "convenience"}}, {"type": "node", "id": 1468516360, "lat": 12.9370938, "lon": 77.6199696, "tags": {"designation": "Men's garments", "name": "F square", "shop": "clothes"}}, {"type": "node", "id": 1468516362, "lat": 12.9357659, "lon": 77.6217238, "tags": {"designation": "Garments", "name": "Swiss Embroideries", "shop": "clothes"}}, {"type": "node", "id": 1468516366, "lat": 12.9356613, "lon": 77.621933, "tags": {"addr:postcode": "560095", "addr:street": "5th cross Koramangala", "brand": "Kanti Sweets", "name": "Kanti Sweets", "shop": "confectionery"}}, {"type": "node", "id": 1468516367, "lat": 12.9368167, "lon": 77.619975, "tags": {"designation": "Jewelry", "name": "Shubh Jewellers", "shop": "jewelry"}}, {"type": "node", "id": 1468516370, "lat": 12.9364508, "lon": 77.6239983, "tags": {"addr:postcode": "560095", "addr:street": "17th b main koramangala", "designation": "Car Accessories and services", "name": "Kinetic Zone Service station", "shop": "car_repair"}}, {"type": "node", "id": 1468516373, "lat": 12.936754, "lon": 77.6247439, "tags": {"addr:postcode": "560095", "name": "HMS Mutton center", "shop": "butcher"}}, {"type": "node", "id": 1468516375, "lat": 12.9351019, "lon": 77.6230488, "tags": {"designation": "Cakes and confectioneries", "name": "Iyengar bakers", "shop": "bakery"}}, {"type": "node", "id": 1468516376, "lat": 12.9368533, "lon": 77.6201144, "tags": {"designation": "Men's garments", "name": "Reid & Taylor", "shop": "clothes"}}, {"type": "node", "id": 1468540672, "lat": 12.937648, "lon": 77.6267717, "tags": {"name": "Dreams on wheelz", "shop": "car_repair"}}, {"type": "node", "id": 1468540675, "lat": 12.9382962, "lon": 77.626001, "tags": {"name": "Namdhari's fresh", "shop": "supermarket"}}, {"type": "node", "id": 1468540684, "lat": 12.9364455, "lon": 77.6255862, "tags": {"name": "OM Stationery and xerox", "shop": "convenience"}}, {"type": "node", "id": 1468540710, "lat": 12.937482, "lon": 77.6265625, "tags": {"name": "Sheelu Flowers", "shop": "florist"}}, {"type": "node", "id": 1468540736, "lat": 12.937363, "lon": 77.626659, "tags": {"name": "Brown Tree Super", "shop": "supermarket"}}, {"type": "node", "id": 1468540756, "lat": 12.9378271, "lon": 77.6266388, "tags": {"name": "Mahindra showroom", "shop": "car"}}, {"type": "node", "id": 1469178779, "lat": 12.9945695, "lon": 77.6107086}, {"type": "node", "id": 1469178780, "lat": 12.9946639, "lon": 77.6105399}, {"type": "node", "id": 1469178781, "lat": 12.9946792, "lon": 77.6107732}, {"type": "node", "id": 1469178782, "lat": 12.9947735, "lon": 77.6106045}, {"type": "node", "id": 1469178784, "lat": 12.9950492, "lon": 77.6106203}, {"type": "node", "id": 1469178785, "lat": 12.9950921, "lon": 77.6105474}, {"type": "node", "id": 1469178786, "lat": 12.995173, "lon": 77.610697}, {"type": "node", "id": 1469178787, "lat": 12.9952159, "lon": 77.610624}, {"type": "node", "id": 1469190369, "lat": 12.9961919, "lon": 77.6115235, "tags": {"addr:city": "Bangalore", "addr:district": "Bengaluru Urban", "addr:housenumber": "86/1", "addr:postcode": "560005", "addr:street": "Saunders Road", "email": "dreamworldindia@yahoo.com", "mobile": "+91 41 25 22 58", "name": "Dream World", "name:kn": "\u0ca1\u0ccd\u0cb0\u0cc0\u0cae\u0ccd \u0cb5\u0cb0\u0ccd\u0cb2\u0ccd\u0ca1\u0ccd", "name:pa": "\u0a21\u0a4d\u0a30\u0a40\u0a2e \u0a35\u0a30\u0a32\u0a21", "name:ur": "\u0688\u0631\u06cc\u0645 \u0648\u0631\u0644\u0688", "payment:cash": "yes", "payment:credit_cards": "yes", "payment:debit_cards": "yes", "payment:mastercard": "yes", "payment:visa": "yes", "phone": "+91 80 6564 6060", "shop": "gift", "website": "https://dreamworldindia.in/"}}, {"type": "node", "id": 1469190382, "lat": 12.9961891, "lon": 77.613053, "tags": {"addr:city": "Bangalore", "addr:district": "Bengaluru Urban", "addr:postcode": "560005", "addr:street": "Coles Road", "name": "Lakme", "name:kn": "\u0cb2\u0cbe\u0c95\u0ccd\u0cae\u0cc6", "shop": "hairdresser"}}, {"type": "node", "id": 1469190383, "lat": 12.9970256, "lon": 77.611258, "tags": {"brand": "Reliance Fresh", "brand:wikidata": "Q7311014", "name": "Reliance Fresh", "name:kn": "\u0cb0\u0cbf\u0cb2\u0cbe\u0caf\u0ca8\u0ccd\u0cb8\u0ccd \u0cab\u0ccd\u0cb0\u0cc6\u0cb6\u0ccd", "shop": "supermarket"}}, {"type": "node", "id": 1469196554, "lat": 12.993662, "lon": 77.6086321, "tags": {"name": "Tyre Shop", "shop": "car_repair"}}, {"type": "node", "id": 1469196568, "lat": 12.9936175, "lon": 77.6083773, "tags": {"addr:street": "Saint John's Church Road", "name": "Mutton Shop", "shop": "butcher"}}, {"type": "node", "id": 1469196571, "lat": 12.9936149, "lon": 77.6084336, "tags": {"name": "Chicken Shop", "shop": "butcher"}}, {"type": "node", "id": 1469272712, "lat": 12.93647, "lon": 77.6165564, "tags": {"name": "Sapna Book Stall", "shop": "books"}}, {"type": "node", "id": 1469643919, "lat": 12.9362945, "lon": 77.6149366, "tags": {"designation": "Dresses/Toys for Kids", "name": "Babys Planet", "shop": "convenience"}}, {"type": "node", "id": 1470523365, "lat": 12.9364743, "lon": 77.6166077, "tags": {"name": "Vellara Avenue", "shop": "gift"}}, {"type": "node", "id": 1470523370, "lat": 12.9364168, "lon": 77.6164628, "tags": {"name": "Reliance Footprint", "shop": "convenience"}}, {"type": "node", "id": 1470523377, "lat": 12.933719, "lon": 77.6176805, "tags": {"designation": "Kids and Gift shop", "name": "Kids N Gifts", "shop": "gift"}}, {"type": "node", "id": 1470523381, "lat": 12.9338184, "lon": 77.6192443, "tags": {"designation": "Ladies Wear", "name": "Gia Garments", "shop": "clothes"}}, {"type": "node", "id": 1470523388, "lat": 12.9365946, "lon": 77.6176725, "tags": {"designation": "Fruits and Vegetables", "name": "Hopcoms", "name:kn": "\u0cb9\u0cbe\u0caa\u0ccd \u0c95\u0cbe\u0cae\u0ccd\u0cb8\u0ccd", "shop": "convenience"}}, {"type": "node", "id": 1470523389, "lat": 12.9351281, "lon": 77.6228492, "tags": {"name": "House Man Cleaners", "shop": "dry_cleaning;laundry"}}, {"type": "node", "id": 1470523395, "lat": 12.9420816, "lon": 77.6220418, "tags": {"designation": "Dealers in Piano", "name": "Theme Piano World", "shop": "music"}}, {"type": "node", "id": 1470523396, "lat": 12.9365949, "lon": 77.6177189, "tags": {"addr:postcode": "560095", "addr:street": "20th Main", "shop": "florist"}}, {"type": "node", "id": 1470539723, "lat": 12.9348619, "lon": 77.6112385, "tags": {"addr:city": "Bangalore", "addr:housename": "Forum Mall", "addr:street": "Hosur Road", "name": "Soch", "shop": "clothes", "wheelchair": "yes"}}, {"type": "node", "id": 1470541759, "lat": 12.93419, "lon": 77.6109248, "tags": {"addr:city": "Bangalore", "addr:housename": "Forum Mall", "addr:street": "Hosur Road", "name": "Nexus Mall Koramangla", "shop": "alcohol"}}, {"type": "node", "id": 1470553269, "lat": 12.9369341, "lon": 77.5691786, "tags": {"name": "Samipa Bakery", "shop": "bakery"}}, {"type": "node", "id": 1470577362, "lat": 13.0063302, "lon": 77.5483967}, {"type": "node", "id": 1470577367, "lat": 13.006402, "lon": 77.5483058}, {"type": "node", "id": 1470577391, "lat": 13.0063264, "lon": 77.5485561}, {"type": "node", "id": 1470577402, "lat": 13.0064339, "lon": 77.5485389}, {"type": "node", "id": 1470608018, "lat": 12.9345459, "lon": 77.6114217, "tags": {"addr:city": "Bangalore", "addr:housename": "Forum Mall", "addr:street": "Hosur Road", "brand": "United Colors of Benetton", "brand:wikidata": "Q817139", "name": "United Colors of Benetton", "shop": "clothes", "short_name": "Benetton", "toilets:wheelchair": "yes", "wheelchair": "yes"}}, {"type": "node", "id": 1470608021, "lat": 12.934891, "lon": 77.6110462, "tags": {"addr:city": "Bangalore", "addr:housename": "Forum Mall", "addr:street": "Hosur Road", "branch": "Dockers", "brand": "Levi's", "brand:wikidata": "Q127962", "clothes": "denim;men;women", "name": "Levi's", "shop": "clothes", "wheelchair": "yes"}}, {"type": "node", "id": 1470608022, "lat": 12.9341695, "lon": 77.6110462, "tags": {"addr:city": "Bangalore", "addr:housename": "Forum Mall", "addr:street": "Hosur Road", "name": "Raymonds", "shop": "clothes"}}, {"type": "node", "id": 1470628752, "lat": 12.9367971, "lon": 77.6130007, "tags": {"addr:street": "Koramangala 7th block", "designation": "Garments", "name": "The Look Shoppe", "shop": "clothes"}}, {"type": "node", "id": 1470628753, "lat": 12.9367971, "lon": 77.6131509, "tags": {"name": "463 Cross roads", "shop": "clothes"}}, {"type": "node", "id": 1470628754, "lat": 12.9360965, "lon": 77.614653, "tags": {"name": "Leher Casuals", "shop": "clothes"}}, {"type": "node", "id": 1470628755, "lat": 12.9360233, "lon": 77.6153074, "tags": {"name": "Cantabil Showroom", "shop": "clothes"}}, {"type": "node", "id": 1470628756, "lat": 12.9370062, "lon": 77.6120888, "tags": {"name": "Hot Chips", "shop": "convenience"}}, {"type": "node", "id": 1470631821, "lat": 12.9358593, "lon": 77.6150138, "tags": {"designation": "Cakes", "name": "Cake Yard", "shop": "bakery"}}, {"type": "node", "id": 1470634295, "lat": 12.9362348, "lon": 77.6210315, "tags": {"name": "Hot Chips", "shop": "convenience"}}, {"type": "node", "id": 1470715777, "lat": 12.9435227, "lon": 77.5590375, "tags": {"name": "Ritu's designer sarees", "shop": "clothes"}}, {"type": "node", "id": 1470856078, "lat": 12.9347915, "lon": 77.6109681, "tags": {"addr:city": "Bangalore", "addr:housename": "Forum Mall", "addr:street": "Hosur Road", "name": "Ayesha", "name:kn": "\u0c85\u0caf\u0cc7\u0cb6", "shop": "jewelry"}}, {"type": "node", "id": 1470856090, "lat": 12.9347444, "lon": 77.6110003, "tags": {"addr:city": "Bangalore", "addr:housename": "Forum Mall", "addr:street": "Hosur Road", "name": "Cookie Man", "shop": "bakery"}}, {"type": "node", "id": 1470856097, "lat": 12.9346922, "lon": 77.6110539, "tags": {"addr:city": "Bangalore", "addr:housename": "Forum Mall", "addr:street": "Hosur Road", "name": "Sangeeta Mobiles", "shop": "hifi"}}, {"type": "node", "id": 1470856144, "lat": 12.9347706, "lon": 77.6110968, "tags": {"addr:city": "Bangalore", "addr:housename": "Forum Mall", "addr:street": "Hosur Road", "branch": "showroom", "brand": "Samsung", "brand:wikidata": "Q20718", "name": "Samsung", "shop": "electronics", "wheelchair": "yes"}}, {"type": "node", "id": 1471128642, "lat": 12.9392359, "lon": 77.6191015, "tags": {"name": "Scissors Enrich Unisex salon", "shop": "hairdresser"}}, {"type": "node", "id": 1471128646, "lat": 12.9380674, "lon": 77.6188279, "tags": {"name": "Sizzling styles beauty parlor", "shop": "hairdresser"}}, {"type": "node", "id": 1471128648, "lat": 12.9364989, "lon": 77.6240368, "tags": {"name": "Auto Fusion", "shop": "hifi"}}, {"type": "node", "id": 1471128651, "lat": 12.9359421, "lon": 77.6157219, "tags": {"name": "Airtel Office", "name:kn": "\u0c8f\u0cb0\u0ccd\u0c9f\u0cc6\u0cb2\u0ccd", "shop": "telecommunication"}}, {"type": "node", "id": 1471128655, "lat": 12.9390997, "lon": 77.6190857, "tags": {"brand": "Bajaj", "brand:wikidata": "Q10910065", "name": "Bajaj Showroom", "shop": "motorcycle"}}, {"type": "node", "id": 1471851161, "lat": 13.0042683, "lon": 77.5512142, "tags": {"name": "Cake Palace", "name:kn": "\u0c95\u0cc7\u0c95\u0ccd \u0caa\u0ccd\u0caf\u0cbe\u0cb2\u0cc7\u0cb8\u0ccd", "shop": "bakery"}}, {"type": "node", "id": 1471886877, "lat": 12.927128, "lon": 77.616183, "tags": {"name": "Kallada Travels", "shop": "travel_agency"}}, {"type": "node", "id": 1472014087, "lat": 12.9324841, "lon": 77.6137336, "tags": {"addr:street": "Jyothinivas college road", "name": "Bhima", "shop": "jewelry"}}, {"type": "node", "id": 1472178430, "lat": 13.0096385, "lon": 77.5486843, "tags": {"name": "Abaran Jewellers", "shop": "jewelry"}}, {"type": "node", "id": 1472748545, "lat": 12.9335885, "lon": 77.6107455, "tags": {"addr:street": "Hosur road", "name": "@home", "shop": "furniture", "wheelchair": "no"}}, {"type": "node", "id": 1472858745, "lat": 13.0043509, "lon": 77.5522566, "tags": {"name": "Sony Showroom", "name:kn": "\u0cb8\u0ccb\u0ca8\u0cbf \u0cb6\u0ccb \u0cb0\u0cc2\u0cae\u0ccd", "shop": "electronics"}}, {"type": "node", "id": 1472858747, "lat": 13.0039955, "lon": 77.551299, "tags": {"name": "Mahalakshmi Liquor Shop", "shop": "alcohol"}}, {"type": "node", "id": 1472858748, "lat": 13.0045496, "lon": 77.5532355, "tags": {"name": "Shubham Electronics", "shop": "electronics"}}, {"type": "node", "id": 1472981411, "lat": 12.9348901, "lon": 77.560782, "tags": {"name": "SLV Bakery", "shop": "bakery"}}, {"type": "node", "id": 1473221123, "lat": 12.9692457, "lon": 77.6154}, {"type": "node", "id": 1473221158, "lat": 12.9728037, "lon": 77.620343}, {"type": "node", "id": 1473221165, "lat": 12.9730892, "lon": 77.6201442}, {"type": "node", "id": 1473299378, "lat": 12.9318149, "lon": 77.5889456, "tags": {"shop": "convenience"}}, {"type": "node", "id": 1473308091, "lat": 12.9375258, "lon": 77.6285425, "tags": {"brand": "Max", "brand:wikidata": "Q24939079", "name": "Max", "shop": "clothes"}}, {"type": "node", "id": 1473308100, "lat": 12.9367337, "lon": 77.6249849, "tags": {"name": "Roots Multiclean", "shop": "hifi"}}, {"type": "node", "id": 1473308101, "lat": 12.9373924, "lon": 77.6279943, "tags": {"name": "Home Lifestyle", "shop": "hifi"}}, {"type": "node", "id": 1473311719, "lat": 12.9279589, "lon": 77.6008251, "tags": {"name": "Popular Bajaj", "shop": "motorcycle"}}, {"type": "node", "id": 1473314929, "lat": 12.9277289, "lon": 77.6007983, "tags": {"name": "Popular Motor Corporation, Bajaj RE Commercial vehicle sales", "shop": "car"}}, {"type": "node", "id": 1473315750, "lat": 12.9271381, "lon": 77.6006588, "tags": {"name": "Mahindra 2 Wheelers", "shop": "motorcycle"}}, {"type": "node", "id": 1473330384, "lat": 12.9426306, "lon": 77.6223732, "tags": {"female": "yes", "male": "yes", "name": "Kolourrs Unisex salon", "shop": "hairdresser"}}, {"type": "node", "id": 1473817640, "lat": 12.9347018, "lon": 77.583688, "tags": {"name": "Malabhar Gold", "shop": "jewelry"}}, {"type": "node", "id": 1473818054, "lat": 12.9322759, "lon": 77.5858767, "tags": {"name": "Prince jewellery", "shop": "jewelry"}}, {"type": "node", "id": 1473818276, "lat": 12.9309688, "lon": 77.5857909, "tags": {"name": "Favourite Shop", "shop": "clothes"}}, {"type": "node", "id": 1473818538, "lat": 12.9300904, "lon": 77.5858231, "tags": {"name": "Khazana Jewellery", "shop": "jewelry"}}, {"type": "node", "id": 1473874115, "lat": 12.9288216, "lon": 77.5861538, "tags": {"name": "Reliance jewellery", "name:kn": "\u0cb0\u0cbf\u0cb2\u0caf\u0ca8\u0ccd\u0cb8\u0ccd \u0c9c\u0cbf\u0cb5\u0cc1\u0cb2\u0cc6\u0cb0\u0cbf", "shop": "jewelry"}}, {"type": "node", "id": 1473876346, "lat": 12.9271168, "lon": 77.5861609, "tags": {"name": "Kalamandir", "shop": "clothes"}}, {"type": "node", "id": 1473898703, "lat": 12.9423037, "lon": 77.5713284, "tags": {"name": "Rama Rao & sons", "shop": "jewelry"}}, {"type": "node", "id": 1473903929, "lat": 12.9488556, "lon": 77.5673667, "tags": {"name": "Ramakrishna Mutt", "name:kn": "\u0cb0\u0cbe\u0cae\u0c95\u0cc3\u0cb7\u0ccd\u0ca3 \u0cae\u0ca0", "shop": "books", "wheelchair": "limited"}}, {"type": "node", "id": 1473945528, "lat": 12.9473326, "lon": 77.5680046, "tags": {"brand": "Hyundai", "brand:wikidata": "Q55931", "level": "0;1", "name": "Blue Hyundai", "shop": "car"}}, {"type": "node", "id": 1473972590, "lat": 12.9505777, "lon": 77.567884, "tags": {"check_date": "2023-09-09", "name": "Miracle Unisex Salon", "shop": "beauty", "wheelchair": "no"}}, {"type": "node", "id": 1474001862, "lat": 12.9749906, "lon": 77.6072186, "tags": {"name": "Sri Vijaylakshmi Silks And Sarees", "shop": "clothes", "wheelchair": "no"}}, {"type": "node", "id": 1474007534, "lat": 12.9649944, "lon": 77.5958779, "tags": {"name": "Kirtilals", "shop": "jewelry"}}, {"type": "node", "id": 1474078152, "lat": 12.9275446, "lon": 77.5807642, "tags": {"building": "yes", "name": "Pearl Optics", "shop": "optician"}}, {"type": "node", "id": 1474089882, "lat": 12.9295314, "lon": 77.584573, "tags": {"name": "Jayanagar 4th Block Fish market", "shop": "seafood"}}, {"type": "node", "id": 1474100959, "lat": 12.934928, "lon": 77.6126828, "tags": {"name": "Print Express", "shop": "hifi"}}, {"type": "node", "id": 1474101623, "lat": 12.9351759, "lon": 77.6127454, "tags": {"name": "Fabric Spa", "shop": "dry_cleaning"}}, {"type": "node", "id": 1474195332, "lat": 12.9968718, "lon": 77.6143631, "tags": {"addr:housenumber": "93/2", "addr:postcode": "560005", "addr:street": "Mosque Road", "brand": "Sweet Chariot", "check_date": "2024-04-27", "delivery": "yes", "name": "Sweet Chariot", "name:kn": "\u0cb8\u0ccd\u0cb5\u0cc0\u0c9f\u0ccd \u0c9a\u0cbe\u0cb0\u0cbf\u0caf\u0c9f\u0ccd", "shop": "pastry", "takeaway": "yes"}}, {"type": "node", "id": 1474195348, "lat": 12.9966022, "lon": 77.614216, "tags": {"addr:housenumber": "93", "addr:postcode": "560005", "addr:street": "Mosque Road", "name": "Albert Bakery", "name:kn": "\u0c86\u0cb2\u0ccd\u0cac\u0cb0\u0ccd\u0c9f\u0ccd \u0cac\u0cc7\u0c95\u0cb0\u0cbf", "name:pa": "\u0a10\u0a32\u0a2c\u0a30\u0a1f \u0a2c\u0a47\u0a15\u0a30\u0a40", "name:ur": "\u0627\u0644\u0628\u0631\u0679 \u0628\u06cc\u06a9\u0631\u06cc", "shop": "bakery"}}, {"type": "node", "id": 1474257927, "lat": 12.9383815, "lon": 77.5849061, "tags": {"name": "Pai International", "shop": "hifi"}}, {"type": "node", "id": 1474257931, "lat": 12.9368706, "lon": 77.5847432, "tags": {"name": "Sri Devi International", "shop": "hifi"}}, {"type": "node", "id": 1474261010, "lat": 12.933221, "lon": 77.5825309, "tags": {"brand": "Bhima Jewellers", "brand:wikidata": "Q17004889", "name": "Bhima Jewellers", "shop": "jewelry"}}, {"type": "node", "id": 1474263757, "lat": 12.932994, "lon": 77.5852313, "tags": {"brand": "Reliance Fresh", "brand:wikidata": "Q7311014", "name": "Reliance Fresh", "name:kn": "\u0cb0\u0cbf\u0cb2\u0cc8\u0caf\u0ca8\u0ccd\u0cb8\u0ccd \u0cab\u0ccd\u0cb0\u0cc6\u0cb6\u0ccd", "shop": "supermarket", "wheelchair": "limited"}}, {"type": "node", "id": 1474266764, "lat": 12.9313369, "lon": 77.5862297, "tags": {"name": "Awesome", "shop": "clothes"}}, {"type": "node", "id": 1474266766, "lat": 12.9294525, "lon": 77.5861468, "tags": {"name": "Boots Bazaaar", "shop": "shoes"}}, {"type": "node", "id": 1474270539, "lat": 12.9287567, "lon": 77.586467, "tags": {"name": "GKB Opticals", "shop": "optician"}}, {"type": "node", "id": 1474270542, "lat": 12.9306417, "lon": 77.5864695, "tags": {"name": "Pulla Reddy Sweets", "shop": "confectionery"}}, {"type": "node", "id": 1474291160, "lat": 12.928945, "lon": 77.5859387, "tags": {"name": "Kalaniketan", "name:kn": "\u0c95\u0cb3\u0cbe\u0ca8\u0cbf\u0c95\u0cc7\u0ca4\u0ca8\u0ccd", "shop": "clothes"}}, {"type": "node", "id": 1474291161, "lat": 12.9298539, "lon": 77.5861419, "tags": {"brand": "Raymond", "brand:wikidata": "Q3537018", "name": "Raymond", "shop": "clothes"}}, {"type": "node", "id": 1474291163, "lat": 12.9290329, "lon": 77.5859122, "tags": {"name": "Roop sangam", "name:kn": "\u0cb0\u0cc2\u0caa \u0cb8\u0c82\u0c97\u0cae", "shop": "clothes"}}, {"type": "node", "id": 1474291164, "lat": 12.9292972, "lon": 77.5861487, "tags": {"name": "Titan Eye +", "shop": "optician"}}, {"type": "node", "id": 1474291165, "lat": 12.9295627, "lon": 77.5861454, "tags": {"brand": "Van Heusen", "brand:wikidata": "Q67551865", "clothes": "men", "name": "Van Heusen", "shop": "clothes"}}, {"type": "node", "id": 1474292386, "lat": 12.9308366, "lon": 77.5841217, "tags": {"name": "Shenoy", "shop": "confectionery"}}, {"type": "node", "id": 1474295621, "lat": 12.9305088, "lon": 77.5839513, "tags": {"addr:city": "Bengaluru", "name": "Big Mishra Pedha", "shop": "confectionery"}}, {"type": "node", "id": 1474297377, "lat": 12.930696, "lon": 77.5817575, "tags": {"name": "Anand Bhavan Sweets", "shop": "confectionery"}}, {"type": "node", "id": 1474298490, "lat": 12.9283859, "lon": 77.5860867, "tags": {"name": "Book World", "name:kn": "\u0cac\u0cc1\u0c95\u0ccd \u0cb5\u0cb0\u0ccd\u0cb2\u0ccd\u0ca1\u0ccd", "shop": "books"}}, {"type": "node", "id": 1474299234, "lat": 12.9810398, "lon": 77.6104463, "tags": {"addr:housenumber": "183", "addr:postcode": "560042", "addr:street": "Dickenson Road", "name": "Malabar Jewellery", "name:kn": "\u0cae\u0cb2\u0cac\u0cbe\u0cb0\u0ccd \u0c9c\u0cbf\u0cb5\u0cc6\u0cb2\u0cb0\u0cbf", "shop": "jewelry", "website": "www.malabargoldindia.com"}}, {"type": "node", "id": 1474302939, "lat": 12.9827449, "lon": 77.6069771, "tags": {"addr:city": "Bangalore", "addr:housename": "Shivajinagar", "addr:housenumber": "119/120", "addr:postcode": "560084", "addr:street": "Commercial Street", "brand": "Max", "brand:wikidata": "Q24939079", "name": "Max", "shop": "clothes"}}, {"type": "node", "id": 1474302940, "lat": 12.9814894, "lon": 77.6101459, "tags": {"addr:housenumber": "1", "addr:postcode": "560042", "addr:street": "Commercial Street", "name": "Sri Krishna Diamond and Jewellery", "name:kn": "\u0cb6\u0ccd\u0cb0\u0cc0 \u0c95\u0cc3\u0cb7\u0ccd\u0ca3 \u0cb5\u0c9c\u0ccd\u0cb0 \u0cae\u0ca4\u0ccd\u0ca4\u0cc1 \u0c9c\u0cbf\u0cb5\u0cc6\u0cb2\u0cb0\u0cbf", "shop": "jewelry"}}, {"type": "node", "id": 1474308850, "lat": 12.9817871, "lon": 77.6092771, "tags": {"addr:housenumber": "20", "addr:postcode": "560084", "addr:street": "Commercial Street", "name": "The Brown Shop", "name:kn": "\u0ca6 \u0cac\u0ccd\u0cb0\u0ccc\u0ca8\u0ccd \u0cb6\u0cbe\u0caa\u0ccd", "shop": "clothes"}}, {"type": "node", "id": 1474308851, "lat": 12.9816462, "lon": 77.6095934, "tags": {"addr:postcode": "560042", "addr:street": "Commercial Street", "name": "Lee Showroom", "name:kn": "\u0cb2\u0cc0 \u0cb6\u0ccb\u0cb0\u0cc2\u0c82", "shop": "clothes"}}, {"type": "node", "id": 1474308854, "lat": 12.9811601, "lon": 77.6102478, "tags": {"addr:street": "Kamaraj Road", "brand": "Levi's", "brand:wikidata": "Q127962", "clothes": "denim;men;women", "name": "Levi's", "name:kn": "\u0cb2\u0cc6\u0cb5\u0cbf\u0cb8\u0ccd", "shop": "clothes"}}, {"type": "node", "id": 1474324419, "lat": 12.9372827, "lon": 77.6245142, "tags": {"name": "Sumith Provision & Condiments", "shop": "convenience"}}, {"type": "node", "id": 1474324424, "lat": 12.9356619, "lon": 77.619186, "tags": {"name": "DHL couriers", "shop": "convenience"}}, {"type": "node", "id": 1474324431, "lat": 12.9372461, "lon": 77.6198029, "tags": {"name": "Sthra", "shop": "clothes"}}, {"type": "node", "id": 1474324437, "lat": 12.9368121, "lon": 77.6200764, "tags": {"name": "Gini & Jony", "shop": "clothes"}}, {"type": "node", "id": 1474324438, "lat": 12.9374604, "lon": 77.6242714, "tags": {"name": "Crystal Stationeries", "shop": "convenience"}}, {"type": "node", "id": 1474324446, "lat": 12.9371565, "lon": 77.6194335, "tags": {"name": "G K Vale Photo Studio", "shop": "photo"}}, {"type": "node", "id": 1474324449, "lat": 12.9370422, "lon": 77.6200711, "tags": {"name": "Proline fitness", "shop": "hifi"}}, {"type": "node", "id": 1474351202, "lat": 12.9377454, "lon": 77.6188695, "tags": {"name": "New meena cotton sale", "shop": "clothes"}}, {"type": "node", "id": 1474351209, "lat": 12.9373532, "lon": 77.6195239, "tags": {"name": "Meena Fashions", "shop": "clothes"}}, {"type": "node", "id": 1474351217, "lat": 12.9361926, "lon": 77.6147442, "tags": {"name": "Sports Planet", "shop": "convenience"}}, {"type": "node", "id": 1474351218, "lat": 12.9374839, "lon": 77.6194381, "tags": {"name": "Book sale", "shop": "books"}}, {"type": "node", "id": 1474432223, "lat": 12.9340524, "lon": 77.6102738, "tags": {"name": "Mom & Me", "shop": "clothes", "wheelchair": "no"}}, {"type": "node", "id": 1474432228, "lat": 12.9316137, "lon": 77.6072662, "tags": {"addr:street": "8th Cross", "name": "Bakery", "shop": "bakery"}}, {"type": "node", "id": 1474455985, "lat": 12.9312664, "lon": 77.6097492, "tags": {"name": "SreeVinayaka Alcohol Shop", "shop": "alcohol"}}, {"type": "node", "id": 1474819889, "lat": 12.9980255, "lon": 77.5499457, "tags": {"name": "My Looks", "shop": "clothes"}}, {"type": "node", "id": 1474819894, "lat": 12.9963776, "lon": 77.5514093, "tags": {"addr:city": "Bangalore", "addr:housenumber": "156", "addr:postcode": "560010", "addr:street": "19th Main (Goorur Ramaswamy Iyengar Road)", "name": "Health and Glow", "phone": "+(91)-80-32466651", "shop": "supermarket"}}, {"type": "node", "id": 1492519145, "lat": 12.9679651, "lon": 77.6064949, "tags": {"name": "ShowOff", "shop": "clothes"}}, {"type": "node", "id": 1514170720, "lat": 12.9723737, "lon": 77.5665094}, {"type": "node", "id": 1537844509, "lat": 12.9908004, "lon": 77.5706988}, {"type": "node", "id": 1543967418, "lat": 12.9720594, "lon": 77.6278089, "tags": {"addr:housename": "Bhavin Garments", "addr:housenumber": "12", "addr:postcode": "560008", "designation": "Manufacturer of Merchandise, Uniforms, Memorabilia, Books", "name": "Bhavin Garments", "shop": "clothes", "source": "Bhavin", "website": "www.studentsupplies.in , www.bhavingarments.com"}}, {"type": "node", "id": 1548761089, "lat": 12.9724756, "lon": 77.6064149}, {"type": "node", "id": 1548761108, "lat": 12.9721993, "lon": 77.6063064}, {"type": "node", "id": 1548761109, "lat": 12.9720085, "lon": 77.606818}, {"type": "node", "id": 1548761111, "lat": 12.9722848, "lon": 77.6069266}, {"type": "node", "id": 1548828175, "lat": 12.9909202, "lon": 77.5705084}, {"type": "node", "id": 1557291073, "lat": 12.9666578, "lon": 77.6119682}, {"type": "node", "id": 1557291078, "lat": 12.9665491, "lon": 77.6117045}, {"type": "node", "id": 1557291084, "lat": 12.9666676, "lon": 77.6116067}, {"type": "node", "id": 1557291086, "lat": 12.9665836, "lon": 77.6117143}, {"type": "node", "id": 1557291091, "lat": 12.966855, "lon": 77.6114304}, {"type": "node", "id": 1557291104, "lat": 12.9666122, "lon": 77.6116}, {"type": "node", "id": 1557291119, "lat": 12.9666642, "lon": 77.6119295}, {"type": "node", "id": 1557291124, "lat": 12.9668591, "lon": 77.611405}, {"type": "node", "id": 1557294486, "lat": 12.9908307, "lon": 77.5714977}, {"type": "node", "id": 1589557488, "lat": 12.9647793, "lon": 77.5836994, "tags": {"name": "Om Electronics", "shop": "electronics"}}, {"type": "node", "id": 1607646441, "lat": 12.9740694, "lon": 77.6201368}, {"type": "node", "id": 1607646444, "lat": 12.9740628, "lon": 77.6206385}, {"type": "node", "id": 1607646447, "lat": 12.9727867, "lon": 77.6205663}, {"type": "node", "id": 1607646465, "lat": 12.9729035, "lon": 77.6202183}, {"type": "node", "id": 1614268199, "lat": 12.9867564, "lon": 77.5795592, "tags": {"addr:housename": "Shivananda General Stores Complex", "addr:street": "Kumarakripa East", "name": "Shivananda Stores", "shop": "convenience"}}, {"type": "node", "id": 1615735026, "lat": 12.9266971, "lon": 77.6236359, "tags": {"brand": "Nilgiri's", "brand:wikidata": "Q17079567", "name": "Nilgiri's", "name:kn": "\u0ca8\u0cc0\u0cb2\u0ccd\u0c97\u0cbf\u0cb0\u0cbf\u0cb8\u0ccd", "shop": "supermarket"}}, {"type": "node", "id": 1623992195, "lat": 13.0133418, "lon": 77.5544958}, {"type": "node", "id": 1623992210, "lat": 13.0142102, "lon": 77.5544496}, {"type": "node", "id": 1623992262, "lat": 13.013354, "lon": 77.5554965}, {"type": "node", "id": 1623992282, "lat": 13.0142111, "lon": 77.5545248}, {"type": "node", "id": 1623992298, "lat": 13.0141685, "lon": 77.5554037}, {"type": "node", "id": 1623992339, "lat": 13.0140709, "lon": 77.5544514}, {"type": "node", "id": 1623992360, "lat": 13.0142218, "lon": 77.555403}, {"type": "node", "id": 1623992391, "lat": 13.0111742, "lon": 77.5557892}, {"type": "node", "id": 1623992424, "lat": 13.0110905, "lon": 77.5558383}, {"type": "node", "id": 1623992427, "lat": 13.0141695, "lon": 77.555486}, {"type": "node", "id": 1623992460, "lat": 13.0118032, "lon": 77.5557817}, {"type": "node", "id": 1623992461, "lat": 13.0140713, "lon": 77.5544864}, {"type": "node", "id": 1650296747, "lat": 12.9634626, "lon": 77.5910392, "tags": {"name": "Stanley Automotive Leather Seating", "shop": "car_parts"}}, {"type": "node", "id": 1650296779, "lat": 12.9638043, "lon": 77.5914408}, {"type": "node", "id": 1650296788, "lat": 12.9640442, "lon": 77.5911249}, {"type": "node", "id": 1650296812, "lat": 12.9640265, "lon": 77.5914535}, {"type": "node", "id": 1650296826, "lat": 12.9638221, "lon": 77.5911123}, {"type": "node", "id": 1655553583, "lat": 12.9657761, "lon": 77.6365089, "tags": {"name": "Anveshanam", "shop": "travel_agency"}}, {"type": "node", "id": 1669961198, "lat": 12.9337369, "lon": 77.6176108, "tags": {"name": "Lords & Kings Eye Gallery", "shop": "optician"}}, {"type": "node", "id": 1675248129, "lat": 12.935464, "lon": 77.616304, "tags": {"name": "Furtados Music India Private Limited", "shop": "music"}}, {"type": "node", "id": 1685654244, "lat": 12.9417196, "lon": 77.5853932, "tags": {"name": "Girias Electronics", "shop": "electronics"}}, {"type": "node", "id": 1685659803, "lat": 12.9395349, "lon": 77.5853734, "tags": {"diet:vegetarian": "only", "name": "Simpli Namdhari's", "organic": "only", "shop": "supermarket", "website": "https://www.simplinamdharis.com/", "wheelchair": "limited"}}, {"type": "node", "id": 1698093083, "lat": 12.9753217, "lon": 77.6064414, "tags": {"level": "0", "name": "Bombay Dyeing", "name:kn": "\u0cac\u0cca\u0c82\u0cac\u0cc6 \u0ca1\u0cc8\u0caf\u0cbf\u0c82\u0c97\u0ccd", "shop": "clothes"}}, {"type": "node", "id": 1725164116, "lat": 12.9758374, "lon": 77.6147563, "tags": {"name": "Bhima", "name:en": "Bhima", "name:kn": "\u0cad\u0cc0\u0cae", "shop": "jewelry"}}, {"type": "node", "id": 1725164124, "lat": 12.9759517, "lon": 77.6147731, "tags": {"name": "Panasonic", "shop": "electronics"}}, {"type": "node", "id": 1741809464, "lat": 12.9340167, "lon": 77.5623395, "tags": {"shop": "hairdresser"}}, {"type": "node", "id": 1741810626, "lat": 12.9321266, "lon": 77.5641271, "tags": {"shop": "toys"}}, {"type": "node", "id": 1758627903, "lat": 12.9270853, "lon": 77.6332259}, {"type": "node", "id": 1758627907, "lat": 12.9270597, "lon": 77.6328315}, {"type": "node", "id": 1758627919, "lat": 12.927265, "lon": 77.6328175}, {"type": "node", "id": 1758627929, "lat": 12.9272906, "lon": 77.6332119}, {"type": "node", "id": 1761893960, "lat": 12.9362953, "lon": 77.6280142}, {"type": "node", "id": 1761893963, "lat": 12.9364509, "lon": 77.6278777}, {"type": "node", "id": 1761893964, "lat": 12.9365006, "lon": 77.6279888}, {"type": "node", "id": 1761893965, "lat": 12.9365096, "lon": 77.6282619}, {"type": "node", "id": 1761893966, "lat": 12.9365615, "lon": 77.6282596}, {"type": "node", "id": 1761893968, "lat": 12.9365795, "lon": 77.6279957}, {"type": "node", "id": 1780288372, "lat": 12.9578402, "lon": 77.5529189}, {"type": "node", "id": 1780288373, "lat": 12.9581869, "lon": 77.5540146}, {"type": "node", "id": 1780288374, "lat": 12.9587038, "lon": 77.5538622}, {"type": "node", "id": 1780288375, "lat": 12.9588431, "lon": 77.5538781}, {"type": "node", "id": 1780288376, "lat": 12.9590753, "lon": 77.5530141}, {"type": "node", "id": 1780288377, "lat": 12.9591588, "lon": 77.5532714}, {"type": "node", "id": 1780485313, "lat": 12.9824069, "lon": 77.5600324}, {"type": "node", "id": 1780485315, "lat": 12.9824481, "lon": 77.5588648}, {"type": "node", "id": 1780485336, "lat": 12.9833279, "lon": 77.5600612}, {"type": "node", "id": 1780485339, "lat": 12.983395, "lon": 77.5597866}, {"type": "node", "id": 1780485340, "lat": 12.9834324, "lon": 77.5588417}, {"type": "node", "id": 1781815220, "lat": 12.9416536, "lon": 77.6161121, "tags": {"name": "Surf In Cyber Cafe", "shop": "stationery"}}, {"type": "node", "id": 1781889338, "lat": 12.939175, "lon": 77.6191546, "tags": {"craft": "photographer", "name": "G K Vale Photo Studio", "shop": "electronics"}}, {"type": "node", "id": 1781959093, "lat": 12.9410164, "lon": 77.6175336, "tags": {"name": "Pooja Items", "religion": "hindu", "shop": "gift"}}, {"type": "node", "id": 1792715612, "lat": 12.954621, "lon": 77.5672723, "tags": {"name": "Reliance Digital Electronic Store", "shop": "supermarket", "wheelchair": "no"}}, {"type": "node", "id": 1794017010, "lat": 12.9452338, "lon": 77.579897, "tags": {"addr:street": "Rashtriya Vidyalaya Road", "name": "Madhiraa", "shop": "alcohol"}}, {"type": "node", "id": 1796708919, "lat": 12.9402254, "lon": 77.5535523, "tags": {"name": "Cake Palace", "shop": "bakery"}}, {"type": "node", "id": 1809833004, "lat": 12.9767537, "lon": 77.5776995}, {"type": "node", "id": 1809833005, "lat": 12.9762519, "lon": 77.5778372}, {"type": "node", "id": 1809833007, "lat": 12.9765315, "lon": 77.5776045}, {"type": "node", "id": 1809833012, "lat": 12.9763891, "lon": 77.5779553}, {"type": "node", "id": 1809833013, "lat": 12.9762571, "lon": 77.577459}, {"type": "node", "id": 1809833017, "lat": 12.9766112, "lon": 77.5780503}, {"type": "node", "id": 1809833018, "lat": 12.9763852, "lon": 77.577502}, {"type": "node", "id": 1809833019, "lat": 12.9761421, "lon": 77.5777863}, {"type": "node", "id": 1809836481, "lat": 12.9764035, "lon": 77.5781564, "tags": {"name": "Sapna Book House", "name:kn": "\u0cb8\u0caa\u0ccd\u0ca8 \u0cac\u0cc1\u0c95\u0ccd \u0cb9\u0ccc\u0cb8\u0ccd", "shop": "books", "toilets:wheelchair": "no", "wheelchair": "no"}}, {"type": "node", "id": 1809856741, "lat": 12.9744491, "lon": 77.6143016, "tags": {"branch": "Jewellary", "brand": "Tanishq", "brand:en": "Tanishq", "brand:wikidata": "Q13117711", "level": "0", "name": "Tanishq", "name:en": "Tanishq", "opening_hours": "Mo-Sa 09:50-20:00", "shop": "jewelry", "wheelchair": "no"}}, {"type": "node", "id": 1813565068, "lat": 13.0057102, "lon": 77.5713559, "tags": {"name": "Sunil's", "shop": "clothes"}}, {"type": "node", "id": 1815951925, "lat": 12.9295981, "lon": 77.5681912, "tags": {"name": "Pin Ball", "shop": "clothes"}}, {"type": "node", "id": 1818494188, "lat": 12.9306129, "lon": 77.5862225, "tags": {"name": "Luois Phillepe", "shop": "clothes"}}, {"type": "node", "id": 1818494189, "lat": 12.9294468, "lon": 77.5856396, "tags": {"brand": "Reliance Trends", "name": "Reliance Trends", "shop": "clothes"}}, {"type": "node", "id": 1818494740, "lat": 12.9291985, "lon": 77.5861975, "tags": {"brand": "Allen Solly", "brand:wikidata": "Q110036995", "name": "Allen Solly", "name:kn": "\u0c85\u0cb2\u0cc6\u0ca8\u0ccd \u0cb8\u0cca\u0cb2\u0cbf", "shop": "clothes"}}, {"type": "node", "id": 1818495708, "lat": 12.9294521, "lon": 77.5850281, "tags": {"name": "Pin Ball", "shop": "clothes"}}, {"type": "node", "id": 1818496072, "lat": 12.9327777, "lon": 77.5863288}, {"type": "node", "id": 1818496073, "lat": 12.9327744, "lon": 77.5861881}, {"type": "node", "id": 1818496074, "lat": 12.932698, "lon": 77.5863308}, {"type": "node", "id": 1818496075, "lat": 12.9326948, "lon": 77.58619}, {"type": "node", "id": 1824140227, "lat": 12.942312, "lon": 77.60802, "tags": {"addr:street": "Hosur Road", "name": "Manokamana Cermanic", "shop": "mall"}}, {"type": "node", "id": 1824167359, "lat": 12.9738948, "lon": 77.5785146, "tags": {"name": "Univer Cell", "note": "Mobile shop", "shop": "electronics", "wheelchair": "no"}}, {"type": "node", "id": 1836940217, "lat": 12.9501124, "lon": 77.5569384}, {"type": "node", "id": 1836940226, "lat": 12.9510318, "lon": 77.555898}, {"type": "node", "id": 1851614806, "lat": 12.960466, "lon": 77.6017789, "tags": {"name": "Reliance Smartpoint", "shop": "supermarket"}}, {"type": "node", "id": 1851614956, "lat": 12.9596191, "lon": 77.6026157, "tags": {"name": "Namdharis", "shop": "supermarket"}}, {"type": "node", "id": 1851615411, "lat": 12.9622638, "lon": 77.6040957, "tags": {"name": "Richmond Supermarket", "shop": "supermarket"}}, {"type": "node", "id": 1851675230, "lat": 12.9656404, "lon": 77.6017608, "tags": {"name": "Print Express", "shop": "copyshop", "wheelchair": "no"}}, {"type": "node", "id": 1851688340, "lat": 12.9602214, "lon": 77.6017286, "tags": {"shop": "alcohol"}}, {"type": "node", "id": 1851701176, "lat": 12.9597386, "lon": 77.6018505, "tags": {"shop": "laundry"}}, {"type": "node", "id": 1851701311, "lat": 12.9596942, "lon": 77.6018371, "tags": {"shop": "greengrocer"}}, {"type": "node", "id": 1851701331, "lat": 12.9583088, "lon": 77.6022126, "tags": {"name": "Neelam Stores", "shop": "convenience"}}, {"type": "node", "id": 1851790242, "lat": 13.0039163, "lon": 77.6245782, "tags": {"name": "Cafe Da Costa", "shop": "bakery", "wheelchair": "limited"}}, {"type": "node", "id": 1851797681, "lat": 13.0013558, "lon": 77.6235851, "tags": {"name": "Basha Department Store", "name:kn": "\u0cac\u0cbe\u0cb7 \u0ca1\u0cbf\u0caa\u0cbe\u0cb0\u0ccd\u0c9f\u0ccd\u0cae\u0cc6\u0c82\u0c9f\u0ccd \u0cb8\u0ccd\u0c9f\u0ccb\u0cb0\u0ccd", "shop": "supermarket", "toilets:wheelchair": "no", "wheelchair": "no"}}, {"type": "node", "id": 1851799046, "lat": 13.001197, "lon": 77.6240601, "tags": {"brand": "HOPCOMS", "brand:wikidata": "Q22908959", "name": "HOPCOMS", "name:kn": "\u0cb9\u0cbe\u0caa\u0ccd\u200c\u0c95\u0cbe\u0cae\u0ccd\u0cb8\u0ccd", "shop": "greengrocer"}}, {"type": "node", "id": 1851800852, "lat": 13.0038706, "lon": 77.6226005, "tags": {"name": "G&T Laundry Expert", "shop": "laundry"}}, {"type": "node", "id": 1852660681, "lat": 12.9965335, "lon": 77.6190505, "tags": {"name": "Mandovi Motors", "shop": "car"}}, {"type": "node", "id": 1852664343, "lat": 12.9864817, "lon": 77.6194153, "tags": {"shop": "florist"}}, {"type": "node", "id": 1852668995, "lat": 12.9755514, "lon": 77.6173581, "tags": {"shop": "florist"}}, {"type": "node", "id": 1857028750, "lat": 12.9683415, "lon": 77.638885, "tags": {"brand": "HOPCOMS", "brand:wikidata": "Q22908959", "name": "HOPCOMS", "name:kn": "\u0cb9\u0cbe\u0caa\u0ccd \u0c95\u0cbe\u0cae\u0ccd\u0cb8\u0ccd", "shop": "greengrocer"}}, {"type": "node", "id": 1857042208, "lat": 12.9683642, "lon": 77.6397574, "tags": {"name": "Best Bakes", "shop": "bakery"}}, {"type": "node", "id": 1863318898, "lat": 12.999291, "lon": 77.5671481, "tags": {"name": "Manjunatha Provisions", "shop": "convenience"}}, {"type": "node", "id": 1863318899, "lat": 12.9992858, "lon": 77.5670032, "tags": {"name": "Ganesha Provisions", "shop": "convenience"}}, {"type": "node", "id": 1863318900, "lat": 12.9991395, "lon": 77.5678347, "tags": {"name": "Safal", "shop": "supermarket"}}, {"type": "node", "id": 1866331129, "lat": 13.0039638, "lon": 77.6155248, "tags": {"name": "Mysore Mini Shopee", "shop": "convenience"}}, {"type": "node", "id": 1912955964, "lat": 13.0099083, "lon": 77.5555545}, {"type": "node", "id": 1912955976, "lat": 13.0099092, "lon": 77.5545851}, {"type": "node", "id": 1912955986, "lat": 13.0120212, "lon": 77.5545618}, {"type": "node", "id": 1916532789, "lat": 12.9543124, "lon": 77.5786901, "tags": {"name": "NMH Bakery", "shop": "bakery"}}, {"type": "node", "id": 1928474895, "lat": 12.9748172, "lon": 77.6052245, "tags": {"addr:city": "Bengaluru", "addr:country": "IN", "addr:housename": "Brigade Gardens", "addr:postcode": "560001", "addr:street": "Church Street", "addr:suburb": "Ashok Nagar", "alt_name": "Blossoms", "contact:instagram": "blossombookhouse", "contact:twitter": "blossombookhous", "name": "Blossom Book House", "shop": "books", "start_date": "2002-01-18", "website": "https://www.blossombookhouse.in/"}}, {"type": "node", "id": 1928484337, "lat": 12.9755029, "lon": 77.6058802}, {"type": "node", "id": 1928484339, "lat": 12.9748682, "lon": 77.6056976}, {"type": "node", "id": 1930675161, "lat": 12.9496534, "lon": 77.5966436, "tags": {"name": "Maariyah Opticals", "shop": "optician"}}, {"type": "node", "id": 1931866155, "lat": 12.9715979, "lon": 77.56574}, {"type": "node", "id": 1931866156, "lat": 12.972182, "lon": 77.5665429}, {"type": "node", "id": 1931866163, "lat": 12.9725361, "lon": 77.5658576}, {"type": "node", "id": 1931866170, "lat": 12.9715389, "lon": 77.5660448}, {"type": "node", "id": 1931884581, "lat": 12.9763705, "lon": 77.5627443}, {"type": "node", "id": 1931884595, "lat": 12.9763847, "lon": 77.5628948}, {"type": "node", "id": 1931884600, "lat": 12.9757746, "lon": 77.5627469}, {"type": "node", "id": 1931940008, "lat": 12.9816856, "lon": 77.6083084, "tags": {"addr:city": "Bangalore", "addr:street": "Dispensary Road", "name": "Tamanna", "name:kn": "\u0ca4\u0cae\u0ca8\u0ccd\u0ca8\u0cbe", "shop": "clothes"}}, {"type": "node", "id": 1931940015, "lat": 12.9814514, "lon": 77.6077784, "tags": {"name": "Kalyan Silks", "shop": "clothes"}}, {"type": "node", "id": 1941464651, "lat": 12.9724588, "lon": 77.6260331, "tags": {"brand": "Nilgiri's", "brand:wikidata": "Q17079567", "check_date": "2023-10-12", "name": "Nilgiri's", "shop": "supermarket"}}, {"type": "node", "id": 1966567859, "lat": 12.9839438, "lon": 77.6393003}, {"type": "node", "id": 1966567921, "lat": 12.9839078, "lon": 77.6393924, "tags": {"name": "Vimal Motors - Hero Bike Showroom", "shop": "motorcycle"}}, {"type": "node", "id": 1966567927, "lat": 12.9837648, "lon": 77.6393055}, {"type": "node", "id": 1966567937, "lat": 12.9839386, "lon": 77.6391129}, {"type": "node", "id": 1966567939, "lat": 12.9838582, "lon": 77.6391805, "tags": {"name": "Haiku Honda Sales & Service", "shop": "motorcycle"}}, {"type": "node", "id": 1966567942, "lat": 12.9837597, "lon": 77.639118}, {"type": "node", "id": 1990628296, "lat": 12.9472021, "lon": 77.5714429, "tags": {"name": "Mahila", "name:kn": "\u0cae\u0cb9\u0cbf\u0cb3\u0cbe", "shop": "jewelry", "wheelchair": "no"}}, {"type": "node", "id": 2016154123, "lat": 12.9694808, "lon": 77.5729285, "tags": {"addr:street": "Sultanpete Main Road", "name": "Rajkumar Cards", "shop": "gift", "wheelchair": "no"}}, {"type": "node", "id": 2016215956, "lat": 12.9755654, "lon": 77.575714, "tags": {"brand": "Kanti Sweets", "name": "Kanti Sweets", "shop": "confectionery"}}, {"type": "node", "id": 2016220471, "lat": 12.9784169, "lon": 77.5531691, "tags": {"name": "Spiritz Zone", "shop": "alcohol", "wheelchair": "no"}}, {"type": "node", "id": 2016220474, "lat": 12.9754685, "lon": 77.5525146, "tags": {"name": "Kadamba Sports", "shop": "toys", "wheelchair": "no"}}, {"type": "node", "id": 2019344033, "lat": 12.926848, "lon": 77.5763349, "tags": {"addr:housename": "HOPCOMS", "addr:street": "1st Main", "shop": "greengrocer"}}, {"type": "node", "id": 2025970826, "lat": 12.9866761, "lon": 77.5796529, "tags": {"addr:housename": "Shivananada General Stores Complex", "addr:street": "Kumarakripa East", "name": "Sangam Sweets", "shop": "confectionery"}}, {"type": "node", "id": 2026069825, "lat": 12.9884699, "lon": 77.5769743, "tags": {"amenity": "ice_cream", "brand": "Corner House", "delivery": "yes", "name": "Corner House", "shop": "confectionery", "takeaway": "yes"}}, {"type": "node", "id": 2026085405, "lat": 13.0120704, "lon": 77.5540437}, {"type": "node", "id": 2026085423, "lat": 13.0123045, "lon": 77.5540956}, {"type": "node", "id": 2026085433, "lat": 13.0120704, "lon": 77.5537647}, {"type": "node", "id": 2026085437, "lat": 13.0123814, "lon": 77.5539712}, {"type": "node", "id": 2026085439, "lat": 13.0121724, "lon": 77.5540195}, {"type": "node", "id": 2026091402, "lat": 12.9973628, "lon": 77.5734466}, {"type": "node", "id": 2026091406, "lat": 12.9970752, "lon": 77.5734534}, {"type": "node", "id": 2026091407, "lat": 12.9971143, "lon": 77.5740309}, {"type": "node", "id": 2026091408, "lat": 12.9974671, "lon": 77.5740049}, {"type": "node", "id": 2026091409, "lat": 12.997086, "lon": 77.5739359}, {"type": "node", "id": 2026091410, "lat": 12.9973736, "lon": 77.5739291}, {"type": "node", "id": 2026091412, "lat": 12.997135, "lon": 77.5742857}, {"type": "node", "id": 2026091414, "lat": 12.9974789, "lon": 77.5742652}, {"type": "node", "id": 2026091417, "lat": 13.0031595, "lon": 77.5837029, "tags": {"brand": "Hyundai", "brand:wikidata": "Q55931", "check_date": "2025-09-19", "name": "Hyundai", "name:kn": "\u0cb9\u0ccd\u0caf\u0cc1\u0c82\u0ca1\u0cc8", "opening_hours": "Mo-Sa 08:00-20:00", "operator": "Trident Hyundai", "shop": "car"}}, {"type": "node", "id": 2040122417, "lat": 12.9267234, "lon": 77.5646465, "tags": {"name": "Itsy Bitsy", "note": "Shop selling craft supplies", "shop": "craft_supplies"}}, {"type": "node", "id": 2175279171, "lat": 12.9274299, "lon": 77.5782051, "tags": {"name": "Sufiyan Dry Fruits", "shop": "convenience"}}, {"type": "node", "id": 2175279390, "lat": 12.9271045, "lon": 77.5763095, "tags": {"brand": "HOPCOMS", "brand:wikidata": "Q22908959", "name": "HOPCOMS", "name:kn": "\u0cb9\u0cbe\u0caa\u0ccd \u0c95\u0cbe\u0cae\u0ccd\u0cb8\u0ccd", "shop": "greengrocer"}}, {"type": "node", "id": 2189699317, "lat": 12.972575, "lon": 77.6064197}, {"type": "node", "id": 2189699386, "lat": 12.9755046, "lon": 77.602496}, {"type": "node", "id": 2189718252, "lat": 12.9733583, "lon": 77.5958441}, {"type": "node", "id": 2201181399, "lat": 12.9792079, "lon": 77.6404952}, {"type": "node", "id": 2208582147, "lat": 13.0075165, "lon": 77.5641095, "tags": {"name": "Expert Dry Cleaning", "shop": "dry_cleaning"}}, {"type": "node", "id": 2211056431, "lat": 13.0144977, "lon": 77.6357519, "tags": {"name": "Bakey and Joy", "shop": "bakery"}}, {"type": "node", "id": 2211123464, "lat": 12.9665602, "lon": 77.5892256, "tags": {"shop": "bakery"}}, {"type": "node", "id": 2247465811, "lat": 12.9945651, "lon": 77.6077839, "tags": {"amenity": "fast_food", "name": "Nandi Bakery", "name:kn": "\u0ca8\u0c82\u0ca6\u0cbf", "shop": "kiosk"}}, {"type": "node", "id": 2249052140, "lat": 12.9863548, "lon": 77.5603215, "tags": {"brand": "Honda", "brand:wikidata": "Q9584", "name": "Honda 2 Wheeler Service", "shop": "motorcycle"}}, {"type": "node", "id": 2271424244, "lat": 12.9842531, "lon": 77.5492418, "tags": {"name": "Girias", "shop": "hifi"}}, {"type": "node", "id": 2285468345, "lat": 12.9285453, "lon": 77.6283645, "tags": {"shop": "seafood"}}, {"type": "node", "id": 2285468403, "lat": 12.9285532, "lon": 77.6282626, "tags": {"shop": "hairdresser"}}, {"type": "node", "id": 2285469459, "lat": 12.9355043, "lon": 77.6314571, "tags": {"addr:street": "1st Cross Road", "name": "Supriya Stores", "shop": "convenience"}}, {"type": "node", "id": 2285469526, "lat": 12.9333424, "lon": 77.6298772, "tags": {"shop": "greengrocer"}}, {"type": "node", "id": 2285469554, "lat": 12.9334024, "lon": 77.6298023, "tags": {"name": "Food Mall", "shop": "convenience"}}, {"type": "node", "id": 2293286379, "lat": 12.9836572, "lon": 77.5487644, "tags": {"name": "Just Bake", "name:kn": "\u0c9c\u0cb8\u0ccd\u0c9f\u0ccd \u0cac\u0cc7\u0c95\u0ccd", "shop": "bakery"}}, {"type": "node", "id": 2301063513, "lat": 12.9975064, "lon": 77.5499528, "tags": {"shop": "alcohol"}}, {"type": "node", "id": 2303827884, "lat": 13.0070523, "lon": 77.5823409}, {"type": "node", "id": 2303827885, "lat": 13.0065714, "lon": 77.5818883}, {"type": "node", "id": 2303827889, "lat": 13.0062911, "lon": 77.5823786}, {"type": "node", "id": 2322736999, "lat": 12.9684869, "lon": 77.6008019, "tags": {"amenity": "cafe", "brand": "Sweet Chariot", "delivery": "yes", "level": "0", "name": "Sweet Chariot", "shop": "pastry", "takeaway": "yes"}}, {"type": "node", "id": 2331429506, "lat": 12.9381919, "lon": 77.556125, "tags": {"name": "Relience Fresh", "operator": "Relience", "shop": "supermarket"}}, {"type": "node", "id": 2449073269, "lat": 12.9373411, "lon": 77.6279926}, {"type": "node", "id": 2487524465, "lat": 12.9814915, "lon": 77.6083334, "tags": {"addr:city": "Bangalore", "addr:housename": "Opp Tamanna", "addr:street": "Dispensary Road", "name": "Nutan Silks", "name:kn": "\u0ca8\u0cc2\u0ca4\u0ca8\u0ccd \u0cb8\u0cbf\u0cb2\u0ccd\u0c95\u0ccd\u0cb8\u0ccd", "shop": "clothes"}}, {"type": "node", "id": 2487524466, "lat": 12.9814677, "lon": 77.6084953, "tags": {"addr:city": "Bangalore", "addr:housename": "Opp Tamanna", "addr:street": "Dispensary Road", "name": "Geetanjali", "name:kn": "\u0c97\u0cc0\u0ca4\u0cbe\u0c82\u0c9c\u0cb2\u0cbf", "shop": "jewelry"}}, {"type": "node", "id": 2487524467, "lat": 12.9811096, "lon": 77.6102253, "tags": {"addr:city": "Bangalore", "addr:housename": "Near Commercial Street", "addr:street": "Kamaraj Road", "name": "Lake N Bake", "name:kn": "\u0cb2\u0cc7\u0c96\u0ccd \u0c8e\u0ca8\u0ccd \u0cac\u0cc7\u0c95\u0ccd", "shop": "bakery"}}, {"type": "node", "id": 2489009764, "lat": 13.0103379, "lon": 77.5549593, "tags": {"addr:city": "Bangalore", "addr:housename": "Orion Mall", "addr:street": "Dr. Rajkumar Road", "name": "RMKV Silks", "shop": "clothes"}}, {"type": "node", "id": 2489009765, "lat": 13.0101708, "lon": 77.5548457, "tags": {"addr:city": "Bangalore", "addr:housename": "Orion Mall", "addr:housenumber": "G08, G09", "addr:street": "Dr. Rajkumar Road", "name": "Debenhams", "shop": "hifi"}}, {"type": "node", "id": 2489009766, "lat": 13.0101633, "lon": 77.5550943, "tags": {"addr:city": "Bangalore", "addr:housename": "Orion Mall", "addr:housenumber": "G07", "addr:street": "Dr. Rajkumar Road", "name": "Debenhams Cosmetic", "shop": "cosmetics"}}, {"type": "node", "id": 2489009767, "lat": 13.0101713, "lon": 77.5549686, "tags": {"addr:city": "Bangalore", "addr:housename": "ground Floor, Orion Mall", "addr:housenumber": "G28", "addr:street": "Dr. Rajkumar Road", "name": "Landmark", "shop": "convenience"}}, {"type": "node", "id": 2489009768, "lat": 13.011798, "lon": 77.5551394, "tags": {"addr:city": "Bangalore", "addr:housename": "Ground Floor, Orion Mall", "addr:housenumber": "G27", "addr:street": "Dr. Rajkumar Road", "shop": "clothes"}}, {"type": "node", "id": 2489009771, "lat": 13.010998, "lon": 77.5553637, "tags": {"addr:city": "Bangalore", "addr:housename": "Ground Floor, Orion Mall", "addr:housenumber": "G29", "addr:street": "Dr. Rajkumar Road", "brand": "Reebok", "brand:wikidata": "Q466183", "name": "Reebok", "name:kn": "\u0cb0\u0cc0\u0cac\u0cbe\u0c95\u0ccd", "shop": "clothes"}}, {"type": "node", "id": 2489009772, "lat": 13.0109007, "lon": 77.5548788, "tags": {"addr:city": "Bangalore", "addr:housename": "Ground Floor, Orion Mall", "addr:housenumber": "G30", "addr:street": "Dr. Rajkumar Road", "name": "Espirit", "shop": "watch"}}, {"type": "node", "id": 2489009775, "lat": 13.0108303, "lon": 77.5549373, "tags": {"addr:city": "Bangalore", "addr:housename": "Ground Floor, Orion Mall", "addr:housenumber": "G37A", "addr:street": "Dr. Rajkumar Road", "name": "Ethos", "shop": "watch"}}, {"type": "node", "id": 2489009776, "lat": 13.0107847, "lon": 77.5548782, "tags": {"addr:city": "Bangalore", "addr:housename": "Ground Floor, Orion Mall", "addr:housenumber": "G02", "addr:street": "Dr. Rajkumar Road", "brand": "Tommy Hilfiger", "brand:wikidata": "Q634881", "brand:wikipedia": "en:Tommy Hilfiger (company)", "name": "Tommy Hilfiger", "shop": "clothes"}}, {"type": "node", "id": 2489009777, "lat": 13.0107206, "lon": 77.5549405, "tags": {"addr:city": "Bangalore", "addr:housename": "Ground Floor, Orion Mall", "addr:housenumber": "G03, G04", "addr:street": "Dr. Rajkumar Road", "name": "Wills Lifestyle", "shop": "clothes"}}, {"type": "node", "id": 2489009778, "lat": 13.0106746, "lon": 77.5548767, "tags": {"addr:city": "Bangalore", "addr:housename": "Ground Floor, Orion Mall", "addr:housenumber": "G05", "addr:street": "Dr. Rajkumar Road", "name": "Elle", "shop": "cosmetics"}}, {"type": "node", "id": 2489009779, "lat": 13.0103911, "lon": 77.5548848, "tags": {"addr:city": "Bangalore", "addr:housename": "Ground Floor, Orion Mall", "addr:housenumber": "G06", "addr:street": "Dr. Rajkumar Road", "name": "Swarovski", "shop": "hifi"}}, {"type": "node", "id": 2489009780, "lat": 13.0105296, "lon": 77.5548792, "tags": {"addr:city": "Bangalore", "addr:housename": "Ground Floor, Orion Mall", "addr:housenumber": "G10", "addr:street": "Dr. Rajkumar Road", "name": "Nautica", "shop": "hifi"}}, {"type": "node", "id": 2489009781, "lat": 13.0104749, "lon": 77.5548867, "tags": {"addr:city": "Bangalore", "addr:housename": "Ground Floor, Orion Mall", "addr:housenumber": "G10A", "addr:street": "Dr. Rajkumar Road", "brand": "Samsonite", "brand:wikidata": "Q1203426", "name": "Samsonite", "shop": "bag"}}, {"type": "node", "id": 2489009782, "lat": 13.0102981, "lon": 77.5548904, "tags": {"addr:city": "Bangalore", "addr:housename": "Ground Floor, Orion Mall", "addr:housenumber": "G11", "addr:street": "Dr. Rajkumar Road", "name": "Chemistry", "shop": "clothes"}}, {"type": "node", "id": 2489009783, "lat": 13.0100944, "lon": 77.5549108, "tags": {"addr:city": "Bangalore", "addr:housename": "Ground Floor, Orion Mall", "addr:housenumber": "G12", "addr:street": "Dr. Rajkumar Road", "brand": "Levi's", "brand:wikidata": "Q127962", "brand:wikipedia": "en:Levi Strauss & Co.", "clothes": "denim;men;women", "name": "Levi's", "shop": "clothes"}}, {"type": "node", "id": 2489009784, "lat": 13.0102817, "lon": 77.5549652, "tags": {"addr:city": "Bangalore", "addr:housename": "Ground Floor, Orion Mall", "addr:housenumber": "G13", "addr:street": "Dr. Rajkumar Road", "brand": "United Colors of Benetton", "brand:wikidata": "Q817139", "name": "United Colors of Benetton", "shop": "clothes", "short_name": "Benetton"}}, {"type": "node", "id": 2489017279, "lat": 13.0104166, "lon": 77.5549615, "tags": {"addr:city": "Bangalore", "addr:housename": "Ground Floor, Orion Mall", "addr:housenumber": "G14, G15", "addr:street": "Dr. Rajkumar Road", "brand": "Jack & Jones", "brand:wikidata": "Q6077665", "name": "Jack & Jones", "shop": "clothes"}}, {"type": "node", "id": 2489017282, "lat": 13.0106066, "lon": 77.5549374, "tags": {"addr:city": "Bangalore", "addr:housename": "Ground Floor, Orion Mall", "addr:housenumber": "G19", "addr:street": "Dr. Rajkumar Road", "brand": "Mango", "brand:wikidata": "Q136503", "name": "Mango", "shop": "clothes"}}, {"type": "node", "id": 2489017285, "lat": 13.0104539, "lon": 77.5553095, "tags": {"addr:city": "Bangalore", "addr:housename": "Ground Floor, Orion Mall", "addr:housenumber": "G27", "addr:street": "Dr. Rajkumar Road", "name": "Westside", "shop": "clothes"}}, {"type": "node", "id": 2489017288, "lat": 13.010514, "lon": 77.5553829, "tags": {"addr:city": "Bangalore", "addr:housename": "Upper Ground Floow, Orion Mall", "addr:housenumber": "UG01", "addr:street": "Dr. Rajkumar Road", "name": "Balckberrys", "shop": "clothes"}}, {"type": "node", "id": 2489017291, "lat": 13.0103911, "lon": 77.5553855, "tags": {"addr:city": "Bangalore", "addr:housename": "Upper Ground Floow, Orion Mall", "addr:housenumber": "UG02", "addr:street": "Dr. Rajkumar Road", "brand": "Bata", "brand:wikidata": "Q688082", "name": "Bata", "name:kn": "\u0cac\u0cbe\u0c9f\u0cbe", "shop": "shoes"}}, {"type": "node", "id": 2489017297, "lat": 13.0101195, "lon": 77.5554142, "tags": {"shop": "wine"}}, {"type": "node", "id": 2489017299, "lat": 13.0101943, "lon": 77.5554198, "tags": {"addr:city": "Bangalore", "addr:housename": "Upper Ground Floow, Orion Mall", "addr:housenumber": "UG04", "addr:street": "Dr. Rajkumar Road", "name": "Fasttrack", "shop": "watch"}}, {"type": "node", "id": 2489017302, "lat": 13.0114964, "lon": 77.5549008, "tags": {"addr:city": "Bangalore", "addr:floor": "UG", "addr:street": "Dr. Rajkumar Road", "check_date": "2023-09-10", "level": "1", "name": "Hidesign", "shop": "bag"}}, {"type": "node", "id": 2489017306, "lat": 13.0100667, "lon": 77.5552757, "tags": {"addr:city": "Bangalore", "addr:housename": "Upper Ground Floow, Orion Mall", "addr:housenumber": "UG04A", "addr:street": "Dr. Rajkumar Road", "name": "Da Milano", "shop": "hifi"}}, {"type": "node", "id": 2489017309, "lat": 13.0100968, "lon": 77.5551844, "tags": {"addr:city": "Bangalore", "addr:housename": "Upper Ground Floow, Orion Mall", "addr:housenumber": "UG05A", "addr:street": "Dr. Rajkumar Road", "name": "Lee", "shop": "clothes"}}, {"type": "node", "id": 2489017312, "lat": 13.0100992, "lon": 77.555032, "tags": {"addr:city": "Bangalore", "addr:housename": "Upper Ground Floow, Orion Mall", "addr:housenumber": "UG06", "addr:street": "Dr. Rajkumar Road", "name": "Wrangler", "shop": "clothes"}}, {"type": "node", "id": 2489017315, "lat": 13.0100959, "lon": 77.5547872, "tags": {"addr:city": "Bangalore", "addr:housename": "Upper Ground Floow, Orion Mall", "addr:housenumber": "UG07, UG08", "addr:street": "Dr. Rajkumar Road", "name": "Central", "shop": "clothes"}}, {"type": "node", "id": 2489029620, "lat": 13.0113093, "lon": 77.5549151, "tags": {"addr:city": "Bangalore", "addr:housename": "Upper Ground Floor, Orion Mall", "addr:housenumber": "UG12", "addr:street": "Dr. Rajkumar Road", "brand": "U.S. Polo Assn.", "brand:wikidata": "Q7863282", "name": "U.S. Polo Assn.", "shop": "clothes"}}, {"type": "node", "id": 2489029624, "lat": 13.0112178, "lon": 77.5548584, "tags": {"addr:city": "Bangalore", "addr:housename": "Upper Ground Floor, Orion Mall", "addr:housenumber": "UG13", "addr:street": "Dr. Rajkumar Road", "name": "Provogue", "shop": "clothes"}}, {"type": "node", "id": 2489042424, "lat": 13.0112384, "lon": 77.5553907, "tags": {"addr:city": "Bangalore", "addr:housename": "Upper Gground Floor, Orion Mall", "addr:housenumber": "UG14", "addr:street": "Dr. Rajkumar Road", "brand": "Rockport", "brand:wikidata": "Q4048384", "name": "Rockport", "shop": "shoes"}}, {"type": "node", "id": 2489042425, "lat": 13.0118669, "lon": 77.5548539, "tags": {"addr:city": "Bangalore", "addr:housename": "Upper Gground Floor, Orion Mall", "addr:housenumber": "UG17", "addr:street": "Dr. Rajkumar Road", "brand": "Samsung", "brand:wikidata": "Q20718", "name": "Samsung", "name:kn": "\u0cb8\u0ccd\u0caf\u0cbe\u0cae\u0ccd\u200c\u0cb8\u0c82\u0c97\u0ccd", "shop": "electronics"}}, {"type": "node", "id": 2489042426, "lat": 13.0116388, "lon": 77.5547987, "tags": {"addr:city": "Bangalore", "addr:housename": "Upper Gground Floor, Orion Mall", "addr:housenumber": "UG16", "addr:street": "Dr. Rajkumar Road", "brand": "Adidas", "brand:wikidata": "Q3895", "name": "Adidas", "name:kn": "\u0c85\u0ca1\u0cbf\u0ca1\u0cbe\u0cb8\u0ccd", "shop": "sports"}}, {"type": "node", "id": 2489042427, "lat": 13.0118174, "lon": 77.5548097, "tags": {"addr:city": "Bangalore", "addr:housename": "Upper Gground Floor, Orion Mall", "addr:housenumber": "UG17", "addr:street": "Dr. Rajkumar Road", "name": "Arrrow", "shop": "clothes"}}, {"type": "node", "id": 2489042428, "lat": 13.0117593, "lon": 77.5548097, "tags": {"addr:city": "Bangalore", "addr:housename": "Upper Gground Floor, Orion Mall", "addr:housenumber": "UG18", "addr:street": "Dr. Rajkumar Road", "brand": "Celio", "brand:wikidata": "Q2672003", "name": "Celio", "shop": "clothes"}}, {"type": "node", "id": 2489042429, "lat": 13.0115721, "lon": 77.5547854, "tags": {"addr:city": "Bangalore", "addr:housename": "Upper Gground Floor, Orion Mall", "addr:housenumber": "UG19-UG21", "name": "Imagine Store", "shop": "electronics"}}, {"type": "node", "id": 2489042430, "lat": 13.0117504, "lon": 77.5552004, "tags": {"addr:city": "Bangalore", "addr:housename": "Upper Gground Floor, Orion Mall", "addr:housenumber": "UG22", "addr:street": "Dr. Rajkumar Road", "name": "Zodiac", "shop": "clothes"}}, {"type": "node", "id": 2489042431, "lat": 13.0118154, "lon": 77.5550156, "tags": {"addr:city": "Bangalore", "addr:housename": "Upper Gground Floor, Orion Mall", "addr:housenumber": "UG23", "addr:street": "Dr. Rajkumar Road", "name": "Louis Phillippe", "name:kn": "\u0cb2\u0cc2\u0caf\u0cbf \u0cab\u0cbf\u0cb2\u0cbf\u0caa\u0ccd", "shop": "clothes"}}, {"type": "node", "id": 2489042432, "lat": 13.0117552, "lon": 77.5550805, "tags": {"addr:city": "Bangalore", "addr:housename": "Upper Gground Floor, Orion Mall", "addr:housenumber": "UG23", "addr:street": "Dr. Rajkumar Road", "name": "Van Huesen", "shop": "clothes"}}, {"type": "node", "id": 2489042435, "lat": 13.0117279, "lon": 77.5553093, "tags": {"addr:city": "Bangalore", "addr:housename": "Upper Gground Floor, Orion Mall", "addr:housenumber": "UG26", "addr:street": "Dr. Rajkumar Road", "name": "Pepe", "shop": "clothes"}}, {"type": "node", "id": 2489042436, "lat": 13.0117851, "lon": 77.5551919, "tags": {"addr:city": "Bangalore", "addr:housename": "Upper Gground Floor, Orion Mall", "addr:housenumber": "UG26A", "addr:street": "Dr. Rajkumar Road", "name": "World of Titan", "shop": "watch"}}, {"type": "node", "id": 2489042438, "lat": 13.0114494, "lon": 77.555384, "tags": {"addr:city": "Bangalore", "addr:housename": "Upper Gground Floor, Orion Mall", "addr:housenumber": "UG28, UG29", "addr:street": "Dr. Rajkumar Road", "name": "Star Bazar", "shop": "supermarket"}}, {"type": "node", "id": 2489042439, "lat": 13.0117987, "lon": 77.5552696, "tags": {"addr:city": "Bangalore", "addr:housename": "Upper Gground Floor, Orion Mall", "addr:housenumber": "UG30", "addr:street": "Dr. Rajkumar Road", "name": "Colorplus", "shop": "clothes"}}, {"type": "node", "id": 2489042440, "lat": 13.0115445, "lon": 77.5548961, "tags": {"addr:city": "Bangalore", "addr:housename": "Upper Gground Floor, Orion Mall", "addr:housenumber": "UG31", "addr:street": "Dr. Rajkumar Road", "name": "Mochi", "shop": "shoes"}}, {"type": "node", "id": 2489042441, "lat": 13.0115308, "lon": 77.5548398, "tags": {"addr:city": "Bangalore", "addr:housename": "Upper Gground Floor, Orion Mall", "addr:housenumber": "UG32", "addr:street": "Dr. Rajkumar Road", "brand": "Clarks", "brand:wikidata": "Q1095857", "name": "Clarks", "name:kn": "\u0c95\u0ccd\u0cb2\u0cbe\u0cb0\u0ccd\u0c95\u0ccd\u0cb8\u0ccd", "shop": "shoes"}}, {"type": "node", "id": 2489042442, "lat": 13.0116624, "lon": 77.5549201, "tags": {"addr:city": "Bangalore", "addr:housename": "Upper Gground Floor, Orion Mall", "addr:housenumber": "UG34", "addr:street": "Dr. Rajkumar Road", "name": "LP", "shop": "hifi"}}, {"type": "node", "id": 2489193186, "lat": 13.0115542, "lon": 77.5554029, "tags": {"addr:city": "Bangalore", "addr:housename": "Upper Gground Floor, Orion Mall", "addr:housenumber": "UG35", "addr:street": "Dr. Rajkumar Road", "brand": "Allen Solly", "brand:wikidata": "Q110036995", "name": "Allen Solly", "name:kn": "\u0c85\u0cb2\u0cc6\u0ca8\u0ccd \u0cb8\u0cca\u0cb2\u0cbf", "shop": "clothes"}}, {"type": "node", "id": 2489193187, "lat": 13.0115083, "lon": 77.5553276, "tags": {"addr:city": "Bangalore", "addr:housename": "Upper Gground Floor, Orion Mall", "addr:housenumber": "UG36", "addr:street": "Dr. Rajkumar Road", "brand": "Hush Puppies", "brand:wikidata": "Q1828588", "name": "Hush Puppies", "shop": "shoes"}}, {"type": "node", "id": 2489193188, "lat": 13.0117528, "lon": 77.5550085, "tags": {"addr:city": "Bangalore", "addr:housename": "Upper Gground Floor, Orion Mall", "addr:housenumber": "UG37", "addr:street": "Dr. Rajkumar Road", "name": "Bagzone", "shop": "bag"}}, {"type": "node", "id": 2489193189, "lat": 13.0116388, "lon": 77.5548517, "tags": {"addr:city": "Bangalore", "addr:housename": "Upper Gground Floor, Orion Mall", "addr:housenumber": "UG38", "addr:street": "Dr. Rajkumar Road", "name": "Accessorize", "shop": "hifi"}}, {"type": "node", "id": 2489193190, "lat": 13.0117313, "lon": 77.5547545, "tags": {"addr:city": "Bangalore", "addr:housename": "Upper Gground Floor, Orion Mall", "addr:housenumber": "UG38A", "addr:street": "Dr. Rajkumar Road", "name": "The Body Shop", "shop": "hifi"}}, {"type": "node", "id": 2496916039, "lat": 12.9805404, "lon": 77.6072557, "tags": {"addr:city": "Bangalore", "addr:housename": "Next to Krishnaiah Chetty and Sons", "addr:street": "Main Guard Cross Road", "name": "Inmark", "shop": "clothes"}}, {"type": "node", "id": 2496920248, "lat": 12.9827176, "lon": 77.6070474, "tags": {"addr:city": "Bangalore", "addr:housename": "Opp Commercial Street Police Station", "addr:street": "Commercial Street", "name": "Thunderbird", "name:kn": "\u0ca5\u0c82\u0ca1\u0cb0\u0ccd\u200d\u0cac\u0cb0\u0ccd\u0ca1\u0ccd", "shop": "leather_wear"}}, {"type": "node", "id": 2496920252, "lat": 12.9820759, "lon": 77.6090805, "tags": {"addr:city": "Bangalore", "addr:housename": "Shivajinagar", "addr:street": "Commercial Street", "name": "World of Titan", "name:kn": "\u0cb5\u0cb0\u0ccd\u0cb2\u0ccd\u0ca1\u0ccd \u0c86\u0cab\u0ccd \u0c9f\u0cc8\u0c9f\u0ca8\u0ccd", "shop": "watches"}},