{"version": 0.6, "generator": "Overpass API 0.7.62.8 e802775f", "osm3s": {"timestamp_osm_base": "2025-11-30T01:52:00Z", "copyright": "The data included in this document is from www.openstreetmap.org. The data is made available under ODbL."}, "elements": [{"type": "node", "id": 246472351, "lat": 12.9765254, "lon": 77.5922324}, {"type": "node", "id": 248462877, "lat": 12.9648139, "lon": 77.6010625}, {"type": "node", "id": 248462886, "lat": 12.9639959, "lon": 77.5996602}, {"type": "node", "id": 248462887, "lat": 12.9634852, "lon": 77.5998554}, {"type": "node", "id": 248462888, "lat": 12.9632055, "lon": 77.60017}, {"type": "node", "id": 248462892, "lat": 12.9636988, "lon": 77.6009792}, {"type": "node", "id": 248462893, "lat": 12.9642746, "lon": 77.6008328}, {"type": "node", "id": 248462894, "lat": 12.9653054, "lon": 77.601001}, {"type": "node", "id": 248462895, "lat": 12.9639237, "lon": 77.600018}, {"type": "node", "id": 308924872, "lat": 12.9649758, "lon": 77.6098452}, {"type": "node", "id": 308925924, "lat": 12.966995, "lon": 77.611466}, {"type": "node", "id": 308925925, "lat": 12.9668617, "lon": 77.6120194}, {"type": "node", "id": 308927685, "lat": 12.9778903, "lon": 77.5994898}, {"type": "node", "id": 312543002, "lat": 12.9679866, "lon": 77.6110302}, {"type": "node", "id": 312545031, "lat": 12.9703806, "lon": 77.6094191, "tags": {"access": "customers", "amenity": "parking", "fee": "yes", "name": "Garuda Mall Parking", "parking": "underground"}}, {"type": "node", "id": 312575298, "lat": 12.9538146, "lon": 77.5933263}, {"type": "node", "id": 312575299, "lat": 12.9533268, "lon": 77.5929024}, {"type": "node", "id": 314705276, "lat": 12.9741824, "lon": 77.5753745, "tags": {"amenity": "restaurant", "name": "Sukh Sagar", "name:kn": "\u0cb8\u0cc1\u0c96\u0ccd \u0cb8\u0cbe\u0c97\u0cb0"}}, {"type": "node", "id": 317119985, "lat": 12.9543746, "lon": 77.5930172, "tags": {"amenity": "restaurant", "brand": "Adyar Ananda Bhavan", "brand:wikidata": "Q15178238", "name": "Adyar Ananda Bhavan", "name:kn": "\u0c95\u0ca6\u0c82\u0cac \u0cb5\u0cc6\u0c9c\u0ccd", "opening_hours": "PH,Mo-Su 07:00-22:30", "shop": "confectionery", "survey:date": "2024-02-01"}}, {"type": "node", "id": 343089650, "lat": 12.9915471, "lon": 77.614181, "tags": {"addr:housenumber": "# 1/2", "addr:postcode": "560005", "addr:street": "Wheeler Road", "name": "Thom's Bakery", "name:ar": "\u062f\u0643\u0627\u0646 \u0643\u0628\u064a\u0631", "name:kn": "\u0ca5\u0cbe\u0cae\u0ccd\u0cb8\u0ccd \u0cac\u0cc7\u0c95\u0cb0\u0cbf", "shop": "bakery"}}, {"type": "node", "id": 347295723, "lat": 12.9777494, "lon": 77.5706624}, {"type": "node", "id": 347295724, "lat": 12.9779605, "lon": 77.5698209}, {"type": "node", "id": 347295726, "lat": 12.9776796, "lon": 77.5697672}, {"type": "node", "id": 347295727, "lat": 12.977486, "lon": 77.5706007}, {"type": "node", "id": 349291886, "lat": 12.9756318, "lon": 77.6014761, "tags": {"addr:city": "Bangalore", "addr:country": "IN", "addr:housenumber": "39", "addr:postcode": "560001", "addr:street": "Saint Mark's Road", "addr:suburb": "Shanthala Nagar", "amenity": "restaurant", "capacity": "125", "check_date": "2024-08-19", "delivery": "no", "name": "Koshy's", "name:kn": "\u0c95\u0ccb\u0cb6\u0cc0\u0cb8\u0ccd", "official_name": "Koshy's Parade Cafe", "opening_hours": "09:00 - 23:00", "smoking": "no", "start_date": "1952", "takeaway": "yes", "wheelchair": "limited", "wikidata": "Q6433165"}}, {"type": "node", "id": 423747687, "lat": 12.9684571, "lon": 77.6014051}, {"type": "node", "id": 423747689, "lat": 12.9678483, "lon": 77.6022713}, {"type": "node", "id": 423747690, "lat": 12.9676285, "lon": 77.6018841}, {"type": "node", "id": 423747691, "lat": 12.9688102, "lon": 77.6021434, "tags": {"addr:city": "Be\u1e45ga\u1e37\u016bru", "addr:neighborhood": "\u015aiv\u0101jinagara", "air_conditioning": "yes", "amenity": "restaurant", "cuisine": "indian;chinese;regional", "diet:vegetarian": "yes", "name": "Kon\u0101rk", "name:kn": "\u0c95\u0cca\u0ca8\u0cbe\u0cb0\u0ccd\u0c95\u0ccd", "phone": "+918041248812"}}, {"type": "node", "id": 428457212, "lat": 12.9697383, "lon": 77.6003775, "tags": {"addr:city": "Bangalore", "addr:country": "IN", "addr:hamlet": "Shanthala Nagar", "addr:housename": "Sophia's Choice", "addr:postcode": "560001", "addr:street": "Saint Mark's Road", "amenity": "cafe", "delivery": "yes", "name": "Old Madras Baking Company", "opening_hours": "08:00-23:00", "operator": "Old Madras Baking Company", "shop": "bakery", "takeaway": "yes"}}, {"type": "node", "id": 428464055, "lat": 12.9538679, "lon": 77.5915759}, {"type": "node", "id": 428845624, "lat": 12.9762256, "lon": 77.6014809, "tags": {"addr:street": "Saint Mark's Road", "amenity": "restaurant", "brand": "Hard Rock Cafe", "brand:wikidata": "Q918151", "check_date": "2025-02-24", "cuisine": "american", "diet:vegetarian": "yes", "name": "Hard Rock Cafe", "name:kn": "\u0cb9\u0cbe\u0cb0\u0ccd\u0ca1\u0ccd \u0cb0\u0cbe\u0c95\u0ccd \u0c95\u0cc6\u0cab\u0cc6", "opening_hours": "Mo-Su 12:00-23:30", "payment:cash": "yes", "payment:credit_cards": "yes", "payment:debit_cards": "yes", "wheelchair": "no"}}, {"type": "node", "id": 428845636, "lat": 12.9772682, "lon": 77.6002223}, {"type": "node", "id": 428851697, "lat": 12.9778503, "lon": 77.5722059, "tags": {"amenity": "restaurant", "cuisine": "South_Indian", "level": "0", "name": "Sri Raghavendra", "name:kn": "\u0cb6\u0ccd\u0cb0\u0cc0 \u0cb0\u0cbe\u0c98\u0cb5\u0cc7\u0c82\u0ca6\u0ccd\u0cb0"}}, {"type": "node", "id": 428858189, "lat": 12.9642026, "lon": 77.5771453}, {"type": "node", "id": 428858190, "lat": 12.9643703, "lon": 77.5773061}, {"type": "node", "id": 428858191, "lat": 12.9643779, "lon": 77.5776458}, {"type": "node", "id": 428858192, "lat": 12.9637586, "lon": 77.5784387}, {"type": "node", "id": 428858193, "lat": 12.9638058, "lon": 77.5781909}, {"type": "node", "id": 428858194, "lat": 12.9640574, "lon": 77.5776067}, {"type": "node", "id": 429697565, "lat": 12.9762752, "lon": 77.5767096, "tags": {"name": "Hotel Hindustan", "name:kn": "\u0cb9\u0cca\u0c9f\u0cc6\u0cb2\u0ccd \u0cb9\u0cbf\u0c82\u0ca6\u0cc1\u0cb8\u0ccd\u0ca5\u0cbe\u0ca8", "tourism": "hotel"}}, {"type": "node", "id": 429697569, "lat": 12.9760075, "lon": 77.5763577, "tags": {"amenity": "restaurant", "name": "Anand Sagar Punjabi Dhaba", "name:kn": "\u0c86\u0ca8\u0c82\u0ca6\u0ccd \u0cb8\u0cbe\u0c97\u0cb0\u0ccd \u0caa\u0c82\u0c9c\u0cbe\u0cac\u0cbf \u0ca1\u0cbe\u0cac\u0cbe"}}, {"type": "node", "id": 429698095, "lat": 12.9769025, "lon": 77.5763491, "tags": {"addr:city": "Gandhi Nagar, Bangalore", "addr:housenumber": "10", "addr:postcode": "560009", "addr:street": "2nd Cross, 6th Main Road", "name": "Hotel Anand Regency", "phone": "+91-80-41139572", "tourism": "hotel"}}, {"type": "node", "id": 429833271, "lat": 12.9550389, "lon": 77.5854279, "tags": {"addr:housenumber": "14", "addr:postcode": "560027", "addr:street": "Lalbagh Road", "alt_name": "MTR", "amenity": "restaurant", "name": "Mavalli Tiffin Rooms", "name:kn": "\u0cae\u0cbe\u0cb5\u0cb3\u0ccd\u0cb3\u0cbf \u0c9f\u0cbf\u0cab\u0cbf\u0ca8\u0ccd \u0cb0\u0cc2\u0cae\u0ccd\u0cb8\u0ccd - \u0c8e\u0c82\u0c9f\u0cbf\u0c86\u0cb0\u0ccd", "opening_hours": "Tu-Su 06:30-11:00, 12:30-21:00", "phone": "+918022220022", "short_name": "MTR", "start_date": "1924", "website": "http://www.mavallitiffinrooms.com", "wheelchair": "no", "wikidata": "Q6794121", "wikimedia_commons": "Category:Mavalli Tiffin Room", "wikipedia": "en:Mavalli Tiffin Room"}}, {"type": "node", "id": 429833272, "lat": 12.95703, "lon": 77.581836}, {"type": "node", "id": 429833274, "lat": 12.956247, "lon": 77.581994}, {"type": "node", "id": 429833275, "lat": 12.9562885, "lon": 77.581776}, {"type": "node", "id": 429833276, "lat": 12.9568793, "lon": 77.5822259}, {"type": "node", "id": 429876582, "lat": 12.9665538, "lon": 77.6141032, "tags": {"addr:housename": "#8", "addr:street": "Victoria Road", "amenity": "restaurant", "level": "0,1", "name": "Hyderbad Biryani House", "name:kn": "\u0cb9\u0cc8\u0ca6\u0cb0\u0cbe\u0cac\u0cbe\u0ca6\u0ccd \u0cac\u0cbf\u0cb0\u0cbf\u0caf\u0cbe\u0ca8\u0cbf \u0cb9\u0ccc\u0cb8\u0ccd"}}, {"type": "node", "id": 430047632, "lat": 12.9876628, "lon": 77.5842338}, {"type": "node", "id": 430047633, "lat": 12.9871849, "lon": 77.5866098}, {"type": "node", "id": 430047634, "lat": 12.9859756, "lon": 77.5885402}, {"type": "node", "id": 432504158, "lat": 12.9860701, "lon": 77.6124282}, {"type": "node", "id": 432504159, "lat": 12.9849269, "lon": 77.6145896}, {"type": "node", "id": 432504200, "lat": 12.9885959, "lon": 77.6171145}, {"type": "node", "id": 432504205, "lat": 12.9903933, "lon": 77.6138661}, {"type": "node", "id": 432504206, "lat": 12.9875563, "lon": 77.6127519}, {"type": "node", "id": 432504207, "lat": 12.9872829, "lon": 77.6130976}, {"type": "node", "id": 435242475, "lat": 12.962855, "lon": 77.575124}, {"type": "node", "id": 435242478, "lat": 12.9627821, "lon": 77.5751766}, {"type": "node", "id": 435245495, "lat": 12.9616771, "lon": 77.5770546}, {"type": "node", "id": 435245496, "lat": 12.96141, "lon": 77.5776405}, {"type": "node", "id": 435245497, "lat": 12.9599544, "lon": 77.5775868}, {"type": "node", "id": 435245498, "lat": 12.9593003, "lon": 77.5766607}, {"type": "node", "id": 435246630, "lat": 12.9575608, "lon": 77.5749555}, {"type": "node", "id": 442972773, "lat": 12.967967, "lon": 77.6116945}, {"type": "node", "id": 442972828, "lat": 12.9671425, "lon": 77.6115235}, {"type": "node", "id": 442972829, "lat": 12.9673442, "lon": 77.6114551}, {"type": "node", "id": 442972830, "lat": 12.9678697, "lon": 77.6118414}, {"type": "node", "id": 442972831, "lat": 12.9679952, "lon": 77.6119917}, {"type": "node", "id": 442972832, "lat": 12.9681974, "lon": 77.6125712}, {"type": "node", "id": 456029893, "lat": 12.9955258, "lon": 77.5717703, "tags": {"amenity": "restaurant", "name": "Hallimane", "name:kn": "\u0cb9\u0cb3\u0ccd\u0cb3\u0cbf\u0cae\u0ca8\u0cc6"}}, {"type": "node", "id": 456029958, "lat": 12.9932258, "lon": 77.5717309, "tags": {"addr:street": "Sampige Road", "name": "Sri Krishna Lodge", "tourism": "hotel"}}, {"type": "node", "id": 456039710, "lat": 12.9934872, "lon": 77.5708719}, {"type": "node", "id": 456039711, "lat": 12.993419, "lon": 77.5696323}, {"type": "node", "id": 456039712, "lat": 12.9965469, "lon": 77.5686143}, {"type": "node", "id": 456039713, "lat": 12.9965279, "lon": 77.569993}, {"type": "node", "id": 456039714, "lat": 12.995708, "lon": 77.5699876}, {"type": "node", "id": 456039715, "lat": 12.9956702, "lon": 77.5708417}, {"type": "node", "id": 456039717, "lat": 12.9923538, "lon": 77.5713854}, {"type": "node", "id": 456204160, "lat": 12.9734132, "lon": 77.5814665}, {"type": "node", "id": 456209036, "lat": 12.9704823, "lon": 77.5844827}, {"type": "node", "id": 456209040, "lat": 12.969032, "lon": 77.5861597}, {"type": "node", "id": 456209041, "lat": 12.9698959, "lon": 77.5870036}, {"type": "node", "id": 456209042, "lat": 12.9716341, "lon": 77.5867497}, {"type": "node", "id": 456209045, "lat": 12.9715663, "lon": 77.5849896}, {"type": "node", "id": 456209046, "lat": 12.9713608, "lon": 77.5852082}, {"type": "node", "id": 456209054, "lat": 12.9726031, "lon": 77.5855842}, {"type": "node", "id": 456214138, "lat": 12.9730205, "lon": 77.5804826, "tags": {"amenity": "bank", "atm": "yes", "brand": "State Bank of India", "brand:wikidata": "Q1340361", "brand:wikipedia": "en:State Bank of India", "name": "State Bank of India", "name:kn": "\u0c8e\u0cb8\u0ccd \u0cac\u0cbf \u0c90", "short_name": "SBI"}}, {"type": "node", "id": 456214157, "lat": 12.9738444, "lon": 77.578582, "tags": {"addr:street": "Kempe Gowda Road", "amenity": "bank", "atm": "yes", "brand": "Bank of India", "brand:wikidata": "Q2004439", "brand:wikipedia": "en:Bank of India", "name": "Bank of India", "name:en": "Bank of India", "short_name": "BoI", "website": "http://www.bankofindia.co.in"}}, {"type": "node", "id": 456214158, "lat": 12.973729, "lon": 77.578957, "tags": {"addr:street": "Kempe Gowda Road", "amenity": "bank", "atm": "yes", "brand": "Indian Bank", "brand:wikidata": "Q2003789", "brand:wikipedia": "en:Indian Bank", "name": "Indian Bank", "name:en": "Indian Bank", "name:kn": "\u0c87\u0c82\u0ca1\u0cbf\u0caf\u0ca8\u0ccd \u0cac\u0ccd\u0caf\u0cbe\u0c82\u0c95\u0ccd", "website": "https://www.indianbank.in/"}}, {"type": "node", "id": 459471357, "lat": 12.954643, "lon": 77.5858156, "tags": {"amenity": "parking"}}, {"type": "node", "id": 459478506, "lat": 12.9685278, "lon": 77.5952876}, {"type": "node", "id": 459478508, "lat": 12.9675378, "lon": 77.5952332}, {"type": "node", "id": 459478509, "lat": 12.967631, "lon": 77.5949668}, {"type": "node", "id": 459481962, "lat": 12.9592109, "lon": 77.5733202}, {"type": "node", "id": 459481964, "lat": 12.9589679, "lon": 77.574138}, {"type": "node", "id": 459492004, "lat": 12.9576086, "lon": 77.5736598}, {"type": "node", "id": 459492006, "lat": 12.9573848, "lon": 77.5728594}, {"type": "node", "id": 459492013, "lat": 12.9519979, "lon": 77.5723143}, {"type": "node", "id": 459492014, "lat": 12.9520403, "lon": 77.5734039}, {"type": "node", "id": 459563996, "lat": 12.9648858, "lon": 77.5923743}, {"type": "node", "id": 459598577, "lat": 12.9643966, "lon": 77.5882598}, {"type": "node", "id": 459598578, "lat": 12.9650712, "lon": 77.5888081}, {"type": "node", "id": 459598594, "lat": 12.9636023, "lon": 77.5891414}, {"type": "node", "id": 459598596, "lat": 12.9649195, "lon": 77.5894902}, {"type": "node", "id": 459598599, "lat": 12.9649804, "lon": 77.5891813}, {"type": "node", "id": 459598602, "lat": 12.9656592, "lon": 77.5893507}, {"type": "node", "id": 459598603, "lat": 12.9657582, "lon": 77.5890808}, {"type": "node", "id": 459656200, "lat": 12.9550327, "lon": 77.5984986}, {"type": "node", "id": 459811932, "lat": 12.9665884, "lon": 77.6088722}, {"type": "node", "id": 459811933, "lat": 12.9658685, "lon": 77.6102281}, {"type": "node", "id": 459811934, "lat": 12.966206, "lon": 77.6105513}, {"type": "node", "id": 459811935, "lat": 12.9668339, "lon": 77.6101183}, {"type": "node", "id": 459811938, "lat": 12.966372, "lon": 77.6077992}, {"type": "node", "id": 459811939, "lat": 12.96657, "lon": 77.6086894}, {"type": "node", "id": 459811940, "lat": 12.9651009, "lon": 77.6097747}, {"type": "node", "id": 459811941, "lat": 12.9647328, "lon": 77.6081007}, {"type": "node", "id": 459811947, "lat": 12.96937, "lon": 77.6025409}, {"type": "node", "id": 459811948, "lat": 12.9707607, "lon": 77.6047268}, {"type": "node", "id": 459811950, "lat": 12.967827, "lon": 77.6056327}, {"type": "node", "id": 459811951, "lat": 12.9669415, "lon": 77.6035298}, {"type": "node", "id": 459811954, "lat": 12.9694218, "lon": 77.6033897, "tags": {"amenity": "school", "isced:level": "2", "name": "Sacred Hearts Girls School", "name:kn": "\u0cb8\u0cc7\u0c95\u0ccd\u0cb0\u0ca1\u0ccd \u0cb9\u0cbe\u0cb0\u0ccd\u0c9f\u0ccd\u0cb8\u0ccd \u0cac\u0cbe\u0cb2\u0c95\u0cbf\u0caf\u0cb0 \u0cb6\u0cbe\u0cb2\u0cc6", "operator": "Department of Education", "school": "primary"}}, {"type": "node", "id": 459811956, "lat": 12.9708093, "lon": 77.6029083}, {"type": "node", "id": 459811957, "lat": 12.9727767, "lon": 77.6032486}, {"type": "node", "id": 459811965, "lat": 12.9698601, "lon": 77.6028311}, {"type": "node", "id": 459811967, "lat": 12.9722487, "lon": 77.6041347}, {"type": "node", "id": 459815964, "lat": 12.9695926, "lon": 77.5982978}, {"type": "node", "id": 459815965, "lat": 12.9686809, "lon": 77.6002821}, {"type": "node", "id": 459815966, "lat": 12.9679397, "lon": 77.5999986}, {"type": "node", "id": 459815968, "lat": 12.9689236, "lon": 77.5995755}, {"type": "node", "id": 459815969, "lat": 12.9699835, "lon": 77.5996518}, {"type": "node", "id": 459815979, "lat": 12.9685229, "lon": 77.5947891}, {"type": "node", "id": 459815980, "lat": 12.9686018, "lon": 77.5952952}, {"type": "node", "id": 459815981, "lat": 12.9712348, "lon": 77.595981}, {"type": "node", "id": 459815982, "lat": 12.9718082, "lon": 77.5945856}, {"type": "node", "id": 459815983, "lat": 12.9710127, "lon": 77.5942657}, {"type": "node", "id": 459815988, "lat": 12.9717341, "lon": 77.5952057}, {"type": "node", "id": 459815990, "lat": 12.972257, "lon": 77.5969489}, {"type": "node", "id": 459815991, "lat": 12.9725942, "lon": 77.5961729}, {"type": "node", "id": 459815992, "lat": 12.9731455, "lon": 77.5963896}, {"type": "node", "id": 459815994, "lat": 12.9730804, "lon": 77.5953278}, {"type": "node", "id": 461755232, "lat": 12.9934167, "lon": 77.5813911}, {"type": "node", "id": 461755234, "lat": 12.992427, "lon": 77.583323}, {"type": "node", "id": 461755237, "lat": 12.9920254, "lon": 77.5804496}, {"type": "node", "id": 461755242, "lat": 12.9911741, "lon": 77.5825028}, {"type": "node", "id": 461755267, "lat": 12.9944553, "lon": 77.5866102}, {"type": "node", "id": 461755270, "lat": 12.9924704, "lon": 77.5885619}, {"type": "node", "id": 461755380, "lat": 12.9873001, "lon": 77.5853586}, {"type": "node", "id": 461755381, "lat": 12.9864443, "lon": 77.5852778}, {"type": "node", "id": 461765522, "lat": 12.9797045, "lon": 77.5890639}, {"type": "node", "id": 461765534, "lat": 12.9815607, "lon": 77.5908644}, {"type": "node", "id": 461789651, "lat": 12.9843087, "lon": 77.5836303}, {"type": "node", "id": 461789658, "lat": 12.9839184, "lon": 77.5854176}, {"type": "node", "id": 469614286, "lat": 12.9870759, "lon": 77.5947417, "tags": {"addr:city": "Bengaluru", "addr:country": "IN", "addr:housename": "Shah Sultan Complex", "addr:housenumber": "17/1", "addr:street": "Cunningham Road", "alt_name": "Dialogues, Infinitea Cunningham Road", "amenity": "cafe", "name": "Infinitea", "operator": "Infinitea"}}, {"type": "node", "id": 491504267, "lat": 12.9880598, "lon": 77.5943063}, {"type": "node", "id": 491504273, "lat": 12.988768, "lon": 77.5949558}, {"type": "node", "id": 493493697, "lat": 12.9531068, "lon": 77.5733686}, {"type": "node", "id": 493493698, "lat": 12.9531386, "lon": 77.5723053}, {"type": "node", "id": 517874453, "lat": 12.9506894, "lon": 77.5786753, "tags": {"amenity": "restaurant"}}, {"type": "node", "id": 517874458, "lat": 12.9505258, "lon": 77.5785913, "tags": {"amenity": "restaurant"}}, {"type": "node", "id": 517874459, "lat": 12.9507057, "lon": 77.5784906, "tags": {"amenity": "restaurant"}}, {"type": "node", "id": 517874464, "lat": 12.9522306, "lon": 77.5897955, "tags": {"amenity": "restaurant"}}, {"type": "node", "id": 525357113, "lat": 12.9990578, "lon": 77.5695202, "tags": {"addr:street": "Margosa Road", "amenity": "bank", "atm": "yes", "brand": "State Bank of India", "brand:wikidata": "Q1340361", "brand:wikipedia": "en:State Bank of India", "name": "State Bank of India", "name:kn": "\u0cad\u0cbe\u0cb0\u0ca4\u0cc0\u0caf \u0cb8\u0ccd\u0c9f\u0cc7\u0c9f\u0ccd \u0cac\u0ccd\u0caf\u0cbe\u0c82\u0c95\u0ccd", "operator": "SBI", "short_name": "SBI"}}, {"type": "node", "id": 561049118, "lat": 12.9932643, "lon": 77.5957899, "tags": {"addr:street": "Thimmaiah Road", "amenity": "restaurant", "name": "Nandhini Andhra Hotel", "name:kn": "\u0ca8\u0c82\u0ca6\u0cbf\u0ca8\u0cbf \u0c86\u0c82\u0ca6\u0ccd\u0cb0 \u0cb9\u0ccb\u0c9f\u0cc6\u0cb2\u0ccd"}}, {"type": "node", "id": 573420981, "lat": 12.9925629, "lon": 77.5949902}, {"type": "node", "id": 573420982, "lat": 12.9919307, "lon": 77.5944482}, {"type": "node", "id": 573420983, "lat": 12.9904139, "lon": 77.5954506}, {"type": "node", "id": 573420984, "lat": 12.9906983, "lon": 77.5961504}, {"type": "node", "id": 573421849, "lat": 12.9930635, "lon": 77.5959522, "tags": {"addr:street": "Thimmaiah Road", "amenity": "restaurant", "name": "Pai Vihar", "name:kn": "\u0caa\u0cc8 \u0cb5\u0cbf\u0cb9\u0cbe\u0cb0\u0ccd"}}, {"type": "node", "id": 576105013, "lat": 12.996974, "lon": 77.5678633, "tags": {"addr:postcode": "560003", "addr:street": "local_knowledge", "amenity": "bank", "atm": "yes", "brand": "ICICI Bank", "brand:wikidata": "Q1653258", "name": "ICICI Bank", "name:kn": "\u0c90\u0cb8\u0cbf\u0c90\u0cb8\u0cbf\u0c90 \u0cac\u0ccd\u0caf\u0cbe\u0c82\u0c95\u0cc1", "operator": "ICICI Bank", "operator:wikidata": "Q1653258", "short_name": "ICICI", "source": "local_knowledge"}}, {"type": "node", "id": 576149885, "lat": 13.0025467, "lon": 77.567449}, {"type": "node", "id": 577020355, "lat": 12.992204, "lon": 77.5739829}, {"type": "node", "id": 577020356, "lat": 12.9916813, "lon": 77.5742324}, {"type": "node", "id": 577020357, "lat": 12.9922772, "lon": 77.5747768}, {"type": "node", "id": 577020358, "lat": 12.9926013, "lon": 77.574294}, {"type": "node", "id": 577020540, "lat": 12.9901236, "lon": 77.5722985, "tags": {"amenity": "restaurant", "name": "Vishnu Sagar", "name:kn": "\u0cb5\u0cbf\u0cb7\u0ccd\u0ca3\u0cc1 \u0cb8\u0cbe\u0c97\u0cb0"}}, {"type": "node", "id": 577027598, "lat": 12.9933312, "lon": 77.57187, "tags": {"addr:street": "Sampige Road", "amenity": "bank", "atm": "yes", "brand": "Corporation Bank", "brand:wikidata": "Q2003387", "brand:wikipedia": "en:Corporation Bank", "name": "Corporation Bank", "name:en": "Corporation Bank", "name:kn": "\u0c95\u0cbe\u0cb0\u0ccd\u0caa\u0cb0\u0cc7\u0cb7\u0ca8\u0ccd \u0cac\u0ccd\u0caf\u0cbe\u0c82\u0c95\u0ccd", "website": "https://corpbank.com/"}}, {"type": "node", "id": 578114640, "lat": 12.9897794, "lon": 77.58002}, {"type": "node", "id": 578114642, "lat": 12.9898657, "lon": 77.5805917}, {"type": "node", "id": 578114655, "lat": 12.9895333, "lon": 77.5814721}, {"type": "node", "id": 578143351, "lat": 12.9838504, "lon": 77.6060501}, {"type": "node", "id": 578143354, "lat": 12.9840783, "lon": 77.6045075}, {"type": "node", "id": 578143356, "lat": 12.9839399, "lon": 77.603692}, {"type": "node", "id": 578143360, "lat": 12.9829684, "lon": 77.6033731}, {"type": "node", "id": 578143367, "lat": 12.9822078, "lon": 77.6035776}, {"type": "node", "id": 594206377, "lat": 12.9571863, "lon": 77.5862334, "tags": {"addr:street": "Lalbagh Road", "amenity": "fuel", "brand": "Indian Oil", "brand:wikidata": "Q1289348", "brand:wikipedia": "en:Indian Oil Corporation", "name": "Indian Oil", "name:kn": "\u0c87\u0c82\u0ca1\u0cbf\u0caf\u0ca8\u0ccd \u0c86\u0caf\u0cbf\u0cb2\u0ccd"}}, {"type": "node", "id": 595411386, "lat": 12.9732444, "lon": 77.6033899, "tags": {"addr:housenumber": "13", "addr:street": "Museum Road", "amenity": "restaurant", "cuisine": "american;burger", "name": "The Only Place", "name:kn": "\u0ca6\u0cbf \u0c92\u0ca8\u0ccd\u0cb2\u0cbf \u0caa\u0ccd\u0cb2\u0cc7\u0cb8\u0ccd", "note": "Previously located where Mota Arcade is currently, on Brigade Road, until the early 2000s", "phone": "+91-80-32718989", "start_date": "1965", "toilets": "yes", "wheelchair": "yes"}}, {"type": "node", "id": 595411387, "lat": 12.9751034, "lon": 77.6028435, "tags": {"addr:housename": "The Museum", "addr:street": "Museum Road", "addr:suburb": "Shanthala Nagar", "amenity": "cafe", "name": "Temple of The Senses"}}, {"type": "node", "id": 596453203, "lat": 12.9756872, "lon": 77.6016983}, {"type": "node", "id": 596453631, "lat": 12.9745397, "lon": 77.6052505, "tags": {"addr:housename": "Brigade Gardens", "addr:street": "Church Street", "amenity": "restaurant", "brand": "Indian Coffee House", "brand:wikidata": "Q3595301", "cuisine": "coffee_shop;indian", "internet_access": "no", "name": "Indian Coffee House"}}, {"type": "node", "id": 598211169, "lat": 13.0016893, "lon": 77.5694475, "tags": {"addr:street": "Margosa Road", "amenity": "bank", "atm": "yes", "brand": "Bank of India", "brand:wikidata": "Q2004439", "brand:wikipedia": "en:Bank of India", "check_date": "2024-05-12", "name": "Bank of India", "name:en": "Bank of India", "operator": "Bank of India", "short_name": "BoI", "website": "http://www.bankofindia.co.in"}}, {"type": "node", "id": 598212615, "lat": 13.0011737, "lon": 77.5683395, "tags": {"amenity": "school", "name": "B. P. Indian"}}, {"type": "node", "id": 616321839, "lat": 13.0019378, "lon": 77.5665159, "tags": {"amenity": "bank", "atm": "yes", "check_date": "2025-07-11", "name": "SVC Bank", "operator": "Shamrao Vittal Cooperative"}}, {"type": "node", "id": 617760063, "lat": 13.0006252, "lon": 77.5652425, "tags": {"addr:city": "Malleswaram, Bangalore", "addr:street": "8th Main", "amenity": "pharmacy", "name": "Pushyamee"}}, {"type": "node", "id": 619348631, "lat": 13.0011328, "lon": 77.5691982, "tags": {"addr:street": "Margosa Road", "amenity": "bank", "brand": "Kotak Mahindra Bank", "brand:wikidata": "Q2040404", "name": "Kotak Mahindra Bank", "name:kn": "\u0c95\u0ccb\u0c9f\u0c95\u0ccd \u0cae\u0cb9\u0cbf\u0c82\u0ca6\u0ccd\u0cb0 \u0cac\u0ccd\u0caf\u0cbe\u0c82\u0c95\u0ccd"}}, {"type": "node", "id": 621310418, "lat": 13.0002063, "lon": 77.5697663, "tags": {"name": "Baker's Hut", "name:kn": "\u0cac\u0cc7\u0c95\u0cb0\u0ccd\u0cb8\u0ccd \u0cb9\u0c9f\u0ccd", "shop": "bakery"}}, {"type": "node", "id": 625856709, "lat": 13.0011275, "lon": 77.5639285, "tags": {"addr:city": "bangalore", "addr:district": "Bengaluru Urban", "addr:full": "71, 11Th Main Road, Opposite Malleshwaram Railway Station, Malleshwaram", "addr:housenumber": "71", "addr:postcode": "560003", "addr:state": "Karnataka", "addr:street": "11th Main Road, Opp Railway Station, Malleswaram", "amenity": "hospital", "name": "Manipal Northside Hospital", "phone": "080 2222 1111", "source": "OpenGovernmentData", "wheelchair": "yes"}}, {"type": "node", "id": 625857657, "lat": 13.0009721, "lon": 77.5640265, "tags": {"amenity": "pharmacy", "name": "Manipal North Side Pharmacy", "wheelchair": "yes"}}, {"type": "node", "id": 638168606, "lat": 12.971852, "lon": 77.5964092, "tags": {"addr:city": "Bangalore", "addr:country": "IN", "addr:hamlet": "UB City", "addr:housename": "Comet", "addr:postcode": "560001", "addr:street": "Vittal Mallaya Road", "amenity": "restaurant", "check_date": "2024-08-19", "contact:instagram": "experienceshiro", "cuisine": "asian", "level": "3", "name": "Shiro", "name:kn": "\u0cb6\u0cbf\u0cb0\u0cca"}}, {"type": "node", "id": 644420166, "lat": 12.9600242, "lon": 77.6015444, "tags": {"amenity": "restaurant", "name": "Sandhya Sagar", "name:kn": "\u0cb8\u0c82\u0ca7\u0ccd\u0caf\u0cbe \u0cb8\u0cbe\u0c97\u0cb0\u0ccd"}}, {"type": "node", "id": 646739373, "lat": 12.9601639, "lon": 77.5945806, "tags": {"addr:street": "Shanti Road", "amenity": "restaurant", "name": "Utsav", "name:kn": "\u0c89\u0ca4\u0ccd\u0cb8\u0cb5\u0ccd"}}, {"type": "node", "id": 650621057, "lat": 12.994359, "lon": 77.5711764, "tags": {"addr:street": "Sampige Road", "amenity": "restaurant", "name": "Rasa", "name:kn": "\u0cb0\u0cb8"}}, {"type": "node", "id": 660666066, "lat": 12.991491, "lon": 77.5941489, "tags": {"addr:street": "Millers Road", "amenity": "restaurant", "cuisine": "american", "name": "Miller's 46", "name:kn": "\u0cae\u0cbf\u0cb2\u0ccd\u0cb2\u0cb0\u0ccd\u0cb8\u0ccd \u0cea\u0cec"}}, {"type": "node", "id": 661983020, "lat": 12.9720317, "lon": 77.6009309, "tags": {"addr:street": "Saint Mark's Road", "amenity": "cafe", "name": "Juice Junction", "shop": "beverages"}}, {"type": "node", "id": 661983026, "lat": 12.9824733, "lon": 77.5941263}, {"type": "node", "id": 661983027, "lat": 12.9825244, "lon": 77.5944641}, {"type": "node", "id": 661983028, "lat": 12.9821111, "lon": 77.5945094}, {"type": "node", "id": 661983029, "lat": 12.9827213, "lon": 77.5947439}, {"type": "node", "id": 661983030, "lat": 12.9828455, "lon": 77.5944035}, {"type": "node", "id": 661983031, "lat": 12.9819402, "lon": 77.5955017, "tags": {"addr:city": "Bangalore", "addr:postcode": "560001", "addr:street": "Raj Bhavan Road", "amenity": "bank", "atm": "yes", "brand": "State Bank of India", "brand:wikidata": "Q1340361", "brand:wikipedia": "en:State Bank of India", "name": "State Bank of India", "name:kn": "\u0cad\u0cbe\u0cb0\u0ca4\u0cc0\u0caf \u0cb8\u0ccd\u0c9f\u0cc7\u0c9f\u0ccd \u0cac\u0ccd\u0caf\u0cbe\u0c82\u0c95\u0ccd", "short_name": "SBI", "website": "https://www.sbi.co.in"}}, {"type": "node", "id": 661983038, "lat": 12.9751155, "lon": 77.6014152, "tags": {"addr:street": "Saint Mark's Road", "amenity": "cafe", "name": "Bowring Stall"}}, {"type": "node", "id": 661983042, "lat": 12.9762175, "lon": 77.5993135, "tags": {"amenity": "bank", "atm": "yes", "brand": "Kotak Mahindra Bank", "brand:wikidata": "Q2040404", "brand:wikipedia": "en:Kotak Mahindra Bank", "name": "Kotak Mahindra Bank", "name:en": "Kotak Mahindra Bank", "name:kn": "\u0c95\u0ccb\u0c9f\u0c95\u0ccd \u0cae\u0cb9\u0cbf\u0c82\u0ca6\u0ccd\u0cb0 \u0cac\u0ccd\u0caf\u0cbe\u0c82\u0c95\u0ccd", "website": "http://www.kotak.com"}}, {"type": "node", "id": 661983048, "lat": 12.9885568, "lon": 77.5923112, "tags": {"amenity": "bank", "brand": "Canara Bank", "brand:en": "Canara Bank", "brand:hi": "\u0915\u0947\u0928\u0930\u093e \u092c\u0948\u0902\u0915", "brand:kn": "\u0c95\u0cc6\u0ca8\u0cb0\u0cbe \u0cac\u0ccd\u0caf\u0cbe\u0c82\u0c95\u0ccd", "brand:pa": "\u0a15\u0a47\u0a28\u0a30\u0a3e \u0a2c\u0a48\u0a02\u0a15", "brand:pnb": "\u06a9\u06cc\u0646\u0631\u0627 \u0628\u06cc\u0646\u06a9", "brand:ur": "\u06a9\u06cc\u0646\u0631\u0627 \u0628\u06cc\u0646\u06a9", "brand:wikidata": "Q2003777", "name": "Canara Bank", "name:en": "Canara Bank", "name:hi": "\u0915\u0947\u0928\u0930\u093e \u092c\u0948\u0902\u0915", "name:kn": "\u0c95\u0cc6\u0ca8\u0cb0\u0cbe \u0cac\u0ccd\u0caf\u0cbe\u0c82\u0c95\u0ccd", "name:pa": "\u0a15\u0a47\u0a28\u0a30\u0a3e \u0a2c\u0a48\u0a02\u0a15", "name:pnb": "\u06a9\u06cc\u0646\u0631\u0627 \u0628\u06cc\u0646\u06a9", "name:ur": "\u06a9\u06cc\u0646\u0631\u0627 \u0628\u06cc\u0646\u06a9"}}, {"type": "node", "id": 661983050, "lat": 12.9871688, "lon": 77.5946714, "tags": {"addr:city": "Bengaluru", "addr:country": "IN", "addr:housename": "Shah Sultan Complex", "addr:housenumber": "17/1", "addr:street": "Cunningham Road", "amenity": "restaurant", "name": "Shezan Restaurant", "name:kn": "\u0cb6\u0cc6\u0cb8\u0cbe\u0ca8\u0ccd \u0cb0\u0cc6\u0cb8\u0ccd\u0c9f\u0ccb\u0cb0\u0c82\u0c9f\u0ccd"}}, {"type": "node", "id": 661983059, "lat": 12.9888226, "lon": 77.592415, "tags": {"amenity": "bank", "atm": "yes", "brand": "HDFC Bank", "brand:wikidata": "Q631047", "brand:wikipedia": "en:HDFC Bank", "name": "HDFC Bank", "name:kn": "\u0c8e\u0c9a\u0ccd \u0ca1\u0cbf \u0c8e\u0cab\u0ccd \u0cb8\u0cbf", "short_name": "HDFC", "website": "https://www.hdfcbank.com"}}, {"type": "node", "id": 661983062, "lat": 12.9887039, "lon": 77.5939333, "tags": {"addr:street": "Cunningham Road", "amenity": "restaurant", "cuisine": "indian", "name": "Ramana's", "name:kn": "\u0cb0\u0cae\u0ca3"}}, {"type": "node", "id": 663309915, "lat": 12.9744265, "lon": 77.5909682, "tags": {"amenity": "parking"}}, {"type": "node", "id": 663309985, "lat": 12.9751703, "lon": 77.5954424}, {"type": "node", "id": 663313913, "lat": 12.9758396, "lon": 77.5985677, "tags": {"addr:street": "Kasturba Road", "amenity": "fuel", "brand": "Bharat Petroleum", "brand:wikidata": "Q854826", "compressed_air": "yes", "name": "Bharat Petroleum", "name:kn": "\u0cad\u0cbe\u0cb0\u0ca4\u0ccd \u0caa\u0cc6\u0c9f\u0ccd\u0cb0\u0ccb\u0cb2\u0cbf\u0caf\u0c82"}}, {"type": "node", "id": 663317713, "lat": 12.9681567, "lon": 77.5876645, "tags": {"amenity": "bank", "brand": "Canara Bank", "brand:en": "Canara Bank", "brand:hi": "\u0915\u0947\u0928\u0930\u093e \u092c\u0948\u0902\u0915", "brand:kn": "\u0c95\u0cc6\u0ca8\u0cb0\u0cbe \u0cac\u0ccd\u0caf\u0cbe\u0c82\u0c95\u0ccd", "brand:pa": "\u0a15\u0a47\u0a28\u0a30\u0a3e \u0a2c\u0a48\u0a02\u0a15", "brand:pnb": "\u06a9\u06cc\u0646\u0631\u0627 \u0628\u06cc\u0646\u06a9", "brand:ur": "\u06a9\u06cc\u0646\u0631\u0627 \u0628\u06cc\u0646\u06a9", "brand:wikidata": "Q2003777", "brand:wikipedia": "en:Canara Bank", "brand:wikipedia:pa": "\u0a15\u0a47\u0a28\u0a30\u0a3e \u0a2c\u0a48\u0a02\u0a15", "check_date": "2024-03-02", "name": "Canara Bank", "name:en": "Canara Bank", "name:hi": "\u0915\u0947\u0928\u0930\u093e \u092c\u0948\u0902\u0915", "name:kn": "\u0c95\u0cc6\u0ca8\u0cb0\u0cbe \u0cac\u0ccd\u0caf\u0cbe\u0c82\u0c95\u0ccd", "name:pa": "\u0a15\u0a47\u0a28\u0a30\u0a3e \u0a2c\u0a48\u0a02\u0a15", "name:pnb": "\u06a9\u06cc\u0646\u0631\u0627 \u0628\u06cc\u0646\u06a9", "name:ur": "\u06a9\u06cc\u0646\u0631\u0627 \u0628\u06cc\u0646\u06a9", "website": "https://www.canarabank.com/"}}, {"type": "node", "id": 663317714, "lat": 12.9681499, "lon": 77.5880527, "tags": {"amenity": "bank", "brand": "State Bank of India", "brand:wikidata": "Q1340361", "brand:wikipedia": "en:State Bank of India", "name": "State Bank of India", "name:kn": "\u0c8e\u0cb8\u0ccd \u0cac\u0cbf \u0c90", "short_name": "SBI", "website": "https://www.sbi.co.in"}}, {"type": "node", "id": 663317758, "lat": 12.9704007, "lon": 77.5874248, "tags": {"addr:city": "Bengaluru", "addr:postcode": "560001", "addr:street": "Nrupathunga Road", "amenity": "restaurant", "cuisine": "regional", "name": "Nisarga", "name:kn": "\u0ca8\u0cbf\u0cb8\u0cb0\u0ccd\u0c97"}}, {"type": "node", "id": 663551413, "lat": 12.9753023, "lon": 77.5955877}, {"type": "node", "id": 663564916, "lat": 12.9798237, "lon": 77.5942043}, {"type": "node", "id": 663568572, "lat": 12.9717817, "lon": 77.5942306, "tags": {"addr:city": "Bangalore", "addr:street": "Lavelle Road", "amenity": "cafe", "branch": "Square", "brand": "Cafe Coffee Day", "brand:wikidata": "Q5017235", "check_date": "2024-08-19", "cuisine": "coffee_shop", "indoor_seating": "yes", "internet_access": "wlan", "name": "Cafe Coffee Day", "name:kn": "\u0c95\u0cab\u0cc6 \u0c95\u0cbe\u0cab\u0cbf \u0ca1\u0cc7", "outdoor_seating": "yes", "takeaway": "yes", "wheelchair": "limited"}}, {"type": "node", "id": 663568577, "lat": 12.9734198, "lon": 77.5956885}, {"type": "node", "id": 663568578, "lat": 12.9732385, "lon": 77.5954929}, {"type": "node", "id": 663568589, "lat": 12.9735669, "lon": 77.5954642}, {"type": "node", "id": 663573129, "lat": 12.9734846, "lon": 77.595368}, {"type": "node", "id": 663573132, "lat": 12.9712726, "lon": 77.5963037}, {"type": "node", "id": 663573140, "lat": 12.9751175, "lon": 77.5976204, "tags": {"addr:street": "Kasturba Road", "amenity": "bank", "brand": "Dhanlaxmi Bank", "brand:wikidata": "Q2040440", "name": "Dhanlaxmi Bank"}}, {"type": "node", "id": 663592923, "lat": 12.9774465, "lon": 77.5931317, "tags": {"access": "private", "barrier": "gate"}}, {"type": "node", "id": 663592924, "lat": 12.9752226, "lon": 77.5955056, "tags": {"barrier": "gate", "name": "Gate 4: Corporation Circle"}}, {"type": "node", "id": 663592955, "lat": 12.9756522, "lon": 77.597345, "tags": {"addr:city": "Bangalore", "addr:street": "Kasturba Road", "amenity": "bank", "brand": "Yes Bank", "brand:wikidata": "Q2040394", "brand:wikipedia": "en:Yes Bank", "name": "Yes Bank", "name:en": "YES Bank", "name:kn": "\u0caf\u0cb8\u0ccd \u0cac\u0ccd\u0caf\u0cbe\u0c82\u0c95\u0ccd", "website": "https://www.yesbank.in"}}, {"type": "node", "id": 663592970, "lat": 12.9767879, "lon": 77.6002111}, {"type": "node", "id": 663596614, "lat": 12.9842446, "lon": 77.599777}, {"type": "node", "id": 663596615, "lat": 12.9831904, "lon": 77.6002669}, {"type": "node", "id": 663599410, "lat": 12.9723026, "lon": 77.5863596, "tags": {"amenity": "bank", "brand": "Corporation Bank", "brand:wikidata": "Q2003387", "brand:wikipedia": "en:Corporation Bank", "name": "Corporation Bank", "name:en": "Corporation Bank", "name:kn": "\u0c95\u0cbe\u0cb0\u0ccd\u0caa\u0cb0\u0cc7\u0cb7\u0ca8\u0ccd \u0cac\u0ccd\u0caf\u0cbe\u0c82\u0c95\u0ccd", "website": "https://corpbank.com/"}}, {"type": "node", "id": 663604695, "lat": 12.9921674, "lon": 77.5683888, "tags": {"amenity": "school", "name": "Deccan school", "ups_school": "school", "wheelchair": "no"}}, {"type": "node", "id": 663604698, "lat": 12.991587, "lon": 77.5684205, "tags": {"amenity": "school", "name": "Anganavadi", "name:kn": "\u0c85\u0c82\u0c97\u0ca8\u0cb5\u0cbe\u0ca1\u0cbf", "ups_school": "school", "wheelchair": "no"}}, {"type": "node", "id": 663604714, "lat": 12.9499206, "lon": 77.6151518, "tags": {"amenity": "school", "name": "Adithya public school", "ups_school": "school"}}, {"type": "node", "id": 663604723, "lat": 12.9503234, "lon": 77.6162619, "tags": {"amenity": "hospital", "healthcare": "hospital", "name": "Government Primary Health Centre", "name:kn": "\u0cb8\u0cb0\u0ccd\u0c95\u0cbe\u0cb0\u0cbf \u0caa\u0ccd\u0cb0\u0cbe\u0ca5\u0cae\u0cbf\u0c95 \u0c86\u0cb0\u0ccb\u0c97\u0ccd\u0caf \u0c95\u0cc7\u0c82\u0ca6\u0ccd\u0cb0", "ups_hospital": "hospital"}}, {"type": "node", "id": 663683086, "lat": 12.9822391, "lon": 77.594459, "tags": {"addr:city": "Bangalore", "addr:postcode": "560001", "addr:street": "Raj Bhavan Road", "name": "The Capitol", "tourism": "hotel"}}, {"type": "node", "id": 663941094, "lat": 12.9744568, "lon": 77.5956588, "tags": {"amenity": "parking", "parking": "surface"}}, {"type": "node", "id": 663941126, "lat": 12.9784523, "lon": 77.5938901}, {"type": "node", "id": 663941464, "lat": 12.9803653, "lon": 77.5950694, "tags": {"amenity": "restaurant", "diet:vegetarian": "only", "name": "Canteen", "name:kn": "\u0c95\u0ccd\u0caf\u0cbe\u0c82\u0c9f\u0cc0\u0ca8\u0ccd"}}, {"type": "node", "id": 665045222, "lat": 12.9758502, "lon": 77.5891031, "tags": {"amenity": "restaurant", "name": "Parkview Hotel", "name:kn": "\u0caa\u0cbe\u0cb0\u0ccd\u0c95\u0ccd\u200c\u0cb5\u0cc0\u0cb5\u0ccd \u0cb9\u0ccb\u0c9f\u0cc6\u0cb2\u0ccd"}}, {"type": "node", "id": 665062603, "lat": 12.9672384, "lon": 77.5872563}, {"type": "node", "id": 665062607, "lat": 12.967482, "lon": 77.5872563}, {"type": "node", "id": 665062608, "lat": 12.9672916, "lon": 77.5871862}, {"type": "node", "id": 665065745, "lat": 12.9747324, "lon": 77.5911141}, {"type": "node", "id": 665065746, "lat": 12.9748233, "lon": 77.5912012}, {"type": "node", "id": 665065747, "lat": 12.9748356, "lon": 77.5910155}, {"type": "node", "id": 665065748, "lat": 12.9749239, "lon": 77.5914074}, {"type": "node", "id": 665065749, "lat": 12.9750652, "lon": 77.5915267}, {"type": "node", "id": 665065750, "lat": 12.9750739, "lon": 77.591466}, {"type": "node", "id": 665065751, "lat": 12.9749691, "lon": 77.5913547}, {"type": "node", "id": 665065752, "lat": 12.9748698, "lon": 77.5911685}, {"type": "node", "id": 665065753, "lat": 12.9752436, "lon": 77.5915575}, {"type": "node", "id": 665065754, "lat": 12.9754053, "lon": 77.5915989}, {"type": "node", "id": 665065755, "lat": 12.9752407, "lon": 77.5916366}, {"type": "node", "id": 665065756, "lat": 12.9754298, "lon": 77.591674}, {"type": "node", "id": 665065757, "lat": 12.9757899, "lon": 77.591522}, {"type": "node", "id": 665065758, "lat": 12.9756295, "lon": 77.5915876}, {"type": "node", "id": 665065759, "lat": 12.9759426, "lon": 77.5914401}, {"type": "node", "id": 665065760, "lat": 12.9756258, "lon": 77.5916646}, {"type": "node", "id": 665065761, "lat": 12.9757785, "lon": 77.5916389}, {"type": "node", "id": 665065762, "lat": 12.9770537, "lon": 77.5984375}, {"type": "node", "id": 665065763, "lat": 12.9769978, "lon": 77.5983091}, {"type": "node", "id": 665065764, "lat": 12.9801246, "lon": 77.5970306}, {"type": "node", "id": 665065765, "lat": 12.9800687, "lon": 77.5969022}, {"type": "node", "id": 665068826, "lat": 12.9796632, "lon": 77.5865917}, {"type": "node", "id": 665068841, "lat": 12.9800375, "lon": 77.5864001}, {"type": "node", "id": 665072891, "lat": 12.9754674, "lon": 77.6012132}, {"type": "node", "id": 665072892, "lat": 12.9750549, "lon": 77.6011504}, {"type": "node", "id": 665072895, "lat": 12.9749991, "lon": 77.6014297}, {"type": "node", "id": 665871268, "lat": 12.9671651, "lon": 77.580199, "tags": {"amenity": "restaurant", "cuisine": "indian", "diet:vegetarian": "yes", "name": "Chatpat", "name:kn": "\u0c9a\u0c9f\u0ccd\u0caa\u0c9f\u0ccd"}}, {"type": "node", "id": 665871269, "lat": 12.9697027, "lon": 77.5796625, "tags": {"amenity": "cafe", "name": "Cane Crush"}}, {"type": "node", "id": 665871272, "lat": 12.9742892, "lon": 77.5778952, "tags": {"addr:street": "Kempe Gowda Road", "amenity": "cafe", "name": "Sri Vinayaka Juice & Chats Center"}}, {"type": "node", "id": 665871273, "lat": 12.9703805, "lon": 77.5800395, "tags": {"amenity": "restaurant", "cuisine": "indian", "name": "Hotel Madhuvan", "name:kn": "\u0cae\u0ca7\u0cc1\u0cb5\u0ca8"}}, {"type": "node", "id": 665871279, "lat": 12.9798386, "lon": 77.6027906, "tags": {"amenity": "restaurant", "cuisine": "indian", "name": "Hotel Empire", "name:kn": "\u0cb9\u0ccb\u0c9f\u0cc6\u0cb2\u0ccd \u0c8e\u0c82\u0caa\u0cc8\u0cb0\u0ccd"}}, {"type": "node", "id": 665871282, "lat": 12.9847344, "lon": 77.5971261, "tags": {"addr:street": "Cunningham Road", "amenity": "restaurant", "cuisine": "regional", "diet:vegetarian": "yes", "name": "Sanman Veg"}}, {"type": "node", "id": 665871289, "lat": 12.9857313, "lon": 77.595832, "tags": {"addr:street": "Cunningham Road", "amenity": "cafe", "brand": "Sweet Chariot", "delivery": "yes", "name": "Sweet Chariot", "shop": "pastry", "takeaway": "yes"}}, {"type": "node", "id": 665871291, "lat": 12.98693, "lon": 77.5951971, "tags": {"addr:street": "Cunningham Road", "amenity": "bank", "atm": "yes", "brand": "Canara Bank", "brand:en": "Canara Bank", "brand:hi": "\u0915\u0947\u0928\u0930\u093e \u092c\u0948\u0902\u0915", "brand:kn": "\u0c95\u0cc6\u0ca8\u0cb0\u0cbe \u0cac\u0ccd\u0caf\u0cbe\u0c82\u0c95\u0ccd", "brand:pa": "\u0a15\u0a47\u0a28\u0a30\u0a3e \u0a2c\u0a48\u0a02\u0a15", "brand:pnb": "\u06a9\u06cc\u0646\u0631\u0627 \u0628\u06cc\u0646\u06a9", "brand:ur": "\u06a9\u06cc\u0646\u0631\u0627 \u0628\u06cc\u0646\u06a9", "brand:wikidata": "Q2003777", "brand:wikipedia": "en:Canara Bank", "brand:wikipedia:pa": "\u0a15\u0a47\u0a28\u0a30\u0a3e \u0a2c\u0a48\u0a02\u0a15", "name": "Canara Bank", "name:en": "Canara Bank", "name:hi": "\u0915\u0947\u0928\u0930\u093e \u092c\u0948\u0902\u0915", "name:kn": "\u0c95\u0cc6\u0ca8\u0cb0\u0cbe \u0cac\u0ccd\u0caf\u0cbe\u0c82\u0c95\u0ccd", "name:pa": "\u0a15\u0a47\u0a28\u0a30\u0a3e \u0a2c\u0a48\u0a02\u0a15", "name:pnb": "\u06a9\u06cc\u0646\u0631\u0627 \u0628\u06cc\u0646\u06a9", "name:ur": "\u06a9\u06cc\u0646\u0631\u0627 \u0628\u06cc\u0646\u06a9", "website": "https://www.canarabank.com/"}}, {"type": "node", "id": 665871294, "lat": 12.9965785, "lon": 77.6045552, "tags": {"addr:street": "Benson Cross Road", "amenity": "pharmacy", "healthcare": "pharmacy", "name": "S. S. Pharma"}}, {"type": "node", "id": 665871296, "lat": 12.9967968, "lon": 77.6045046, "tags": {"addr:street": "Benson Cross Road", "name": "Family Super Market", "phone": "+91-80-23634305;+91-80-23430462", "shop": "supermarket"}}, {"type": "node", "id": 665871301, "lat": 12.9993627, "lon": 77.6008367, "tags": {"addr:street": "Benson Cross Road", "amenity": "bank", "atm": "yes", "brand": "Indian Bank", "brand:wikidata": "Q2003789", "brand:wikipedia": "en:Indian Bank", "name": "Indian Bank", "name:en": "Indian Bank", "name:kn": "\u0c87\u0c82\u0ca1\u0cbf\u0caf\u0ca8\u0ccd \u0cac\u0ccd\u0caf\u0cbe\u0c82\u0c95\u0ccd", "website": "https://www.indianbank.in/"}}, {"type": "node", "id": 665871310, "lat": 12.9998077, "lon": 77.5996733, "tags": {"addr:street": "Nandi Durg Road", "brand": "More", "brand:wikidata": "Q6910891", "name": "More", "name:kn": "\u0cae\u0ccb\u0cb0\u0ccd", "shop": "supermarket"}}, {"type": "node", "id": 665871311, "lat": 12.9969644, "lon": 77.6041292, "tags": {"addr:street": "Benson Cross Road", "name": "Arafa Stores", "shop": "supermarket"}}, {"type": "node", "id": 667751121, "lat": 13.0009809, "lon": 77.6138953, "tags": {"addr:city": "Bangalore", "addr:postcode": "560005", "addr:street": "Madhavaraya Mudaliar Road", "name": "Namdhari Fresh, Frazer Town", "name:kn": "\u0ca8\u0cbe\u0cae\u0ca7\u0cbe\u0cb0\u0cbf \u0cab\u0ccd\u0cb0\u0cc6\u0cb6\u0ccd", "operator": "Namdhari Fresh", "organic": "yes", "shop": "supermarket", "website": "https://www.namdharifresh.com/"}}, {"type": "node", "id": 673377213, "lat": 12.9853914, "lon": 77.5795059, "tags": {"amenity": "restaurant", "cuisine": "indian", "name": "Sana Di Ge", "name:kn": "\u0cb8\u0ca8 \u0ca6\u0cbf \u0c97\u0cc6"}}, {"type": "node", "id": 673972546, "lat": 12.9725957, "lon": 77.6014536}, {"type": "node", "id": 673972548, "lat": 12.9722012, "lon": 77.6014366}, {"type": "node", "id": 673972551, "lat": 12.9721817, "lon": 77.6019127}, {"type": "node", "id": 673972553, "lat": 12.9726617, "lon": 77.6019334}, {"type": "node", "id": 673972601, "lat": 12.9719145, "lon": 77.6042929}, {"type": "node", "id": 673974005, "lat": 12.9698427, "lon": 77.6112514}, {"type": "node", "id": 673974008, "lat": 12.9701015, "lon": 77.6105053}, {"type": "node", "id": 677286826, "lat": 12.9736525, "lon": 77.5801953, "tags": {"addr:street": "Kempe Gowda Road", "amenity": "cafe", "name": "Coffee Day", "name:kn": "\u0c95\u0cab\u0cc6 \u0c95\u0cbe\u0cab\u0cbf \u0ca1\u0cc7"}}, {"type": "node", "id": 677286835, "lat": 12.9715474, "lon": 77.5969211}, {"type": "node", "id": 677286839, "lat": 12.9706824, "lon": 77.599609, "tags": {"addr:city": "Bangalore", "addr:street": "Lavelle Road", "amenity": "bank", "atm": "yes", "brand": "ICICI Bank", "brand:wikidata": "Q1653258", "name": "ICICI Bank", "name:en": "ICICI Bank", "name:kn": "\u0c90\u0cb8\u0cbf\u0c90\u0cb8\u0cbf\u0c90 \u0cac\u0ccd\u0caf\u0cbe\u0c82\u0c95\u0cc1", "short_name": "ICICI", "website": "https://www.icicibank.com"}}, {"type": "node", "id": 677286841, "lat": 12.9708631, "lon": 77.6010396, "tags": {"amenity": "bank", "atm": "yes", "branch": "Cantonment", "brand": "Bank of India", "brand:wikidata": "Q2004439", "brand:wikipedia": "en:Bank of India", "name": "Bank of India", "name:en": "Bank of India", "operator": "Bank of India", "short_name": "BoI", "website": "http://www.bankofindia.co.in"}}, {"type": "node", "id": 677286843, "lat": 12.9711937, "lon": 77.6007788, "tags": {"addr:city": "Bangalore", "addr:street": "Saint Mark's Road", "amenity": "restaurant", "cuisine": "indian", "diet:vegetarian": "only", "name": "Amruth Vegetarian Restaurant", "name:kn": "\u0c85\u0cae\u0cc3\u0ca4\u0ccd \u0cb5\u0cc6\u0c9c\u0cbf\u0c9f\u0cc7\u0cb0\u0cbf\u0caf\u0ca8\u0ccd \u0cb0\u0cc6\u0cb8\u0ccd\u0c9f\u0ccb\u0cb0\u0cc6\u0c82\u0c9f\u0ccd"}}, {"type": "node", "id": 677288910, "lat": 12.982738, "lon": 77.6030551, "tags": {"amenity": "restaurant", "cuisine": "indian", "name": "Hotel Vinitha", "name:kn": "\u0cb9\u0ccb\u0c9f\u0cc6\u0cb2\u0ccd \u0cb5\u0cbf\u0ca8\u0cbf\u0ca4"}}, {"type": "node", "id": 679886725, "lat": 12.9649071, "lon": 77.5681542}, {"type": "node", "id": 679886735, "lat": 12.9622492, "lon": 77.5704823}, {"type": "node", "id": 679886746, "lat": 12.9631426, "lon": 77.5697672}, {"type": "node", "id": 679886767, "lat": 12.9635035, "lon": 77.5674932}, {"type": "node", "id": 679886770, "lat": 12.9633728, "lon": 77.5698175}, {"type": "node", "id": 679886785, "lat": 12.9647552, "lon": 77.5672137}, {"type": "node", "id": 679886794, "lat": 12.9632468, "lon": 77.5704474}, {"type": "node", "id": 679886814, "lat": 12.9639958, "lon": 77.5681757}, {"type": "node", "id": 679886818, "lat": 12.9623283, "lon": 77.5692496}, {"type": "node", "id": 679886851, "lat": 12.9633987, "lon": 77.5673373}, {"type": "node", "id": 679886893, "lat": 12.9637968, "lon": 77.5680521}, {"type": "node", "id": 679886902, "lat": 12.9634303, "lon": 77.569618}, {"type": "node", "id": 680004360, "lat": 12.9802166, "lon": 77.56574}, {"type": "node", "id": 680004373, "lat": 12.9794404, "lon": 77.564481}, {"type": "node", "id": 680004411, "lat": 12.9815242, "lon": 77.5681309}, {"type": "node", "id": 680004435, "lat": 12.9793627, "lon": 77.5656525}, {"type": "node", "id": 680004448, "lat": 12.9806563, "lon": 77.5671737}, {"type": "node", "id": 680004456, "lat": 12.9815783, "lon": 77.5672861}, {"type": "node", "id": 680004477, "lat": 12.9802981, "lon": 77.5645109}, {"type": "node", "id": 680004502, "lat": 12.9805967, "lon": 77.5678376}, {"type": "node", "id": 680020366, "lat": 12.9772698, "lon": 77.570304, "tags": {"addr:street": "Gubbi Thotadappa Road", "amenity": "restaurant", "name": "Hare Krishna Pure Veg Restaurant"}}, {"type": "node", "id": 680020369, "lat": 12.9772479, "lon": 77.5704213, "tags": {"amenity": "restaurant", "name": "Balaji Restaurant"}}, {"type": "node", "id": 683352694, "lat": 12.9734503, "lon": 77.5751186, "tags": {"addr:street": "Balepet Road", "amenity": "cafe", "name": "Fresh Cane"}}, {"type": "node", "id": 762086048, "lat": 12.9893411, "lon": 77.5929583, "tags": {"amenity": "restaurant", "cuisine": "indian", "name": "A Masala House", "name:kn": "\u0c85 \u0cae\u0cb8\u0cb2\u0cbe \u0cb9\u0ccc\u0cb8\u0ccd"}}, {"type": "node", "id": 859809191, "lat": 13.0016772, "lon": 77.6138117, "tags": {"amenity": "school", "name": "Naasih Montessori Public School"}}, {"type": "node", "id": 861183324, "lat": 12.9753625, "lon": 77.6051643, "tags": {"addr:housenumber": "84 (13th Floor, Barton Center)", "addr:street": "M G Road", "amenity": "restaurant", "cuisine": "indian", "name": "Ebony", "name:kn": "\u0c8e\u0cac\u0cca\u0ca8\u0cbf", "phone": "+91-80-25589333;+91-80-51783344;+91-80-25588697"}}, {"type": "node", "id": 1005525039, "lat": 12.980445, "lon": 77.604525, "tags": {"addr:city": "Bangalore", "addr:housenumber": "66", "addr:postcode": "560001", "addr:street": "Infantry Road", "email": "enquiry@theinfantryhotel.com", "fax": "+918025592276", "internet_access": "yes", "internet_access:fee": "yes", "name": "The Infantry Hotel", "phone": "+918025591800", "tourism": "hotel", "website": "http://www.hotelinfantrycourt.com"}}, {"type": "node", "id": 1005544881, "lat": 12.9815051, "lon": 77.6011944, "tags": {"addr:city": "Bangalore", "addr:housenumber": "55", "addr:postcode": "560001", "addr:street": "Infantry Road", "amenity": "hospital", "email": "bengaluru@medinovaindia.com", "fax": "+918022867244", "name": "Mallya Audikesh Diagnostics Center", "phone": "+918022868423", "website": "http://www.medinovaindia.com"}}, {"type": "node", "id": 1006462322, "lat": 12.980921, "lon": 77.576491, "tags": {"addr:city": "Gandhi Nagar, Bangalore", "addr:housenumber": "22/4", "addr:postcode": "560009", "addr:street": "Race Course Road", "email": "reservations@hotelmaurya.com", "fax": "+91-80-22256685", "name": "Hotel Maurya", "phone": "+91-80-22254111", "tourism": "hotel", "website": "https://www.hotelmaurya.com/"}}, {"type": "node", "id": 1006462329, "lat": 12.9839472, "lon": 77.5780127}, {"type": "node", "id": 1006462338, "lat": 12.985247, "lon": 77.5803846, "tags": {"addr:city": "Bangalore", "addr:housenumber": "31/32", "addr:postcode": "560001", "addr:street": "Crescent Rd,Nehru Nagar,Gandhi Nagar", "amenity": "hospital", "name": "Mallige Medical Centre", "phone": "080 2220 3333", "website": "https://www.mallige.com/"}}, {"type": "node", "id": 1006492448, "lat": 12.989096, "lon": 77.572253, "tags": {"addr:city": "Seshadripuram, Bangalore", "addr:housenumber": "1", "addr:postcode": "560020", "addr:street": "Railway Platform Road", "name": "Hotel Swathi", "name:kn": "\u0cb8\u0ccd\u0cb5\u0ca4\u0cbf", "phone": "+91-80-23561123", "tourism": "hotel"}}, {"type": "node", "id": 1026441566, "lat": 12.9850452, "lon": 77.579248, "tags": {"addr:city": "Bangalore", "addr:housenumber": "2A-2B", "addr:postcode": "560001", "addr:street": "Crescent Road, High Ground", "email": "reservation@nalapadhotels.net", "internet_access": "yes", "internet_access:fee": "yes", "name": "Nalapad's Hotel Bangalore International", "smoking": "dedicated", "stars": "3", "tourism": "hotel", "website": "http://www.nalapad.com", "wheelchair": "no"}}, {"type": "node", "id": 1044323510, "lat": 12.9727609, "lon": 77.5701982, "tags": {"addr:city": "Chickpet, Bangalore", "addr:housenumber": "6", "addr:postcode": "560053", "addr:street": "Cottonpet Main Road", "name": "Sudha Lodge", "phone": "+91-80-26705420", "tourism": "hotel"}}, {"type": "node", "id": 1044325327, "lat": 12.9717886, "lon": 77.5705791, "tags": {"addr:housenumber": "13", "addr:street": "Cottonpete Main Road", "name": "Radha Krishna Delux Lodge", "tourism": "hotel"}}, {"type": "node", "id": 1061341352, "lat": 12.9665776, "lon": 77.5951759}, {"type": "node", "id": 1061341359, "lat": 12.9675829, "lon": 77.5963911}, {"type": "node", "id": 1061341361, "lat": 12.9666091, "lon": 77.5964789}, {"type": "node", "id": 1065137180, "lat": 12.9745381, "lon": 77.6096029, "tags": {"amenity": "restaurant", "cuisine": "indian", "internet_access": "no", "name": "Ullas Refreshment", "name:kn": "\u0c89\u0cb2\u0ccd\u0cb2\u0cbe\u0cb8\u0ccd \u0cb0\u0cbf\u0cab\u0ccd\u0cb0\u0cc6\u0cb6\u0ccd\u200c\u0cae\u0cc6\u0c82\u0c9f\u0ccd"}}, {"type": "node", "id": 1067206582, "lat": 13.0015628, "lon": 77.5993592, "tags": {"addr:street": "Nandi Durg Road", "amenity": "restaurant", "name": "Elements", "name:kn": "\u0c8e\u0cb2\u0cbf\u0cae\u0cc6\u0c82\u0c9f\u0ccd\u0cb8\u0ccd"}}, {"type": "node", "id": 1080055848, "lat": 12.974344, "lon": 77.5712299, "tags": {"addr:city": "Bangalore", "addr:street": "Tank Bund Road", "name": "Hotel Mahaveer", "name:kn": "\u0cae\u0cb9\u0cbe\u0cb5\u0cc0\u0cb0", "tourism": "hotel"}}, {"type": "node", "id": 1085786985, "lat": 12.9753754, "lon": 77.6028942, "tags": {"addr:street": "Church Street", "amenity": "restaurant", "check_date": "2025-03-24", "name": "Highgates Hotel", "name:kn": "\u0cb9\u0cc8\u200c\u0c97\u0cc7\u0c9f\u0ccd\u0cb8\u0ccd \u0cb9\u0ccb\u0c9f\u0cc6\u0cb2\u0ccd", "website": "http://highgateshotel.com"}}, {"type": "node", "id": 1101598769, "lat": 12.9809052, "lon": 77.5754392, "tags": {"addr:street": "Sheshadri Road", "amenity": "bank", "atm": "yes", "brand": "Axis Bank", "brand:wikidata": "Q2003549", "brand:wikipedia": "en:Axis Bank", "name": "Axis Bank", "name:en": "Axis Bank", "name:kn": "\u0c86\u0c95\u0ccd\u0cb8\u0cbf\u0cb8\u0ccd \u0cac\u0ccd\u0caf\u0cbe\u0c82\u0c95\u0ccd", "website": "https://www.axisbank.com"}}, {"type": "node", "id": 1101607728, "lat": 12.9856254, "lon": 77.5788885, "tags": {"addr:street": "Kumara Krupa Road", "amenity": "restaurant", "check_date": "2024-12-22", "name": "Hotel Janardhana", "name:kn": "\u0c9c\u0ca8\u0cbe\u0cb0\u0ccd\u0ca7\u0ca8\u0ccd"}}, {"type": "node", "id": 1101617173, "lat": 12.9910826, "lon": 77.5789046, "tags": {"amenity": "school", "name": "Gandhi Nagar High School", "name:kn": "\u0c97\u0cbe\u0c82\u0ca7\u0cbf\u0ca8\u0c97\u0cb0 \u0caa\u0ccc\u0ca1\u0cb6\u0cbe\u0cb2\u0cc6"}}, {"type": "node", "id": 1101622501, "lat": 12.9988604, "lon": 77.5817424, "tags": {"amenity": "hospital", "name": "Government Maternity Hospital", "name:kn": "\u0cb8\u0cb0\u0c95\u0cbe\u0cb0\u0cbf \u0cb9\u0cc6\u0cb0\u0cbf\u0c97\u0cc6 \u0c86\u0cb8\u0ccd\u0caa\u0ca4\u0ccd\u0cb0\u0cc6"}}, {"type": "node", "id": 1116484556, "lat": 12.9853569, "lon": 77.5792692, "tags": {"addr:housenumber": "32/3", "addr:street": "Crescent Road", "amenity": "restaurant", "cuisine": "indian", "fax": "+91-80-41138488", "name": "Kabab Studio", "name:kn": "\u0c95\u0cac\u0cbe\u0cac\u0ccd \u0cb8\u0ccd\u0c9f\u0cc1\u0ca1\u0cbf\u0caf\u0cca", "phone": "+91-80-41291300", "website": "https://www.goldfinchhotels.com/"}}, {"type": "node", "id": 1116484557, "lat": 12.9853747, "lon": 77.5792337}, {"type": "node", "id": 1121420612, "lat": 12.9578638, "lon": 77.5932147, "tags": {"amenity": "restaurant", "name": "Foody's", "name:kn": "\u0cab\u0cc1\u0ca1\u0cc0\u0cb8\u0ccd"}}, {"type": "node", "id": 1129098580, "lat": 12.966942, "lon": 77.60796, "tags": {"amenity": "restaurant", "cuisine": "french", "name": "Olive Beach", "name:kn": "\u0c86\u0cb2\u0cc0\u0cb5\u0ccd \u0cac\u0cc0\u0c9a\u0ccd"}}, {"type": "node", "id": 1176722324, "lat": 13.0008128, "lon": 77.5701799, "tags": {"amenity": "school", "building": "yes", "name": "Ubhaya Vedanta Pravarthana Sabha", "name:kn": "\u0c89\u0cad\u0caf \u0cb5\u0cc7\u0ca6\u0cbe\u0c82\u0ca4 \u0caa\u0ccd\u0cb0\u0cb5\u0cb0\u0ccd\u0ca4\u0ca8 \u0cb8\u0cad"}}, {"type": "node", "id": 1232939382, "lat": 12.9729763, "lon": 77.5948551}, {"type": "node", "id": 1232939387, "lat": 12.9722616, "lon": 77.5942855}, {"type": "node", "id": 1232939416, "lat": 12.9728515, "lon": 77.5954034}, {"type": "node", "id": 1232939458, "lat": 12.9725427, "lon": 77.5955431}, {"type": "node", "id": 1232939467, "lat": 12.9720732, "lon": 77.5943429}, {"type": "node", "id": 1274338604, "lat": 12.9696686, "lon": 77.6096731}, {"type": "node", "id": 1274338612, "lat": 12.9702026, "lon": 77.6092622}, {"type": "node", "id": 1274338613, "lat": 12.9702143, "lon": 77.6092143}, {"type": "node", "id": 1274338617, "lat": 12.9695893, "lon": 77.6099987}, {"type": "node", "id": 1274338618, "lat": 12.9698988, "lon": 77.6091843}, {"type": "node", "id": 1274338620, "lat": 12.9702818, "lon": 77.6101764}, {"type": "node", "id": 1274338621, "lat": 12.9704984, "lon": 77.6092872}, {"type": "node", "id": 1274338622, "lat": 12.9697731, "lon": 77.6097}, {"type": "node", "id": 1289833985, "lat": 12.9982568, "lon": 77.5694946, "tags": {"alt_name": "CTR", "amenity": "restaurant", "cuisine": "regional", "diet:vegan": "yes", "diet:vegetarian": "only", "happycow:id": "82110", "name": "Shree Sagar CTR", "name:kn": "\u0cb6\u0ccd\u0cb0\u0cc0 \u0cb6\u0cbe\u0cb0\u0ca6 \u0cb8\u0cbe\u0c97\u0cb0\u0ccd", "old_name": "Central Tiffin Room", "start_date": "1920", "wikidata": "Q5061916", "wikipedia": "en:Central Tiffin Room Bangalore"}}, {"type": "node", "id": 1289835601, "lat": 13.0019757, "lon": 77.5700769}, {"type": "node", "id": 1289835604, "lat": 12.9991976, "lon": 77.5684127}, {"type": "node", "id": 1289988648, "lat": 12.9801353, "lon": 77.6068971}, {"type": "node", "id": 1289988652, "lat": 12.9800177, "lon": 77.6072539}, {"type": "node", "id": 1289988654, "lat": 12.9795446, "lon": 77.6066611}, {"type": "node", "id": 1289988664, "lat": 12.9794087, "lon": 77.6070313}, {"type": "node", "id": 1290036140, "lat": 12.9950213, "lon": 77.5964919, "tags": {"addr:street": "Millers Road", "amenity": "fuel"}}, {"type": "node", "id": 1290152830, "lat": 12.9986733, "lon": 77.5692346, "tags": {"shop": "convenience"}}, {"type": "node", "id": 1290203334, "lat": 13.0009296, "lon": 77.5723686, "tags": {"amenity": "restaurant", "diet:vegetarian": "only", "name": "Food Camp", "name:kn": "\u0cab\u0cc1\u0ca1\u0ccd \u0c95\u0ccd\u0caf\u0cbe\u0c82\u0caa\u0ccd"}}, {"type": "node", "id": 1290203344, "lat": 13.0010829, "lon": 77.5721394, "tags": {"amenity": "restaurant", "cuisine": "regional", "name": "Sri Sai Dosa Center", "name:kn": "\u0cb6\u0ccd\u0cb0\u0cc0 \u0cb8\u0cbe\u0caf\u0cbf \u0ca6\u0cca\u0cb8 \u0cb8\u0cc6\u0c82\u0c9f\u0cb0\u0ccd"}}, {"type": "node", "id": 1290203366, "lat": 13.0011038, "lon": 77.5723003, "tags": {"name": "Iyengar's Bakery", "name:kn": "\u0c90\u0caf\u0ccd\u0caf\u0c82\u0c97\u0cbe\u0cb0\u0ccd \u0cac\u0cc7\u0c95\u0cb0\u0cbf", "shop": "bakery"}}, {"type": "node", "id": 1306429239, "lat": 12.984215, "lon": 77.6005578, "tags": {"internet_access": "wlan", "name": "Hotel Ramada", "name:kn": "\u0cb0\u0cae\u0ca1", "tourism": "hotel"}}, {"type": "node", "id": 1306431953, "lat": 12.9831559, "lon": 77.5987115, "tags": {"addr:housenumber": "21/1", "addr:street": "Cunningham Road", "amenity": "restaurant", "cuisine": "indian", "full_name": "Eden Park Bar And Restaurant", "name": "Eden Park", "name:kn": "\u0c8e\u0ca1\u0cbf\u0ca8\u0ccd \u0caa\u0cbe\u0cb0\u0ccd\u0c95\u0ccd \u0cac\u0cbe\u0cb0\u0ccd \u0cae\u0ca4\u0ccd\u0ca4\u0cc1 \u0cb0\u0cc6\u0cb8\u0ccd\u0c9f\u0ccb\u0cb0\u0cc6\u0c82\u0c9f\u0ccd"}}, {"type": "node", "id": 1307576572, "lat": 12.9707365, "lon": 77.6036896}, {"type": "node", "id": 1307576579, "lat": 12.9715392, "lon": 77.6030346}, {"type": "node", "id": 1307576587, "lat": 12.9706569, "lon": 77.6032871}, {"type": "node", "id": 1307598700, "lat": 12.9670942, "lon": 77.5989782}, {"type": "node", "id": 1307598702, "lat": 12.9683242, "lon": 77.5981902}, {"type": "node", "id": 1307598703, "lat": 12.9833885, "lon": 77.5950608}, {"type": "node", "id": 1307598705, "lat": 12.9667553, "lon": 77.5982874}, {"type": "node", "id": 1307598716, "lat": 12.9672379, "lon": 77.5988383}, {"type": "node", "id": 1307598721, "lat": 12.9823242, "lon": 77.594716, "tags": {"addr:street": "Dr B R Ambedkar Veedhi", "amenity": "cafe", "name": "India Coffee House", "name:kn": "\u0c87\u0c82\u0ca1\u0cbf\u0caf\u0cbe \u0c95\u0cbe\u0cab\u0cbf \u0cb9\u0ccc\u0cb8\u0ccd"}}, {"type": "node", "id": 1314943420, "lat": 12.980883, "lon": 77.575992, "tags": {"addr:city": "Bangalore", "addr:housenumber": "5/43", "addr:postcode": "560009", "addr:street": "Race Course Road", "email": "jpcelestial@fortunehotels.in", "fax": "+91-80-41476060", "internet_access": "yes", "name": "Fortune Park JP Celestial Hotel", "phone": "+91-80-40441234; +91-80-39884433", "tourism": "hotel", "website": "https://www.fortunehotels.in/"}}, {"type": "node", "id": 1363295015, "lat": 12.9897809, "lon": 77.5880062, "tags": {"amenity": "cafe", "name": "NGMA Cafe"}}, {"type": "node", "id": 1363295025, "lat": 12.9889444, "lon": 77.5882073}, {"type": "node", "id": 1363295026, "lat": 12.9889548, "lon": 77.5885808}, {"type": "node", "id": 1363295034, "lat": 12.989219, "lon": 77.5881992}, {"type": "node", "id": 1363295035, "lat": 12.9892294, "lon": 77.5885727}, {"type": "node", "id": 1363295038, "lat": 12.9890027, "lon": 77.5900782}, {"type": "node", "id": 1363295052, "lat": 12.9894925, "lon": 77.5904933}, {"type": "node", "id": 1363295721, "lat": 12.9846666, "lon": 77.5903377}, {"type": "node", "id": 1363295727, "lat": 12.9847313, "lon": 77.5904343}, {"type": "node", "id": 1363295739, "lat": 12.9852232, "lon": 77.5897422}, {"type": "node", "id": 1363295741, "lat": 12.9853606, "lon": 77.5898794}, {"type": "node", "id": 1383995998, "lat": 12.9707077, "lon": 77.6047522}, {"type": "node", "id": 1383996004, "lat": 12.9704353, "lon": 77.6049285, "tags": {"access": "private", "barrier": "gate"}}, {"type": "node", "id": 1383996005, "lat": 12.9705644, "lon": 77.6043372, "tags": {"access": "private", "barrier": "gate"}}, {"type": "node", "id": 1383996023, "lat": 12.9702399, "lon": 77.6036848}, {"type": "node", "id": 1387516391, "lat": 12.9803877, "lon": 77.6046163, "tags": {"addr:city": "Bangalore", "addr:street": "Infantry Road", "name": "Gem Plaza", "shop": "mall"}}, {"type": "node", "id": 1387523802, "lat": 12.9829748, "lon": 77.5949195}, {"type": "node", "id": 1387523809, "lat": 12.9832706, "lon": 77.5940109}, {"type": "node", "id": 1387523823, "lat": 12.9836942, "lon": 77.5941561}, {"type": "node", "id": 1389204316, "lat": 12.9655848, "lon": 77.584288, "tags": {"amenity": "parking", "name": "Two-Wheeler Parking"}}, {"type": "node", "id": 1446122916, "lat": 12.9683152, "lon": 77.6004368, "tags": {"addr:city": "Bangalore", "addr:full": "St. Marks Road, Opp Bishop Cotton Boys School, Srinivas Nagar, Shanthala Nagar, Ashok Nagar, Bengaluru", "addr:housenumber": "74/5", "addr:postcode": "560001", "addr:street": "Saint Mark's Road", "amenity": "pharmacy", "dispensing": "yes", "name": "The Cash Pharmacy", "phone": "080 3361 8456"}}, {"type": "node", "id": 1448082496, "lat": 12.999295, "lon": 77.5680608, "tags": {"amenity": "restaurant", "cuisine": "indian", "delivery": "yes", "diet:vegetarian": "only", "name": "Sai Shakti", "name:kn": "\u0cb8\u0cbe\u0caf\u0cbf \u0cb6\u0c95\u0ccd\u0ca4\u0cbf", "outdoor_seating": "no", "takeaway": "yes"}}, {"type": "node", "id": 1449018888, "lat": 12.9668907, "lon": 77.5986274, "tags": {"amenity": "pharmacy", "name": "Residency Pharmacy"}}, {"type": "node", "id": 1454651986, "lat": 12.9671401, "lon": 77.6094485, "tags": {"addr:district": "Bengaluru Urban", "addr:full": "#37, Castle Street, Opp Sacred Heart Church, Ashok Nagar, B.E", "addr:housenumber": "37", "addr:postcode": "560025", "addr:state": "Karnataka", "addr:street": "Castle Street", "amenity": "hospital", "name": "Narayana Netralaya", "name:kn": "\u0ca8\u0cbe\u0cb0\u0cbe\u0caf\u0ca3 \u0ca8\u0cc7\u0ca4\u0ccd\u0cb0\u0cbe\u0cb2\u0caf", "source": "OpenGovernmentData"}}, {"type": "node", "id": 1457578295, "lat": 12.9733973, "lon": 77.5781068, "tags": {"access": "yes", "amenity": "parking", "capacity": "350", "fee": "yes", "level": "2,3,4", "name": "Maharaja Complex Multi Storey Parking", "operator": "BBMP", "parking": "multi-storey"}}, {"type": "node", "id": 1457669462, "lat": 12.9766211, "lon": 77.5725503, "tags": {"amenity": "restaurant", "cuisine": "regional", "name": "Swathi Deluxe", "name:kn": "\u0cb8\u0ccd\u0cb5\u0cbe\u0ca4\u0cbf \u0ca1\u0cbf\u0cb2\u0c95\u0ccd\u0cb8\u0ccd"}}, {"type": "node", "id": 1459711459, "lat": 12.9683854, "lon": 77.6035313}, {"type": "node", "id": 1462691613, "lat": 13.002535, "lon": 77.578333, "tags": {"amenity": "bank", "atm": "yes", "brand": "State Bank of India", "brand:wikidata": "Q1340361", "brand:wikipedia": "en:State Bank of India", "name": "State Bank of India", "name:kn": "\u0c8e\u0cb8\u0ccd \u0cac\u0cbf \u0c90", "short_name": "SBI", "website": "https://www.sbi.co.in"}}, {"type": "node", "id": 1462692195, "lat": 13.0022031, "lon": 77.5783102, "tags": {"amenity": "bank", "atm": "yes", "brand": "Canara Bank", "brand:en": "Canara Bank", "brand:hi": "\u0915\u0947\u0928\u0930\u093e \u092c\u0948\u0902\u0915", "brand:kn": "\u0c95\u0cc6\u0ca8\u0cb0\u0cbe \u0cac\u0ccd\u0caf\u0cbe\u0c82\u0c95\u0ccd", "brand:pa": "\u0a15\u0a47\u0a28\u0a30\u0a3e \u0a2c\u0a48\u0a02\u0a15", "brand:pnb": "\u06a9\u06cc\u0646\u0631\u0627 \u0628\u06cc\u0646\u06a9", "brand:ur": "\u06a9\u06cc\u0646\u0631\u0627 \u0628\u06cc\u0646\u06a9", "brand:wikidata": "Q2003777", "brand:wikipedia": "en:Canara Bank", "brand:wikipedia:pa": "\u0a15\u0a47\u0a28\u0a30\u0a3e \u0a2c\u0a48\u0a02\u0a15", "name": "Canara Bank", "name:en": "Canara Bank", "name:hi": "\u0915\u0947\u0928\u0930\u093e \u092c\u0948\u0902\u0915", "name:kn": "\u0c95\u0cc6\u0ca8\u0cb0\u0cbe \u0cac\u0ccd\u0caf\u0cbe\u0c82\u0c95\u0ccd", "name:pa": "\u0a15\u0a47\u0a28\u0a30\u0a3e \u0a2c\u0a48\u0a02\u0a15", "name:pnb": "\u06a9\u06cc\u0646\u0631\u0627 \u0628\u06cc\u0646\u06a9", "name:ur": "\u06a9\u06cc\u0646\u0631\u0627 \u0628\u06cc\u0646\u06a9", "website": "https://www.canarabank.com/"}}, {"type": "node", "id": 1464692644, "lat": 12.9550832, "lon": 77.5682141}, {"type": "node", "id": 1464692646, "lat": 12.9541167, "lon": 77.5682845}, {"type": "node", "id": 1464692648, "lat": 12.9550491, "lon": 77.5675543}, {"type": "node", "id": 1464692652, "lat": 12.9540761, "lon": 77.567601}, {"type": "node", "id": 1466699835, "lat": 12.9919291, "lon": 77.612247}, {"type": "node", "id": 1466699836, "lat": 12.9917881, "lon": 77.6141707}, {"type": "node", "id": 1466699837, "lat": 12.991355, "lon": 77.6126126}, {"type": "node", "id": 1466699838, "lat": 12.9908478, "lon": 77.6136379}, {"type": "node", "id": 1466699839, "lat": 12.9918166, "lon": 77.6134825}, {"type": "node", "id": 1466699841, "lat": 12.9911084, "lon": 77.6131363}, {"type": "node", "id": 1466699842, "lat": 12.9928757, "lon": 77.6123087}, {"type": "node", "id": 1466699843, "lat": 12.991526, "lon": 77.6120234}, {"type": "node", "id": 1466699844, "lat": 12.9921235, "lon": 77.6118615}, {"type": "node", "id": 1469178779, "lat": 12.9945695, "lon": 77.6107086}, {"type": "node", "id": 1469178780, "lat": 12.9946639, "lon": 77.6105399}, {"type": "node", "id": 1469178781, "lat": 12.9946792, "lon": 77.6107732}, {"type": "node", "id": 1469178782, "lat": 12.9947735, "lon": 77.6106045}, {"type": "node", "id": 1469181813, "lat": 12.995625, "lon": 77.6113272, "tags": {"addr:city": "Bengaluru", "addr:country": "IN", "addr:hamlet": "Frazer Town", "addr:postcode": "560005", "addr:street": "Saunders Road", "amenity": "hospital", "name": "Seventh Day Adventist Hospital", "name:kn": "\u0cb8\u0cc6\u0cb5\u0cc6\u0c82\u0ca4\u0ccd \u0ca1\u0cc7 \u0c85\u0ca1\u0ccd\u0cb5\u0cc6\u0ca8\u0ccd\u0c9f\u0cbf\u0cb8\u0ccd\u0c9f\u0ccd \u0c86\u0cb8\u0ccd\u0caa\u0ca4\u0ccd\u0cb0\u0cc6"}}, {"type": "node", "id": 1469190367, "lat": 12.9968818, "lon": 77.6109656, "tags": {"amenity": "school", "name": "Fathima's Girls High School", "name:kn": "\u0cab\u0cbe\u0ca4\u0cc0\u0cae\u0cbe\u0cb8\u0ccd \u0cb9\u0cc6\u0ca3\u0ccd\u0ca3\u0cc1 \u0cae\u0c95\u0ccd\u0c95\u0cb3 \u0caa\u0ccd\u0cb0\u0ccc\u0ca1 \u0cb6\u0cbe\u0cb2\u0cc6"}}, {"type": "node", "id": 1469190371, "lat": 12.9961239, "lon": 77.6132737, "tags": {"amenity": "cafe", "brand": "Third Wave Coffee Roasters", "brand:wikidata": "Q7785004", "cuisine": "coffee_shop", "delivery": "yes", "internet_access": "yes", "internet_access:fee": "no", "name": "Third Wave Coffee Roasters", "payment:credit_cards": "yes", "payment:debit_cards": "yes", "takeaway": "yes", "website": "https://www.thirdwavecoffeeroasters.com/"}}, {"type": "node", "id": 1469190372, "lat": 12.9959044, "lon": 77.6130336, "tags": {"amenity": "restaurant", "cuisine": "indian", "diet:vegetarian": "yes", "name": "Nandini Restaurant", "name:kn": "\u0ca8\u0c82\u0ca6\u0cbf\u0ca8\u0cbf \u0c89\u0caa\u0cbe\u0cb9\u0cbe\u0cb0 \u0c97\u0cc3\u0cb9"}}, {"type": "node", "id": 1469190373, "lat": 12.9966233, "lon": 77.6117255}, {"type": "node", "id": 1469190376, "lat": 12.9958364, "lon": 77.6131543, "tags": {"amenity": "restaurant", "check_date": "2024-04-27", "cuisine": "indian", "diet:vegetarian": "yes", "name": "Udupi Shanthi Sagar", "name:kn": "\u0cb6\u0cbe\u0c82\u0ca4\u0cbf \u0cb8\u0cbe\u0c97\u0cb0"}}, {"type": "node", "id": 1469190378, "lat": 12.9961448, "lon": 77.6112526, "tags": {"amenity": "restaurant", "name": "Ponnuswamy Restaurant", "name:kn": "\u0caa\u0ccb\u0ca8\u0ccd\u0ca8\u0cc1\u0cb8\u0ccd\u0cb5\u0cbe\u0cae\u0cbf \u0cb0\u0cc6\u0cb8\u0ccd\u0c9f\u0cca\u0cb0\u0cc6\u0c82\u0c9f\u0ccd"}}, {"type": "node", "id": 1469190383, "lat": 12.9970256, "lon": 77.611258, "tags": {"brand": "Reliance Fresh", "brand:wikidata": "Q7311014", "name": "Reliance Fresh", "name:kn": "\u0cb0\u0cbf\u0cb2\u0cbe\u0caf\u0ca8\u0ccd\u0cb8\u0ccd \u0cab\u0ccd\u0cb0\u0cc6\u0cb6\u0ccd", "shop": "supermarket"}}, {"type": "node", "id": 1469196551, "lat": 12.9931105, "lon": 77.6089191, "tags": {"addr:street": "Saint John's Church Road", "amenity": "restaurant", "name": "Al-Siddique Kabab Center", "name:kn": "\u0c85\u0cb2\u0ccd-\u0cb8\u0cbf\u0ca6\u0ccd\u0ca6\u0cbf\u0c95\u0cbf \u0c95\u0cac\u0cbe\u0cac\u0ccd \u0cb8\u0cc6\u0c82\u0c9f\u0cb0\u0ccd"}}, {"type": "node", "id": 1469196561, "lat": 12.9934162, "lon": 77.608356, "tags": {"addr:street": "Saint John's Church Road", "amenity": "restaurant", "name": "Siddique Kabab Center", "name:kn": "\u0cb8\u0cbf\u0ca6\u0ccd\u0ca6\u0cbf\u0c95\u0cbf \u0c95\u0cac\u0cbe\u0cac\u0ccd \u0cb8\u0cc6\u0c82\u0c9f\u0cb0\u0ccd"}}, {"type": "node", "id": 1469249201, "lat": 12.9916626, "lon": 77.6024335, "tags": {"amenity": "school", "check_date": "2024-08-11", "name": "Santosh Institute of Nursing & Research"}}, {"type": "node", "id": 1469266907, "lat": 12.9933042, "lon": 77.6131994, "tags": {"amenity": "school", "name": "St. Francis Xavier's High School", "name:kn": "\u0cb8\u0c82\u0ca4 \u0cab\u0ccd\u0cb0\u0cbe\u0ca8\u0ccd\u0cb8\u0cc0\u0cb8\u0ccd \u0c95\u0ccd\u0cb7\u0cc7\u0cb5\u0cbf\u0caf\u0cb0\u0ccd\u0cb8\u0ccd \u0caa\u0ccd\u0cb0\u0ccc\u0ca1 \u0cb6\u0cbe\u0cb2\u0cc6"}}, {"type": "node", "id": 1469266908, "lat": 12.992426, "lon": 77.6135802, "tags": {"amenity": "school", "check_date": "2024-12-14", "name": "St. Joseph's Convent Girls High School"}}, {"type": "node", "id": 1469267174, "lat": 12.9938162, "lon": 77.6144766, "tags": {"amenity": "school", "name": "Holy Angel's High School", "name:kn": "\u0cb9\u0ccb\u0cb2\u0cbf \u0c8e\u0c82\u0c9c\u0cc6\u0cb2\u0ccd\u0cb8\u0ccd \u0caa\u0ccd\u0cb0\u0ccc\u0ca2\u0cb6\u0cbe\u0cb2\u0cc6"}}, {"type": "node", "id": 1469267177, "lat": 12.9926871, "lon": 77.6141548, "tags": {"amenity": "school", "name": "RTC Girls High School"}}, {"type": "node", "id": 1469274353, "lat": 12.9947968, "lon": 77.6152664, "tags": {"amenity": "bank", "atm": "yes", "brand": "ICICI Bank", "brand:wikidata": "Q1653258", "name": "ICICI Bank", "name:en": "ICICI Bank", "name:kn": "\u0c90\u0cb8\u0cbf\u0c90\u0cb8\u0cbf\u0c90 \u0cac\u0ccd\u0caf\u0cbe\u0c82\u0c95\u0cc1", "short_name": "ICICI", "website": "https://www.icicibank.com"}}, {"type": "node", "id": 1469282330, "lat": 12.9960742, "lon": 77.6170891, "tags": {"amenity": "restaurant", "name": "Komala Refreshment", "name:kn": "\u0c95\u0cca\u0cae\u0cb2 \u0cb0\u0cbf\u0cab\u0ccd\u0cb0\u0cc6\u0cb6\u0ccd\u200c\u0cae\u0cc6\u0c82\u0c9f\u0ccd"}}, {"type": "node", "id": 1473221156, "lat": 12.9727224, "lon": 77.6188401}, {"type": "node", "id": 1473221205, "lat": 12.9783386, "lon": 77.6169398}, {"type": "node", "id": 1473972586, "lat": 12.950339, "lon": 77.5673443, "tags": {"amenity": "bank", "atm": "yes", "brand": "ICICI Bank", "brand:wikidata": "Q1653258", "name": "ICICI Bank", "name:en": "ICICI Bank", "name:kn": "\u0c90\u0cb8\u0cbf\u0c90\u0cb8\u0cbf\u0c90 \u0cac\u0ccd\u0caf\u0cbe\u0c82\u0c95\u0cc1", "short_name": "ICICI", "website": "https://www.icicibank.com", "wheelchair": "no"}}, {"type": "node", "id": 1473975632, "lat": 12.9536903, "lon": 77.5670542}, {"type": "node", "id": 1473999154, "lat": 12.9746853, "lon": 77.605772, "tags": {"amenity": "restaurant", "brand": "Ruby Tuesday", "brand:wikidata": "Q7376400", "cuisine": "american", "name": "Ruby Tuesday", "name:kn": "\u0cb0\u0cc1\u0cac\u0cbf \u0c9f\u0ccd\u0caf\u0cc1\u0cb8\u0ccd\u0ca1\u0cc6"}}, {"type": "node", "id": 1474001856, "lat": 12.9729633, "lon": 77.6086054, "tags": {"amenity": "restaurant", "name": "Purple Haze", "name:kn": "\u0caa\u0cb0\u0ccd\u0caa\u0cb2\u0ccd \u0cb9\u0cc6\u0c9c\u0ccd"}}, {"type": "node", "id": 1474001861, "lat": 12.974763, "lon": 77.6051072, "tags": {"addr:city": "Bengaluru", "addr:housename": "Asha Enclave", "addr:postcode": "560001", "addr:street": "Church Street", "addr:suburb": "Ashok Nagar", "amenity": "restaurant", "brand": "Paris Panini", "brand:wikidata": "Q124374583", "check_date": "2024-08-19", "cuisine": "panini", "delivery": "yes", "name": "Paris Panini", "takeaway": "yes"}}, {"type": "node", "id": 1474170030, "lat": 12.9954523, "lon": 77.6138486, "tags": {"addr:city": "Bengaluru", "addr:housenumber": "66/1", "addr:postcode": "560005", "addr:street": "Coles Road", "addr:suburb": "Fraser Town", "amenity": "restaurant", "branch": "Coles Road", "brand": "Pizza Hut", "brand:wikidata": "Q191615", "check_date": "2024-06-15", "cuisine": "pizza", "name": "Pizza Hut", "name:kn": "\u0caa\u0cbf\u0c9c\u0ccd\u0c9c\u0cbe \u0cb9\u0c9f\u0ccd", "website": "https://www.pizzahut.co.in/"}}, {"type": "node", "id": 1474195320, "lat": 12.9973063, "lon": 77.6138674, "tags": {"addr:housenumber": "11", "addr:postcode": "560005", "addr:street": "Mosque Road", "amenity": "restaurant", "cuisine": "chinese", "name": "Beijing Bites", "name:kn": "\u0cac\u0cc0\u0c9c\u0cbf\u0c82\u0c97\u0ccd \u0cac\u0cc8\u0c9f\u0ccd\u0cb8\u0ccd"}}, {"type": "node", "id": 1474195348, "lat": 12.9966022, "lon": 77.614216, "tags": {"addr:housenumber": "93", "addr:postcode": "560005", "addr:street": "Mosque Road", "name": "Albert Bakery", "name:kn": "\u0c86\u0cb2\u0ccd\u0cac\u0cb0\u0ccd\u0c9f\u0ccd \u0cac\u0cc7\u0c95\u0cb0\u0cbf", "name:pa": "\u0a10\u0a32\u0a2c\u0a30\u0a1f \u0a2c\u0a47\u0a15\u0a30\u0a40", "name:ur": "\u0627\u0644\u0628\u0631\u0679 \u0628\u06cc\u06a9\u0631\u06cc", "shop": "bakery"}}, {"type": "node", "id": 1474200449, "lat": 12.9999459, "lon": 77.6158737, "tags": {"addr:postcode": "560005", "addr:street": "Mosque Road", "alt_name": "Hotel Empire", "amenity": "restaurant", "brand": "Empire", "check_date": "2024-04-27", "cuisine": "indian", "delivery": "yes", "diet:halal": "yes", "name": "Empire", "name:kn": "\u0c8e\u0c82\u0caa\u0cc8\u0cb0\u0ccd \u0cb0\u0cc6\u0cb8\u0ccd\u0c9f\u0ccb\u0cb0\u0cc6\u0c82\u0c9f\u0ccd", "takeaway": "yes"}}, {"type": "node", "id": 1474297275, "lat": 12.9918131, "lon": 77.6116694, "tags": {"addr:postcode": "560005", "addr:street": "ST JOHNS CHURCH ROAD", "alt_name": "Union Bank, St. John's Church Road Branch", "amenity": "bank", "atm": "yes", "brand": "Union Bank of India", "brand:wikidata": "Q2004078", "brand:wikipedia": "en:Union Bank of India", "name": "Union Bank of India", "name:en": "Union Bank of India", "name:kn": "\u0caf\u0cc2\u0ca8\u0cbf\u0caf\u0ca8\u0ccd \u0cac\u0ccd\u0caf\u0cbe\u0c82\u0c95\u0ccd", "short_name": "UBI", "website": "https://www.unionbankofindia.co.in/"}}, {"type": "node", "id": 1474308852, "lat": 12.9822735, "lon": 77.6078285, "tags": {"amenity": "restaurant"}}, {"type": "node", "id": 1474308855, "lat": 12.9825453, "lon": 77.6104302, "tags": {"addr:street": "Kamaraj Road", "amenity": "restaurant", "cuisine": "sandwich", "name": "Cool Joint", "name:kn": "\u0c95\u0cc2\u0cb2\u0ccd \u0c9c\u0cbe\u0caf\u0cbf\u0c82\u0c9f\u0ccd"}}, {"type": "node", "id": 1474308856, "lat": 12.9826498, "lon": 77.6104195, "tags": {"addr:postcode": "560042", "addr:street": "Commercial Street", "amenity": "bank", "atm": "yes", "name": "Corp Bank", "name:kn": "\u0c95\u0cbe\u0cb0\u0ccd\u0caa\u0ccd \u0cac\u0ccd\u0caf\u0cbe\u0c82\u0c95\u0ccd"}}, {"type": "node", "id": 1474819903, "lat": 13.0002224, "lon": 77.5688175, "tags": {"amenity": "pharmacy", "healthcare": "pharmacy", "name": "Religare Medicals"}}, {"type": "node", "id": 1474820320, "lat": 12.9950177, "lon": 77.5716418, "tags": {"amenity": "bank", "brand": "State Bank of India", "brand:wikidata": "Q1340361", "brand:wikipedia": "en:State Bank of India", "name": "State Bank of India", "name:kn": "\u0cad\u0cbe\u0cb0\u0ca4\u0cc0\u0caf \u0cb8\u0ccd\u0c9f\u0cc7\u0c9f\u0ccd \u0cac\u0ccd\u0caf\u0cbe\u0c82\u0c95\u0ccd", "short_name": "SBI", "website": "https://www.sbi.co.in"}}, {"type": "node", "id": 1474820321, "lat": 12.9970915, "lon": 77.5719766, "tags": {"amenity": "hospital", "healthcare": "hospital", "name": "Baptist"}}, {"type": "node", "id": 1492519140, "lat": 12.971167, "lon": 77.605779, "tags": {"amenity": "restaurant", "name": "Paramount Restaurant", "name:kn": "\u0caa\u0ccd\u0caf\u0cb0\u0cae\u0ccc\u0c82\u0c9f\u0ccd \u0cb0\u0cc6\u0cb8\u0ccd\u0c9f\u0cca\u0cb0\u0cc6\u0c82\u0c9f\u0ccd"}}, {"type": "node", "id": 1515250458, "lat": 12.9615766, "lon": 77.6054852}, {"type": "node", "id": 1515250459, "lat": 12.9617047, "lon": 77.6065474}, {"type": "node", "id": 1515250460, "lat": 12.961602, "lon": 77.606068}, {"type": "node", "id": 1515250462, "lat": 12.9617915, "lon": 77.6061056}, {"type": "node", "id": 1515250463, "lat": 12.9626143, "lon": 77.6058285}, {"type": "node", "id": 1515250464, "lat": 12.963503, "lon": 77.6066037}, {"type": "node", "id": 1515250465, "lat": 12.9615615, "lon": 77.6062371}, {"type": "node", "id": 1515250466, "lat": 12.9636337, "lon": 77.6059198}, {"type": "node", "id": 1515250468, "lat": 12.9614054, "lon": 77.6061906}, {"type": "node", "id": 1515250470, "lat": 12.9627816, "lon": 77.6058983}, {"type": "node", "id": 1517317432, "lat": 12.9830564, "lon": 77.6027466}, {"type": "node", "id": 1517317433, "lat": 12.9825652, "lon": 77.603472}, {"type": "node", "id": 1517317453, "lat": 12.9823736, "lon": 77.6035481}, {"type": "node", "id": 1517317463, "lat": 12.9829293, "lon": 77.6031582}, {"type": "node", "id": 1517317469, "lat": 12.9837644, "lon": 77.6034297}, {"type": "node", "id": 1517317471, "lat": 12.9838915, "lon": 77.6030181}, {"type": "node", "id": 1523537344, "lat": 12.9837975, "lon": 77.6033226}, {"type": "node", "id": 1523537357, "lat": 12.983834, "lon": 77.6032043}, {"type": "node", "id": 1523537358, "lat": 12.9838662, "lon": 77.6030999}, {"type": "node", "id": 1536592059, "lat": 12.9726288, "lon": 77.6001079}, {"type": "node", "id": 1536592062, "lat": 12.9727309, "lon": 77.5997185, "tags": {"amenity": "restaurant", "cuisine": "indian", "name": "Airlines", "name:kn": "\u0c8e\u0cb0\u0ccd \u0cb2\u0cc8\u0ca8\u0ccd\u0cb8\u0ccd", "smoking": "separated", "start_date": "1968", "wheelchair": "limited"}}, {"type": "node", "id": 1536592066, "lat": 12.9724282, "lon": 77.5995994}, {"type": "node", "id": 1536592068, "lat": 12.9730978, "lon": 77.5997106}, {"type": "node", "id": 1536592069, "lat": 12.9723296, "lon": 77.6000646}, {"type": "node", "id": 1536592071, "lat": 12.9727061, "lon": 77.5996437}, {"type": "node", "id": 1536592073, "lat": 12.9730703, "lon": 77.6001717}, {"type": "node", "id": 1537844509, "lat": 12.9908004, "lon": 77.5706988}, {"type": "node", "id": 1545510744, "lat": 12.9731056, "lon": 77.6127451}, {"type": "node", "id": 1548748248, "lat": 12.9714618, "lon": 77.6037663}, {"type": "node", "id": 1548748296, "lat": 12.9748249, "lon": 77.5994328, "tags": {"addr:street": "Lavelle Road", "amenity": "restaurant", "check_date": "2024-08-18", "cuisine": "chinese", "name": "Rice Bowl", "name:kn": "\u0cb0\u0cc8\u0cb8\u0ccd \u0cac\u0ccc\u0cb2\u0ccd"}}, {"type": "node", "id": 1548761089, "lat": 12.9724756, "lon": 77.6064149}, {"type": "node", "id": 1548761108, "lat": 12.9721993, "lon": 77.6063064}, {"type": "node", "id": 1548761109, "lat": 12.9720085, "lon": 77.606818}, {"type": "node", "id": 1548761111, "lat": 12.9722848, "lon": 77.6069266}, {"type": "node", "id": 1548828175, "lat": 12.9909202, "lon": 77.5705084}, {"type": "node", "id": 1548828176, "lat": 12.983979, "lon": 77.5846362}, {"type": "node", "id": 1548828177, "lat": 12.9845306, "lon": 77.5853436}, {"type": "node", "id": 1557294486, "lat": 12.9908307, "lon": 77.5714977}, {"type": "node", "id": 1568922438, "lat": 12.9643413, "lon": 77.5852008}, {"type": "node", "id": 1568922462, "lat": 12.9641084, "lon": 77.5851245}, {"type": "node", "id": 1568922499, "lat": 12.9645106, "lon": 77.5856471}, {"type": "node", "id": 1568922505, "lat": 12.9642157, "lon": 77.5850376}, {"type": "node", "id": 1568922525, "lat": 12.9646179, "lon": 77.5855602}, {"type": "node", "id": 1568922534, "lat": 12.9645297, "lon": 77.5861361}, {"type": "node", "id": 1568922554, "lat": 12.964233, "lon": 77.5852865}, {"type": "node", "id": 1577582017, "lat": 12.964223, "lon": 77.5866456, "tags": {"amenity": "restaurant", "diet:vegetarian": "only", "name": "Kamat", "name:kn": "\u0c95\u0cbe\u0cae\u0ca4\u0ccd"}}, {"type": "node", "id": 1582748711, "lat": 12.9700775, "lon": 77.6065113}, {"type": "node", "id": 1582748714, "lat": 12.9707214, "lon": 77.6060229}, {"type": "node", "id": 1589590956, "lat": 12.9936112, "lon": 77.6088982}, {"type": "node", "id": 1590243142, "lat": 12.9922692, "lon": 77.6104832}, {"type": "node", "id": 1590243143, "lat": 12.9927836, "lon": 77.6097851}, {"type": "node", "id": 1607662992, "lat": 12.9739237, "lon": 77.6189882}, {"type": "node", "id": 1611772464, "lat": 12.9694639, "lon": 77.6135166}, {"type": "node", "id": 1611772471, "lat": 12.9692291, "lon": 77.613631}, {"type": "node", "id": 1611772497, "lat": 12.9690222, "lon": 77.6129024}, {"type": "node", "id": 1614268180, "lat": 12.9873383, "lon": 77.5805314, "tags": {"amenity": "school", "name": "Bharat Seva Dal", "name:kn": "\u0cad\u0cbe\u0cb0\u0ca4 \u0cb8\u0cc7\u0cb5\u0cbe\u0ca6\u0cb3", "wheelchair": "no"}}, {"type": "node", "id": 1614268185, "lat": 12.9869904, "lon": 77.5786112, "tags": {"amenity": "bank", "atm": "yes", "brand": "Canara Bank", "brand:en": "Canara Bank", "brand:hi": "\u0915\u0947\u0928\u0930\u093e \u092c\u0948\u0902\u0915", "brand:kn": "\u0c95\u0cc6\u0ca8\u0cb0\u0cbe \u0cac\u0ccd\u0caf\u0cbe\u0c82\u0c95\u0ccd", "brand:pa": "\u0a15\u0a47\u0a28\u0a30\u0a3e \u0a2c\u0a48\u0a02\u0a15", "brand:pnb": "\u06a9\u06cc\u0646\u0631\u0627 \u0628\u06cc\u0646\u06a9", "brand:ur": "\u06a9\u06cc\u0646\u0631\u0627 \u0628\u06cc\u0646\u06a9", "brand:wikidata": "Q2003777", "brand:wikipedia": "en:Canara Bank", "brand:wikipedia:pa": "\u0a15\u0a47\u0a28\u0a30\u0a3e \u0a2c\u0a48\u0a02\u0a15", "name": "Canara Bank", "name:en": "Canara Bank", "name:hi": "\u0915\u0947\u0928\u0930\u093e \u092c\u0948\u0902\u0915", "name:kn": "\u0c95\u0cc6\u0ca8\u0cb0\u0cbe \u0cac\u0ccd\u0caf\u0cbe\u0c82\u0c95\u0ccd", "name:pa": "\u0a15\u0a47\u0a28\u0a30\u0a3e \u0a2c\u0a48\u0a02\u0a15", "name:pnb": "\u06a9\u06cc\u0646\u0631\u0627 \u0628\u06cc\u0646\u06a9", "name:ur": "\u06a9\u06cc\u0646\u0631\u0627 \u0628\u06cc\u0646\u06a9", "website": "https://www.canarabank.com/", "wheelchair": "no"}}, {"type": "node", "id": 1614268190, "lat": 12.9876512, "lon": 77.5799188, "tags": {"amenity": "bank", "atm": "yes", "brand": "ICICI Bank", "brand:wikidata": "Q1653258", "name": "ICICI Bank", "name:en": "ICICI Bank", "name:kn": "\u0c90\u0cb8\u0cbf\u0c90\u0cb8\u0cbf\u0c90 \u0cac\u0ccd\u0caf\u0cbe\u0c82\u0c95\u0cc1", "short_name": "ICICI", "website": "https://www.icicibank.com", "wheelchair": "no"}}, {"type": "node", "id": 1614268192, "lat": 12.9868232, "lon": 77.5800176, "tags": {"amenity": "restaurant", "name": "Richie-Rich", "name:kn": "\u0cb0\u0cbf\u0c9a\u0cc0-\u0cb0\u0cbf\u0c9a\u0ccd"}}, {"type": "node", "id": 1614268199, "lat": 12.9867564, "lon": 77.5795592, "tags": {"addr:housename": "Shivananda General Stores Complex", "addr:street": "Kumarakripa East", "name": "Shivananda Stores", "shop": "convenience"}}, {"type": "node", "id": 1614268204, "lat": 12.9881907, "lon": 77.5808217, "tags": {"check_date": "2024-12-15"}}, {"type": "node", "id": 1614366545, "lat": 12.9885341, "lon": 77.5770137, "tags": {"amenity": "cafe", "brand": "Cafe Coffee Day", "brand:wikidata": "Q5017235", "cuisine": "coffee_shop", "name": "Cafe Coffee Day", "name:kn": "\u0c95\u0cab\u0cc6 \u0c95\u0cbe\u0cab\u0cbf \u0ca1\u0cc7", "takeaway": "yes", "website": "https://www.cafecoffeeday.com/", "wheelchair": "no"}}, {"type": "node", "id": 1614366547, "lat": 12.9883033, "lon": 77.5774436, "tags": {"amenity": "fuel", "brand": "Bharat Petroleum", "brand:wikidata": "Q854826", "name": "Bharat Petroleum", "name:kn": "\u0cad\u0cbe\u0cb0\u0ca4\u0ccd \u0caa\u0cc6\u0c9f\u0ccd\u0cb0\u0ccb\u0cb2\u0cbf\u0caf\u0c82", "wheelchair": "yes"}}, {"type": "node", "id": 1617398438, "lat": 12.9909647, "lon": 77.5748146, "tags": {"amenity": "bank", "atm": "yes", "brand": "Canara Bank", "brand:en": "Canara Bank", "brand:hi": "\u0915\u0947\u0928\u0930\u093e \u092c\u0948\u0902\u0915", "brand:kn": "\u0c95\u0cc6\u0ca8\u0cb0\u0cbe \u0cac\u0ccd\u0caf\u0cbe\u0c82\u0c95\u0ccd", "brand:pa": "\u0a15\u0a47\u0a28\u0a30\u0a3e \u0a2c\u0a48\u0a02\u0a15", "brand:pnb": "\u06a9\u06cc\u0646\u0631\u0627 \u0628\u06cc\u0646\u06a9", "brand:ur": "\u06a9\u06cc\u0646\u0631\u0627 \u0628\u06cc\u0646\u06a9", "brand:wikidata": "Q2003777", "brand:wikipedia": "en:Canara Bank", "brand:wikipedia:pa": "\u0a15\u0a47\u0a28\u0a30\u0a3e \u0a2c\u0a48\u0a02\u0a15", "name": "Canara Bank", "name:en": "Canara Bank", "name:hi": "\u0915\u0947\u0928\u0930\u093e \u092c\u0948\u0902\u0915", "name:kn": "\u0c95\u0cc6\u0ca8\u0cb0\u0cbe \u0cac\u0ccd\u0caf\u0cbe\u0c82\u0c95\u0ccd", "name:pa": "\u0a15\u0a47\u0a28\u0a30\u0a3e \u0a2c\u0a48\u0a02\u0a15", "name:pnb": "\u06a9\u06cc\u0646\u0631\u0627 \u0628\u06cc\u0646\u06a9", "name:ur": "\u06a9\u06cc\u0646\u0631\u0627 \u0628\u06cc\u0646\u06a9", "website": "https://www.canarabank.com/"}}, {"type": "node", "id": 1617398461, "lat": 12.9554704, "lon": 77.5801737, "tags": {"amenity": "restaurant", "cuisine": "indian", "name": "Kamat Minerva", "name:kn": "\u0c95\u0cbe\u0cae\u0ca4\u0ccd \u0cae\u0cbf\u0ca8\u0cb0\u0ccd\u0cb5"}}, {"type": "node", "id": 1617398469, "lat": 12.9926441, "lon": 77.5742046, "tags": {"addr:city": "bangalore", "addr:district": "Bengaluru Urban", "addr:full": "No.67,Link Road,Sheshadripuram", "addr:housenumber": "67", "addr:postcode": "560020", "addr:state": "Karnataka", "addr:street": "Link Rd, Malleswaram, Jai Bheema Nagar, Seshadripuram", "amenity": "hospital", "healthcare": "hospital", "name": "Sri Maruthi hospital, Sheshadripuram", "phone": "080 2344 9632", "source": "OpenGovernmentData"}}, {"type": "node", "id": 1617398472, "lat": 12.9877001, "lon": 77.5782687, "tags": {"amenity": "restaurant", "name": "Park-n-Eat", "name:kn": "\u0caa\u0cbe\u0cb0\u0ccd\u0c95\u0ccd-\u0c8e\u0ca8\u0ccd-\u0c88\u0c9f\u0ccd", "wheelchair": "no"}}, {"type": "node", "id": 1617398481, "lat": 12.9596642, "lon": 77.5829322, "tags": {"amenity": "fuel", "brand": "BP"}}, {"type": "node", "id": 1631479675, "lat": 12.9775215, "lon": 77.5706594}, {"type": "node", "id": 1632708776, "lat": 12.9635923, "lon": 77.5735617}, {"type": "node", "id": 1632708781, "lat": 12.9609064, "lon": 77.5720128}, {"type": "node", "id": 1632708784, "lat": 12.9610663, "lon": 77.5733989}, {"type": "node", "id": 1632708796, "lat": 12.9609362, "lon": 77.5720543}, {"type": "node", "id": 1632708808, "lat": 12.9613103, "lon": 77.5722069}, {"type": "node", "id": 1632708811, "lat": 12.9611323, "lon": 77.5719575}, {"type": "node", "id": 1632708861, "lat": 12.9618872, "lon": 77.5734058}, {"type": "node", "id": 1632708866, "lat": 12.961672, "lon": 77.5733164}, {"type": "node", "id": 1632708889, "lat": 12.9634706, "lon": 77.57357}, {"type": "node", "id": 1632708898, "lat": 12.9633993, "lon": 77.5735928}, {"type": "node", "id": 1632708906, "lat": 12.9616998, "lon": 77.5735952}, {"type": "node", "id": 1632708925, "lat": 12.9637386, "lon": 77.5737248}, {"type": "node", "id": 1632708928, "lat": 12.9619056, "lon": 77.573637}, {"type": "node", "id": 1632708934, "lat": 12.9636543, "lon": 77.5735268}, {"type": "node", "id": 1632708941, "lat": 12.9633974, "lon": 77.5736089}, {"type": "node", "id": 1632708947, "lat": 12.9615975, "lon": 77.5732888}, {"type": "node", "id": 1632708951, "lat": 12.9614968, "lon": 77.5732328}, {"type": "node", "id": 1632708968, "lat": 12.9634411, "lon": 77.5735601}, {"type": "node", "id": 1632708973, "lat": 12.9609748, "lon": 77.5720251}, {"type": "node", "id": 1632708976, "lat": 12.9611299, "lon": 77.5735103}, {"type": "node", "id": 1632709009, "lat": 12.9610084, "lon": 77.5726205}, {"type": "node", "id": 1632709017, "lat": 12.9615949, "lon": 77.5735579}, {"type": "node", "id": 1632709027, "lat": 12.9613888, "lon": 77.5741417}, {"type": "node", "id": 1632709048, "lat": 12.9633443, "lon": 77.5737318}, {"type": "node", "id": 1632709052, "lat": 12.9614382, "lon": 77.573406}, {"type": "node", "id": 1632709056, "lat": 12.9634811, "lon": 77.573582}, {"type": "node", "id": 1632709065, "lat": 12.9613965, "lon": 77.572327}, {"type": "node", "id": 1632709074, "lat": 12.960893, "lon": 77.5721517}, {"type": "node", "id": 1632709078, "lat": 12.9609988, "lon": 77.5720585}, {"type": "node", "id": 1632709079, "lat": 12.9611431, "lon": 77.5719724}, {"type": "node", "id": 1632709086, "lat": 12.9634018, "lon": 77.5736268}, {"type": "node", "id": 1632709091, "lat": 12.9619383, "lon": 77.5734103}, {"type": "node", "id": 1632709096, "lat": 12.9617719, "lon": 77.5735024}, {"type": "node", "id": 1632709098, "lat": 12.963528, "lon": 77.5738818}, {"type": "node", "id": 1632709106, "lat": 12.9611219, "lon": 77.5721183}, {"type": "node", "id": 1632709111, "lat": 12.9632805, "lon": 77.5739684}, {"type": "node", "id": 1632709127, "lat": 12.9634181, "lon": 77.5735675}, {"type": "node", "id": 1632709139, "lat": 12.9631721, "lon": 77.5737306}, {"type": "node", "id": 1632709141, "lat": 12.9632032, "lon": 77.5737886}, {"type": "node", "id": 1632709144, "lat": 12.9615532, "lon": 77.5734148}, {"type": "node", "id": 1632709146, "lat": 12.9608908, "lon": 77.572297}, {"type": "node", "id": 1632709151, "lat": 12.963591, "lon": 77.5737667}, {"type": "node", "id": 1632709163, "lat": 12.9632317, "lon": 77.5739593}, {"type": "node", "id": 1632709170, "lat": 12.9618173, "lon": 77.5741956}, {"type": "node", "id": 1632709175, "lat": 12.9632677, "lon": 77.573775}, {"type": "node", "id": 1632709181, "lat": 12.961012, "lon": 77.5724621}, {"type": "node", "id": 1632709198, "lat": 12.9634884, "lon": 77.5735951}, {"type": "node", "id": 1632709210, "lat": 12.9614134, "lon": 77.5734345}, {"type": "node", "id": 1632709213, "lat": 12.9618153, "lon": 77.5733792}, {"type": "node", "id": 1632709223, "lat": 12.9618579, "lon": 77.5737696}, {"type": "node", "id": 1632709230, "lat": 12.961258, "lon": 77.5738403}, {"type": "node", "id": 1632709263, "lat": 12.9634798, "lon": 77.5735144}, {"type": "node", "id": 1632709265, "lat": 12.9635149, "lon": 77.5735802}, {"type": "node", "id": 1632709272, "lat": 12.9615343, "lon": 77.5734966}, {"type": "node", "id": 1632709273, "lat": 12.9634065, "lon": 77.5735785}, {"type": "node", "id": 1632709285, "lat": 12.9632948, "lon": 77.5736392}, {"type": "node", "id": 1632709327, "lat": 12.9617111, "lon": 77.573562}, {"type": "node", "id": 1632709348, "lat": 12.9637216, "lon": 77.5736931}, {"type": "node", "id": 1632709354, "lat": 12.9616277, "lon": 77.5734424}, {"type": "node", "id": 1632709372, "lat": 12.9636224, "lon": 77.573467}, {"type": "node", "id": 1632709374, "lat": 12.9634077, "lon": 77.5736406}, {"type": "node", "id": 1632709375, "lat": 12.961969, "lon": 77.5733195}, {"type": "node", "id": 1632709376, "lat": 12.9633609, "lon": 77.5739231}, {"type": "node", "id": 1632709386, "lat": 12.9611334, "lon": 77.5739135}, {"type": "node", "id": 1632709394, "lat": 12.9612431, "lon": 77.5722834}, {"type": "node", "id": 1632709403, "lat": 12.9634257, "lon": 77.5735635}, {"type": "node", "id": 1632709422, "lat": 12.9612609, "lon": 77.5735601}, {"type": "node", "id": 1632709424, "lat": 12.9633727, "lon": 77.5736603}, {"type": "node", "id": 1632709425, "lat": 12.9612827, "lon": 77.5733848}, {"type": "node", "id": 1632709439, "lat": 12.9618438, "lon": 77.573529}, {"type": "node", "id": 1632709440, "lat": 12.9635468, "lon": 77.5734767}, {"type": "node", "id": 1632709442, "lat": 12.9638365, "lon": 77.5736696}, {"type": "node", "id": 1632709444, "lat": 12.9637036, "lon": 77.5734212}, {"type": "node", "id": 1632709474, "lat": 12.9608586, "lon": 77.5720489}, {"type": "node", "id": 1632709477, "lat": 12.9608893, "lon": 77.5720917}, {"type": "node", "id": 1632709511, "lat": 12.9610247, "lon": 77.573802}, {"type": "node", "id": 1632709513, "lat": 12.9611249, "lon": 77.573937}, {"type": "node", "id": 1632709549, "lat": 12.9617947, "lon": 77.5735918}, {"type": "node", "id": 1632709550, "lat": 12.9631549, "lon": 77.5738158}, {"type": "node", "id": 1632709559, "lat": 12.9618927, "lon": 77.573673}, {"type": "node", "id": 1632709561, "lat": 12.9617574, "lon": 77.5740375}, {"type": "node", "id": 1632709565, "lat": 12.9615834, "lon": 77.5731822}, {"type": "node", "id": 1632709569, "lat": 12.9619709, "lon": 77.5734219}, {"type": "node", "id": 1632709571, "lat": 12.9615515, "lon": 77.5734447}, {"type": "node", "id": 1632709574, "lat": 12.9614219, "lon": 77.5740498}, {"type": "node", "id": 1632709576, "lat": 12.9613585, "lon": 77.5735723}, {"type": "node", "id": 1632709577, "lat": 12.9634567, "lon": 77.5735624}, {"type": "node", "id": 1632709578, "lat": 12.9636238, "lon": 77.5738279}, {"type": "node", "id": 1632709594, "lat": 12.9608638, "lon": 77.572111}, {"type": "node", "id": 1632709611, "lat": 12.9614809, "lon": 77.5740678}, {"type": "node", "id": 1632709618, "lat": 12.9634922, "lon": 77.5738149}, {"type": "node", "id": 1632709626, "lat": 12.9633469, "lon": 77.5738968}, {"type": "node", "id": 1632709641, "lat": 12.9616069, "lon": 77.5735225}, {"type": "node", "id": 1632709654, "lat": 12.9613956, "lon": 77.573484}, {"type": "node", "id": 1632709661, "lat": 12.9615588, "lon": 77.5732549}, {"type": "node", "id": 1632709688, "lat": 12.9620052, "lon": 77.5736748}, {"type": "node", "id": 1632709691, "lat": 12.9609333, "lon": 77.5737673}, {"type": "node", "id": 1632709699, "lat": 12.9607496, "lon": 77.5722602}, {"type": "node", "id": 1632709701, "lat": 12.9614463, "lon": 77.5741635}, {"type": "node", "id": 1632709704, "lat": 12.9632273, "lon": 77.5736995}, {"type": "node", "id": 1632709707, "lat": 12.9618108, "lon": 77.5735443}, {"type": "node", "id": 1632709717, "lat": 12.9619168, "lon": 77.5735821}, {"type": "node", "id": 1632709722, "lat": 12.9632654, "lon": 77.5739403}, {"type": "node", "id": 1632709734, "lat": 12.963346, "lon": 77.5736104}, {"type": "node", "id": 1632709738, "lat": 12.9612522, "lon": 77.5734695}, {"type": "node", "id": 1636730954, "lat": 12.9786182, "lon": 77.5799462}, {"type": "node", "id": 1636730958, "lat": 12.9782535, "lon": 77.5799774}, {"type": "node", "id": 1636730971, "lat": 12.9783606, "lon": 77.5800593}, {"type": "node", "id": 1636730973, "lat": 12.9786348, "lon": 77.5797001}, {"type": "node", "id": 1636730975, "lat": 12.9781823, "lon": 77.5797234, "tags": {"addr:city": "Be\u1e45ga\u1e37\u016bru", "addr:neighborhood": "G\u0101ndhinagara", "addr:postcode": "560009", "alt_name:en": "Shri Udupi", "amenity": "restaurant", "cuisine": "indian", "diet:vegetarian": "yes", "name": "\u015ar\u012b U\u1e0dupi", "name:en": "U\u1e0dupi Grand", "name:es": "Gran U\u1e0dupi", "name:kn": "\u0cb6\u0ccd\u0cb0\u0cc0 \u0c89\u0ca1\u0cc1\u0caa\u0cbf", "phone": "+919591875013", "website": "https://www.kanishkagrand.in/restaurant/"}}, {"type": "node", "id": 1636730987, "lat": 12.9781305, "lon": 77.580055}, {"type": "node", "id": 1636731035, "lat": 12.9786761, "lon": 77.579747}, {"type": "node", "id": 1636731043, "lat": 12.9789423, "lon": 77.5797219}, {"type": "node", "id": 1636731061, "lat": 12.9788516, "lon": 77.5798788}, {"type": "node", "id": 1636731068, "lat": 12.9786681, "lon": 77.5798658}, {"type": "node", "id": 1636731069, "lat": 12.9782673, "lon": 77.5797565}, {"type": "node", "id": 1636731072, "lat": 12.9780845, "lon": 77.5800401}, {"type": "node", "id": 1636731084, "lat": 12.9789257, "lon": 77.579968}, {"type": "node", "id": 1636731086, "lat": 12.9788596, "lon": 77.5797601}, {"type": "node", "id": 1636731090, "lat": 12.978139, "lon": 77.5797481}, {"type": "node", "id": 1636731096, "lat": 12.9782891, "lon": 77.5801671}, {"type": "node", "id": 1636731108, "lat": 12.9780931, "lon": 77.5799016}, {"type": "node", "id": 1636731110, "lat": 12.9781293, "lon": 77.579904}, {"type": "node", "id": 1637588134, "lat": 12.9780729, "lon": 77.579383, "tags": {"addr:city": "Be\u1e45ga\u1e37\u016bru", "addr:neighborhood": "G\u0101m\u0310dh\u012bngar", "addr:state": "KA", "email": "goldenresidency@gmail.com", "facebook": "https://www.facebook.com/people/Golden-Residency/100083489050660/", "internet_access": "wlan", "internet_access:fee": "customers", "name": "Golden Residency", "name:es": "Residencia Golden", "name:fr": "R\u00e9sidence Golden", "name:it": "Residenza Golden", "name:pt": "Resid\u00eancia Golden", "phone": "+91 80 4147 6435", "tourism": "hotel"}}, {"type": "node", "id": 1637588143, "lat": 12.9775086, "lon": 77.5793777, "tags": {"name": "Hotel Kanthi Comforts", "tourism": "hotel"}}, {"type": "node", "id": 1644358679, "lat": 12.9891068, "lon": 77.5938601, "tags": {"addr:street": "Millers Tank Bund Road", "amenity": "restaurant", "cuisine": "chinese", "name": "Chung's", "name:kn": "\u0c9a\u0cc1\u0c82\u0c97\u0ccd\u0cb8\u0ccd", "toilets:wheelchair": "no", "wheelchair": "no"}}, {"type": "node", "id": 1652785557, "lat": 12.9655419, "lon": 77.5898511, "tags": {"amenity": "restaurant", "name": "V T Paradise", "name:kn": "\u0cb5\u0cbf \u0c9f\u0cbf \u0caa\u0ccd\u0caf\u0cbe\u0cb0\u0ca1\u0cc8\u0cb8\u0ccd"}}, {"type": "node", "id": 1652785560, "lat": 12.9654789, "lon": 77.5898062}, {"type": "node", "id": 1652785561, "lat": 12.9654334, "lon": 77.5901013}, {"type": "node", "id": 1653909253, "lat": 12.9656255, "lon": 77.5895554, "tags": {"name": "Hotel Geo", "tourism": "hotel"}}, {"type": "node", "id": 1666861677, "lat": 12.9668886, "lon": 77.5993311, "tags": {"amenity": "bank", "brand": "Bank of Baroda", "brand:wikidata": "Q2003797", "level": "1", "name": "Bank of Baroda"}}, {"type": "node", "id": 1671637200, "lat": 12.9937551, "lon": 77.5866721}, {"type": "node", "id": 1671637253, "lat": 12.9937668, "lon": 77.5854189}, {"type": "node", "id": 1675540997, "lat": 12.9721761, "lon": 77.6009542, "tags": {"air_conditioning": "yes", "amenity": "restaurant", "cuisine": "indian;south_indian", "image:menu": "70c55938-e8b8-4402-a92a-1cde6835dbc5", "image:menu:0": "f51179b5-d1f6-4d4a-b540-0194e846ffe7", "level": "0", "name": "Mavalli Tiffin Rooms", "name:kn": "\u0cae\u0cbe\u0cb5\u0cb3\u0ccd\u0cb3\u0cbf \u0c9f\u0cbf\u0cab\u0cbf\u0ca8\u0ccd \u0cb0\u0cc2\u0cae\u0ccd\u0cb8\u0ccd", "short_name": "MTR", "toilets:access": "permissive", "toilets:wheelchair": "no", "wheelchair": "limited", "wikimedia_commons": "Category:Mavalli_Tiffin_Room,_Saint_Mark's_Road,_Bangalore"}}, {"type": "node", "id": 1707859842, "lat": 12.9909455, "lon": 77.5958665}, {"type": "node", "id": 1707859882, "lat": 12.9907333, "lon": 77.5954875}, {"type": "node", "id": 1707859921, "lat": 12.9918553, "lon": 77.5955229}, {"type": "node", "id": 1707859950, "lat": 12.9923661, "lon": 77.5951738}, {"type": "node", "id": 1707859953, "lat": 12.9911737, "lon": 77.5952278}, {"type": "node", "id": 1707859980, "lat": 12.9912181, "lon": 77.5957058}, {"type": "node", "id": 1707859982, "lat": 12.9911544, "lon": 77.595592}, {"type": "node", "id": 1707860004, "lat": 12.9913222, "lon": 77.5954931}, {"type": "node", "id": 1722589278, "lat": 12.9830301, "lon": 77.5943718, "tags": {"addr:postcode": "560001", "addr:street": "Infantry Road", "amenity": "restaurant", "diet:vegetarian": "only", "name": "Nisarga", "name:kn": "\u0ca8\u0cbf\u0cb8\u0cb0\u0ccd\u0c97"}}, {"type": "node", "id": 1739362236, "lat": 12.9647429, "lon": 77.5849317},