name,category,latitude,longitude,source,amenity,atm,brand,brand:wikidata,name:en,operator,website,addr:city,addr:postcode,addr:street,phone,tourism,created_by,check_date,healthcare,short_name,cuisine,diet:vegetarian,outdoor_seating,parking,access,fee,diet:vegan,disused,bus,public_transport,shop,internet_access,ele,source:ele,addr:country,addr:housenumber,addr:place,email,phone2,phone3,fax,wheelchair,addr:block,addr:streetname,addr:suburb,name:bn,name:hi,stars,tables,name:ur,addr:state,internet_access:fee,name:ru,opening_hours,name:es,wikidata,wikimedia_commons,wikipedia,addr:unit,contact:mobile,level,start_date,addr:housename,brand:pa,brand:ur,brand:wikipedia,name:pa,official_name,official_name:pa,official_name:ur,takeaway,compressed_air,survey:date,contact:phone,reservation,service:electricity,air_conditioning,delivery,capacity,addr:full,indoor_seating,name:fr,smoking,cash_withdrawal,branch,brand:short,addr:district,bar,internet_access:ssid,mobile,payment:cash,payment:mastercard,payment:neft,payment:upi,payment:visa,payment:wire_transfer,rooms,name:ca,name:fa,brand:en,brand:hi,brand:kn,brand:pnb,brand:wikipedia:pa,description,name:kn,name:pnb,name:ko,name:de,alt_name,name:ar,addr:neighbourhood,contact:facebook,diet:lactose_free,image:menu,image:menu:0,image:menu:1,image:menu:2,image:menu:3,image:menu:4,image:menu:5,image:menu:6,image:menu:7,panoramax,panoramax:0,panoramax:1,panoramax:2,payment:credit_cards,payment:debit_cards,toilets,toilets:access,toilets:fee,toilets:level,toilets:wheelchair,note,fuel:cng,diet:lacto_vegetarian,name:ml,name:nl,branch:hi,alcohol,drink:beer,drink:vodka,drink:wine,drink:coffee,drink:tea,self_service,payment:cards,payment:qr_code,name:he,branch:type,contact:email,contact:instagram,contact:website,drink:shake,seats,indoor,operator:wikidata,drink:hot_chocolate,name:etymology:wikidata,contact:nodal_officer_email,contact:nodal_officer_mobile,short_name:ur,organic,fuel:diesel,fuel:petrol,opening_hours:covid19,operator:type,brand:website,diet:halal,image,bench,shelter,internet_access:type,fixme,opening_hours:kitchen,diet:ovo_vegetarian,drink:alcohol,changing_table,diet:sugar_free,dog,toilets:gender_segregated,toilets:hands_drying,toilets:handwashing,construction,religion,noname,drive_through,addr:floor,ref,isced:level,addr:door,bulk_purchase,baby_feeding,min_age,short_name:de,barrier,nohousenumber,school:gender,building,designation,beds,emergency,country,landuse,supervised,area,network,grades,building:levels,roof:shape,addr:city:ur,layer,depot,tourist_bus,payment:google_pay,payment:notes,payment:paytm,building:part,capacity:disabled,surface,smoothness,lit,roof:colour,denomination,addr:interpolation,swimming_pool,education,type,category_group,rating,footfall_estimate,population_nearby,point_geometry
Axis Bank,bank,28.64725,77.194235,osm,bank,yes,Axis Bank,Q2003549,Axis Bank,Canara Bank,https://www.axisbank.com,,,,,,,,,,,,,,,,,,,,,,,,,,,,,,,,,,,,,,,,,,,,,,,,,,,,,,,,,,,,,,,,,,,,,,,,,,,,,,,,,,,,,,,,,,,,,,,,,,,,,,,,,,,,,,,,,,,,,,,,,,,,,,,,,,,,,,,,,,,,,,,,,,,,,,,,,,,,,,,,,,,,,,,,,,,,,,,,,,,,,,,,,,,,,,,,,,,,,,,,,,,,,,,,,,,,,,,,,,,finance,,,,POINT (77.194235 28.64725)
The Ambassador,hotel,28.6017391,77.228846,osm,,,,,,Vivanta by Taj,https://www.vivantabytaj.com/Ambassador-New-Delhi/Overview.html,New Delhi,110003,Subramania Bharti Marg,+91 11 6626 1000,hotel,,,,,,,,,,,,,,,,,,,,,,,,,,,,,,,,,,,,,,,,,,,,,,,,,,,,,,,,,,,,,,,,,,,,,,,,,,,,,,,,,,,,,,,,,,,,,,,,,,,,,,,,,,,,,,,,,,,,,,,,,,,,,,,,,,,,,,,,,,,,,,,,,,,,,,,,,,,,,,,,,,,,,,,,,,,,,,,,,,,,,,,,,,,,,,,,,,,,,,,,,,,,,,,,,,,,,,hospitality,,,,POINT (77.228846 28.6017391)
Unknown,restaurant,28.6069461,77.2299189,osm,restaurant,,,,,,,,,,,,Potlatch 0.10f,,,,,,,,,,,,,,,,,,,,,,,,,,,,,,,,,,,,,,,,,,,,,,,,,,,,,,,,,,,,,,,,,,,,,,,,,,,,,,,,,,,,,,,,,,,,,,,,,,,,,,,,,,,,,,,,,,,,,,,,,,,,,,,,,,,,,,,,,,,,,,,,,,,,,,,,,,,,,,,,,,,,,,,,,,,,,,,,,,,,,,,,,,,,,,,,,,,,,,,,,,,,,,,,,,,,,restaurant,,,,POINT (77.2299189 28.6069461)
Unknown,bus_station,28.6108671,77.2516076,osm,bus_station,,,,,,,,,,,,,,,,,,,,,,,,,,,,,,,,,,,,,,,,,,,,,,,,,,,,,,,,,,,,,,,,,,,,,,,,,,,,,,,,,,,,,,,,,,,,,,,,,,,,,,,,,,,,,,,,,,,,,,,,,,,,,,,,,,,,,,,,,,,,,,,,,,,,,,,,,,,,,,,,,,,,,,,,,,,,,,,,,,,,,,,,,,,,,,,,,,,,,,,,,,,,,,,,,,,,,,,,,,,,,,,,,other,,,,POINT (77.2516076 28.6108671)
Indian Oil,fuel,28.6175988,77.2497911,osm,fuel,,Indian Oil,Q1289348,,,,,,,,,,,,,,,,,,,,,,,,,,,,,,,,,,,,,,,,,,,,,,,,,,,,,,,,,,,,,,,,,,,,,,,,,,,,,,,,,,,,,,,,,,,,,,,,,,,,,,,,,,,,,,,,,,,,,,,,,,,,,,,,,,,,,,,,,,,,,,,,,,,,,,,,,,,,,,,,,,,,,,,,,,,,,,,,,,,,,,,,,,,,,,,,,,,,,,,,,,,,,,,,,,,,,,,,,,,,,,other,,,,POINT (77.2497911 28.6175988)
Indraprastha Gas Limited,fuel,28.6186155,77.2493074,osm,fuel,,IGL,Q125553945,,,,,,,,,,,,,,,,,,,,,,,,,,,,,,,,,,,,,,,,,,,,,,,,,,,,,,,,,,,,,,,,,,,,,,,,,,,,,,,,,,,,,,,,,,,,,,,,,,,,,,,,,,,,,,,,,,,,,,,,,,,,,,,,,,,,,,,,,,,,,,,,,,,,,,,,,,,,,,,,,,,,,,,,,,,,,,,,,,,,,,,,,,,,,,,,,,,,,,,,,,,,,,,,,,,,,,,,,,,,,,other,,,,POINT (77.2493074 28.6186155)
Unknown,parking,28.6669732,77.2267137,osm,parking,,,,,,,,,,,,,,,,,,,,,,,,,,,,,,,,,,,,,,,,,,,,,,,,,,,,,,,,,,,,,,,,,,,,,,,,,,,,,,,,,,,,,,,,,,,,,,,,,,,,,,,,,,,,,,,,,,,,,,,,,,,,,,,,,,,,,,,,,,,,,,,,,,,,,,,,,,,,,,,,,,,,,,,,,,,,,,,,,,,,,,,,,,,,,,,,,,,,,,,,,,,,,,,,,,,,,,,,,,,,,,,,,other,,,,POINT (77.2267137 28.6669732)
Unknown,other,28.5962679,77.177701,osm,school,,,,,,,,,,,,,,,,,,,,,,,,,,,,,,,,,,,,,,,,,,,,,,,,,,,,,,,,,,,,,,,,,,,,,,,,,,,,,,,,,,,,,,,,,,,,,,,,,,,,,,,,,,,,,,,,,,,,,,,,,,,,,,,,,,,,,,,,,,,,,,,,,,,,,,,,,,,,,,,,,,,,,,,,,,,,,,,,,,,,,,,,,,,,,,,,,,,,,,,,,,,,,,,,,,,,,,,,,,,,,,,,,other,,,,POINT (77.177701 28.5962679)
Unknown,fuel,28.6633196,77.2185803,osm,fuel,,,,,,,,,,,,,,,,,,,,,,,,,,,,,,,,,,,,,,,,,,,,,,,,,,,,,,,,,,,,,,,,,,,,,,,,,,,,,,,,,,,,,,,,,,,,,,,,,,,,,,,,,,,,,,,,,,,,,,,,,,,,,,,,,,,,,,,,,,,,,,,,,,,,,,,,,,,,,,,,,,,,,,,,,,,,,,,,,,,,,,,,,,,,,,,,,,,,,,,,,,,,,,,,,,,,,,,,,,,,,,,,,other,,,,POINT (77.2185803 28.6633196)
Yatri Guesthouse,hotel,28.6422845,77.2053386,osm,,,,,,,,,,,,hotel,,,,,,,,,,,,,,,,,,,,,,,,,,,,,,,,,,,,,,,,,,,,,,,,,,,,,,,,,,,,,,,,,,,,,,,,,,,,,,,,,,,,,,,,,,,,,,,,,,,,,,,,,,,,,,,,,,,,,,,,,,,,,,,,,,,,,,,,,,,,,,,,,,,,,,,,,,,,,,,,,,,,,,,,,,,,,,,,,,,,,,,,,,,,,,,,,,,,,,,,,,,,,,,,,,,,,,hospitality,,,,POINT (77.2053386 28.6422845)
Delhi Heart and Lung Institute Super Speciality Hospital,other,28.6416777,77.2052683,osm,hospital,,,,,,,,,,,,,2024-04-12,hospital,DHLI,,,,,,,,,,,,,,,,,,,,,,,,,,,,,,,,,,,,,,,,,,,,,,,,,,,,,,,,,,,,,,,,,,,,,,,,,,,,,,,,,,,,,,,,,,,,,,,,,,,,,,,,,,,,,,,,,,,,,,,,,,,,,,,,,,,,,,,,,,,,,,,,,,,,,,,,,,,,,,,,,,,,,,,,,,,,,,,,,,,,,,,,,,,,,,,,,,,,,,,,,,,,,,,,,,other,,,,POINT (77.2052683 28.6416777)
Hotel Metropolis,restaurant,28.6407045,77.2105994,osm,restaurant,,,,,,,,,,,hotel,,,,,international,yes,yes,,,,,,,,,,,,,,,,,,,,,,,,,,,,,,,,,,,,,,,,,,,,,,,,,,,,,,,,,,,,,,,,,,,,,,,,,,,,,,,,,,,,,,,,,,,,,,,,,,,,,,,,,,,,,,,,,,,,,,,,,,,,,,,,,,,,,,,,,,,,,,,,,,,,,,,,,,,,,,,,,,,,,,,,,,,,,,,,,,,,,,,,,,,,,,,,,,,,,,,,,,,,,,,restaurant,,,,POINT (77.2105994 28.6407045)
Unknown,parking,28.6324431,77.2212149,osm,parking,,,,,,,,,,,,,,,,,,,surface,,,,,,,,,,,,,,,,,,,,,,,,,,,,,,,,,,,,,,,,,,,,,,,,,,,,,,,,,,,,,,,,,,,,,,,,,,,,,,,,,,,,,,,,,,,,,,,,,,,,,,,,,,,,,,,,,,,,,,,,,,,,,,,,,,,,,,,,,,,,,,,,,,,,,,,,,,,,,,,,,,,,,,,,,,,,,,,,,,,,,,,,,,,,,,,,,,,,,,,,,,,,,,other,,,,POINT (77.2212149 28.6324431)
Unknown,parking,28.6318154,77.2207988,osm,parking,,,,,,,,,,,,,,,,,,,surface,,,,,,,,,,,,,,,,,,,,,,,,,,,,,,,,,,,,,,,,,,,,,,,,,,,,,,,,,,,,,,,,,,,,,,,,,,,,,,,,,,,,,,,,,,,,,,,,,,,,,,,,,,,,,,,,,,,,,,,,,,,,,,,,,,,,,,,,,,,,,,,,,,,,,,,,,,,,,,,,,,,,,,,,,,,,,,,,,,,,,,,,,,,,,,,,,,,,,,,,,,,,,,other,,,,POINT (77.2207988 28.6318154)
Unknown,parking,28.6315957,77.2204152,osm,parking,,,,,,,,,,,,,,,,,,,surface,,,,,,,,,,,,,,,,,,,,,,,,,,,,,,,,,,,,,,,,,,,,,,,,,,,,,,,,,,,,,,,,,,,,,,,,,,,,,,,,,,,,,,,,,,,,,,,,,,,,,,,,,,,,,,,,,,,,,,,,,,,,,,,,,,,,,,,,,,,,,,,,,,,,,,,,,,,,,,,,,,,,,,,,,,,,,,,,,,,,,,,,,,,,,,,,,,,,,,,,,,,,,,other,,,,POINT (77.2204152 28.6315957)
Unknown,parking,28.633774,77.2186316,osm,parking,,,,,,,,,,,,,,,,,,,surface,yes,yes,,,,,,,,,,,,,,,,,,,,,,,,,,,,,,,,,,,,,,,,,,,,,,,,,,,,,,,,,,,,,,,,,,,,,,,,,,,,,,,,,,,,,,,,,,,,,,,,,,,,,,,,,,,,,,,,,,,,,,,,,,,,,,,,,,,,,,,,,,,,,,,,,,,,,,,,,,,,,,,,,,,,,,,,,,,,,,,,,,,,,,,,,,,,,,,,,,,,,,,,,,,,other,,,,POINT (77.2186316 28.633774)
Unknown,parking,28.6340848,77.2195757,osm,parking,,,,,,,,,,,,,,,,,,,surface,yes,yes,,,,,,,,,,,,,,,,,,,,,,,,,,,,,,,,,,,,,,,,,,,,,,,,,,,,,,,,,,,,,,,,,,,,,,,,,,,,,,,,,,,,,,,,,,,,,,,,,,,,,,,,,,,,,,,,,,,,,,,,,,,,,,,,,,,,,,,,,,,,,,,,,,,,,,,,,,,,,,,,,,,,,,,,,,,,,,,,,,,,,,,,,,,,,,,,,,,,,,,,,,,,other,,,,POINT (77.2195757 28.6340848)
Piccadelhi,restaurant,28.635243,77.2196937,osm,restaurant,,,,,,,,,,,,,,,,,yes,,,,,yes,yes,,,,,,,,,,,,,,,,,,,,,,,,,,,,,,,,,,,,,,,,,,,,,,,,,,,,,,,,,,,,,,,,,,,,,,,,,,,,,,,,,,,,,,,,,,,,,,,,,,,,,,,,,,,,,,,,,,,,,,,,,,,,,,,,,,,,,,,,,,,,,,,,,,,,,,,,,,,,,,,,,,,,,,,,,,,,,,,,,,,,,,,,,,,,,,,,,,,,,,,,,,restaurant,,,,POINT (77.2196937 28.635243)
Parliament Visitor Parking,parking,28.6162015,77.2100168,osm,parking,,,,,,,New Delhi,,,,,,,,,,,,,,,,,,,,,,,,,,,,,,,,,,,,,,,,,,,,,,,,,,,,,,,,,,,,,,,,,,,,,,,,,,,,,,,,,,,,,,,,,,,,,,,,,,,,,,,,,,,,,,,,,,,,,,,,,,,,,,,,,,,,,,,,,,,,,,,,,,,,,,,,,,,,,,,,,,,,,,,,,,,,,,,,,,,,,,,,,,,,,,,,,,,,,,,,,,,,,,,,,,,,,,,,,,other,,,,POINT (77.2100168 28.6162015)
Mori Gate Bus Terminal,bus_station,28.6683615,77.2251757,osm,bus_station,,,,,,,,,,,,,,,,,,,,,,,,yes,station,,,,,,,,,,,,,,,,,,,,,,,,,,,,,,,,,,,,,,,,,,,,,,,,,,,,,,,,,,,,,,,,,,,,,,,,,,,,,,,,,,,,,,,,,,,,,,,,,,,,,,,,,,,,,,,,,,,,,,,,,,,,,,,,,,,,,,,,,,,,,,,,,,,,,,,,,,,,,,,,,,,,,,,,,,,,,,,,,,,,,,,,,,,,,,,,,,,,,,,,other,,,,POINT (77.2251757 28.6683615)
Hotel Tara Palace,hotel,28.6534876,77.2345124,osm,,,,,,,,,110006,,,hotel,,,,,,,,,,,,,,,,,,,,,,,,,,,,,,,,,,,,,,,,,,,,,,,,,,,,,,,,,,,,,,,,,,,,,,,,,,,,,,,,,,,,,,,,,,,,,,,,,,,,,,,,,,,,,,,,,,,,,,,,,,,,,,,,,,,,,,,,,,,,,,,,,,,,,,,,,,,,,,,,,,,,,,,,,,,,,,,,,,,,,,,,,,,,,,,,,,,,,,,,,,,,,,,,,,,,,,hospitality,,,,POINT (77.2345124 28.6534876)
Star Paradise,hotel,28.6410897,77.2156719,osm,,,,,,,,,,,,hotel,,,,,,,,,,,,,,,,,,,,,,,,,,,,,,,,,,,,,,,,,,,,,,,,,,,,,,,,,,,,,,,,,,,,,,,,,,,,,,,,,,,,,,,,,,,,,,,,,,,,,,,,,,,,,,,,,,,,,,,,,,,,,,,,,,,,,,,,,,,,,,,,,,,,,,,,,,,,,,,,,,,,,,,,,,,,,,,,,,,,,,,,,,,,,,,,,,,,,,,,,,,,,,,,,,,,,,hospitality,,,,POINT (77.2156719 28.6410897)
Bon Temps Cafe,cafe,28.6428339,77.186576,osm,cafe,,,,,,,,,,,,,,,,,,,,,,,,,,,,,,,,,,,,,,,,,,,,,,,,,,,,,,,,,,,,,,,,,,,,,,,,,,,,,,,,,,,,,,,,,,,,,,,,,,,,,,,,,,,,,,,,,,,,,,,,,,,,,,,,,,,,,,,,,,,,,,,,,,,,,,,,,,,,,,,,,,,,,,,,,,,,,,,,,,,,,,,,,,,,,,,,,,,,,,,,,,,,,,,,,,,,,,,,,,,,,,,,,cafe,,,,POINT (77.186576 28.6428339)
Big Apple,convenience,28.6324664,77.1774672,osm,,,,,,,,,,,,,,,,,,,,,,,,,,,convenience,,,,,,,,,,,,,,,,,,,,,,,,,,,,,,,,,,,,,,,,,,,,,,,,,,,,,,,,,,,,,,,,,,,,,,,,,,,,,,,,,,,,,,,,,,,,,,,,,,,,,,,,,,,,,,,,,,,,,,,,,,,,,,,,,,,,,,,,,,,,,,,,,,,,,,,,,,,,,,,,,,,,,,,,,,,,,,,,,,,,,,,,,,,,,,,,,,,,,,,retail,,,,POINT (77.1774672 28.6324664)
Vivek,hotel,28.6410436,77.212675,osm,,,,,,,,,,,,hotel,,,,,,,,,,,,,,,,,,,,,,,,,,,,,,,,,,,,,,,,,,,,,,,,,,,,,,,,,,,,,,,,,,,,,,,,,,,,,,,,,,,,,,,,,,,,,,,,,,,,,,,,,,,,,,,,,,,,,,,,,,,,,,,,,,,,,,,,,,,,,,,,,,,,,,,,,,,,,,,,,,,,,,,,,,,,,,,,,,,,,,,,,,,,,,,,,,,,,,,,,,,,,,,,,,,,,,hospitality,,,,POINT (77.212675 28.6410436)
Internet,cafe,28.6410051,77.2125387,osm,cafe,,,,,,,,,,,,,,,,,,,,,,,,,,,terminal,,,,,,,,,,,,,,,,,,,,,,,,,,,,,,,,,,,,,,,,,,,,,,,,,,,,,,,,,,,,,,,,,,,,,,,,,,,,,,,,,,,,,,,,,,,,,,,,,,,,,,,,,,,,,,,,,,,,,,,,,,,,,,,,,,,,,,,,,,,,,,,,,,,,,,,,,,,,,,,,,,,,,,,,,,,,,,,,,,,,,,,,,,,,,,,,,,,,,,cafe,,,,POINT (77.2125387 28.6410051)
Bangla Foods,restaurant,28.6333595,77.2083619,osm,restaurant,,,,,,,,,,,,,,,,,,,,,,,,,,,,235.41,gpx,,,,,,,,,,,,,,,,,,,,,,,,,,,,,,,,,,,,,,,,,,,,,,,,,,,,,,,,,,,,,,,,,,,,,,,,,,,,,,,,,,,,,,,,,,,,,,,,,,,,,,,,,,,,,,,,,,,,,,,,,,,,,,,,,,,,,,,,,,,,,,,,,,,,,,,,,,,,,,,,,,,,,,,,,,,,,,,,,,,,,,,,,,,,,,,,,,,,restaurant,,,,POINT (77.2083619 28.6333595)
Vishal,hotel,28.6409016,77.2118997,osm,,,,,,,,,,,,hotel,,,,,,,,,,,,,,,,,,,,,,,,,,,,,,,,,,,,,,,,,,,,,,,,,,,,,,,,,,,,,,,,,,,,,,,,,,,,,,,,,,,,,,,,,,,,,,,,,,,,,,,,,,,,,,,,,,,,,,,,,,,,,,,,,,,,,,,,,,,,,,,,,,,,,,,,,,,,,,,,,,,,,,,,,,,,,,,,,,,,,,,,,,,,,,,,,,,,,,,,,,,,,,,,,,,,,,hospitality,,,,POINT (77.2118997 28.6409016)
Hare Krishna Guest House,hotel,28.6409675,77.2121571,osm,,,,,,,http://www.hotelharekrishna.com/,New Delhi,110055,Main Bazaar,011 41541340,hotel,,,,,,,,,,,,,,,,,,,IN,1572-73,Pahar Ganj,reservationhotelharekrishna@gmail.com,011 41541341,011 43598427,,,,,,,,,,,,,,,,,,,,,,,,,,,,,,,,,,,,,,,,,,,,,,,,,,,,,,,,,,,,,,,,,,,,,,,,,,,,,,,,,,,,,,,,,,,,,,,,,,,,,,,,,,,,,,,,,,,,,,,,,,,,,,,,,,,,,,,,,,,,,,,,,,,,,,,,,,,,,,,,,,,,,,,,,,,,,,,,,,,,,,,,,,,,,,hospitality,,,,POINT (77.2121571 28.6409675)
Anoop,hotel,28.6409297,77.2121018,osm,,,,,,,,,,,,hotel,,,,,,,,,,,,,,,,,,,,,,,,,,,,,,,,,,,,,,,,,,,,,,,,,,,,,,,,,,,,,,,,,,,,,,,,,,,,,,,,,,,,,,,,,,,,,,,,,,,,,,,,,,,,,,,,,,,,,,,,,,,,,,,,,,,,,,,,,,,,,,,,,,,,,,,,,,,,,,,,,,,,,,,,,,,,,,,,,,,,,,,,,,,,,,,,,,,,,,,,,,,,,,,,,,,,,,hospitality,,,,POINT (77.2121018 28.6409297)
Maidens Hotel,hotel,28.674394,77.2261858,osm,,,,,,,https://www.maidenshotel.com/,,110054,Sham Nath Marg,+91 11 2397 5464,hotel,,,,,,,,,,,,,,,,,,,,7,,,,,+91 11 2398 0771,yes,,,,,,,,,,,,,,,,,,,,,,,,,,,,,,,,,,,,,,,,,,,,,,,,,,,,,,,,,,,,,,,,,,,,,,,,,,,,,,,,,,,,,,,,,,,,,,,,,,,,,,,,,,,,,,,,,,,,,,,,,,,,,,,,,,,,,,,,,,,,,,,,,,,,,,,,,,,,,,,,,,,,,,,,,,,,,,,,,,,,,,,,,,,,hospitality,,,,POINT (77.2261858 28.674394)
Radisson Blu Marina Hotel Connaught Place,hotel,28.6339659,77.2171659,osm,,,Radisson Blu,Q7281341,,Radisson Hotels,https://www.radissonblu.com/en/marinahotel-newdelhi?s_cid=os.apac-IN-blu-INDNEDL-gmb,New Delhi,110001,Connaught Circus (Indira Chowk),+91 11 4690 9090,hotel,,,,,,,,,,,,,,,,wlan,,,,59,,,,,,,G,D00,Connaught Place,রেডিসন ব্লু মেরিনা হোটেল কনট প্লেস,रैडिसन ब्लू मरीना होटल कनॉट प्लेस,4,,,,,,,,,,,,,,,,,,,,,,,,,,,,,,,,,,,,,,,,,,,,,,,,,,,,,,,,,,,,,,,,,,,,,,,,,,,,,,,,,,,,,,,,,,,,,,,,,,,,,,,,,,,,,,,,,,,,,,,,,,,,,,,,,,,,,,,,,,,,,,,,,,,,,,,,,,,,,,,,,,,,,,,,,,,,,,,,,,,,,,hospitality,,,,POINT (77.2171659 28.6339659)
Hotel Florence,hotel,28.6518872,77.191918,osm,,,,,,,,,,,,hotel,,,,,,,,,,,,,,,,,,,,,,,,,,,,,,,,,,,,,,,,,,,,,,,,,,,,,,,,,,,,,,,,,,,,,,,,,,,,,,,,,,,,,,,,,,,,,,,,,,,,,,,,,,,,,,,,,,,,,,,,,,,,,,,,,,,,,,,,,,,,,,,,,,,,,,,,,,,,,,,,,,,,,,,,,,,,,,,,,,,,,,,,,,,,,,,,,,,,,,,,,,,,,,,,,,,,,,hospitality,,,,POINT (77.191918 28.6518872)
State Bank of India,bank,28.6563806,77.234434,osm,bank,,State Bank of India,Q1340361,,,,,110006,,,,,,,SBI,,,,,,,,,,,,,,,,,,,,,,,,,,,,,,,,,,,,,,,,,,,,,,,,,,,,,,,,,,,,,,,,,,,,,,,,,,,,,,,,,,,,,,,,,,,,,,,,,,,,,,,,,,,,,,,,,,,,,,,,,,,,,,,,,,,,,,,,,,,,,,,,,,,,,,,,,,,,,,,,,,,,,,,,,,,,,,,,,,,,,,,,,,,,,,,,,,,,,,,,,,,,,,,,,,finance,,,,POINT (77.234434 28.6563806)
Imperial Hotel,hotel,28.625283,77.2183628,osm,,,,,,,,New Delhi,,,,hotel,,,,,,,,,,,,,,,,,,,,,,,,,,,,,,,,,,,,,,,,,,,,,,,,,,,,,,,,,,,,,,,,,,,,,,,,,,,,,,,,,,,,,,,,,,,,,,,,,,,,,,,,,,,,,,,,,,,,,,,,,,,,,,,,,,,,,,,,,,,,,,,,,,,,,,,,,,,,,,,,,,,,,,,,,,,,,,,,,,,,,,,,,,,,,,,,,,,,,,,,,,,,,,,,,,,,,,hospitality,,,,POINT (77.2183628 28.625283)
Spice Route,restaurant,28.6253844,77.2181175,osm,restaurant,,,,,,,New Delhi,,,,,,,,,thai,,,,,,,,,,,,,,,,,,,,,,,,,,,,,,,,,,,,,,,,,,,,,,,,,,,,,,,,,,,,,,,,,,,,,,,,,,,,,,,,,,,,,,,,,,,,,,,,,,,,,,,,,,,,,,,,,,,,,,,,,,,,,,,,,,,,,,,,,,,,,,,,,,,,,,,,,,,,,,,,,,,,,,,,,,,,,,,,,,,,,,,,,,,,,,,,,,,,,,,,,,,,,,,,,restaurant,,,,POINT (77.2181175 28.6253844)
Good Earth,restaurant,28.5995254,77.226395,osm,restaurant,,,,,,https://www.goodearth.in/,,,,,,,,,,thai,,,,,,,,,,,,,,,,,,,,,,,,,,,,,,,,,,,,,,,,,,,,,,,,,,,,,,,,,,,,,,,,,,,,,,,,,,,,,,,,,,,,,,,,,,,,,,,,,,,,,,,,,,,,,,,,,,,,,,,,,,,,,,,,,,,,,,,,,,,,,,,,,,,,,,,,,,,,,,,,,,,,,,,,,,,,,,,,,,,,,,,,,,,,,,,,,,,,,,,,,,,,,,,,,restaurant,,,,POINT (77.226395 28.5995254)
Nathus Sweets,restaurant,28.6297269,77.2320267,osm,restaurant,,,,,,,,,,,,,,,,,,,,,,,,,,,,,,,,,,,,,,,,,,,,,,,,,,,,,,,,,,,,,,,,,,,,,,,,,,,,,,,,,,,,,,,,,,,,,,,,,,,,,,,,,,,,,,,,,,,,,,,,,,,,,,,,,,,,,,,,,,,,,,,,,,,,,,,,,,,,,,,,,,,,,,,,,,,,,,,,,,,,,,,,,,,,,,,,,,,,,,,,,,,,,,,,,,,,,,,,,,,,,,,,,restaurant,,,,POINT (77.2320267 28.6297269)
Bengali Sweet House,restaurant,28.629465,77.2318985,osm,restaurant,,,,,,,,,,+91-11-2335-3310;+91-11-2331-9224,,,,,,north_indian;south_indian;chinese,,,,,,,,,,,,,,,,,,,,,,,,,,,,18,,,,,,,,,,,,,,,,,,,,,,,,,,,,,,,,,,,,,,,,,,,,,,,,,,,,,,,,,,,,,,,,,,,,,,,,,,,,,,,,,,,,,,,,,,,,,,,,,,,,,,,,,,,,,,,,,,,,,,,,,,,,,,,,,,,,,,,,,,,,,,,,,,,,,,,,,,,,,,,,,,,,,,,,,,,,,,,,,,,,,restaurant,,,,POINT (77.2318985 28.629465)
Unknown,fuel,28.6397503,77.1739956,osm,fuel,,,,,,,,,,,,,,,,,,,,,,,,,,,,,,,,,,,,,,,,,,,,,,,,,,,,,,,,,,,,,,,,,,,,,,,,,,,,,,,,,,,,,,,,,,,,,,,,,,,,,,,,,,,,,,,,,,,,,,,,,,,,,,,,,,,,,,,,,,,,,,,,,,,,,,,,,,,,,,,,,,,,,,,,,,,,,,,,,,,,,,,,,,,,,,,,,,,,,,,,,,,,,,,,,,,,,,,,,,,,,,,,,other,,,,POINT (77.1739956 28.6397503)
Unknown,fuel,28.6396139,77.1740466,osm,fuel,,,,,,,,,,,,,,,,,,,,,,,,,,,,,,,,,,,,,,,,,,,,,,,,,,,,,,,,,,,,,,,,,,,,,,,,,,,,,,,,,,,,,,,,,,,,,,,,,,,,,,,,,,,,,,,,,,,,,,,,,,,,,,,,,,,,,,,,,,,,,,,,,,,,,,,,,,,,,,,,,,,,,,,,,,,,,,,,,,,,,,,,,,,,,,,,,,,,,,,,,,,,,,,,,,,,,,,,,,,,,,,,,other,,,,POINT (77.1740466 28.6396139)
Pusa Institute,bus_station,28.640496,77.1741764,osm,bus_station,,,,,,,,,,,,,,,,,,,,,,,,yes,station,,,,,,,,,,,,,,,,,,,,پوسا انسٹیٹیوٹ,,,,,,,,,,,,,,,,,,,,,,,,,,,,,,,,,,,,,,,,,,,,,,,,,,,,,,,,,,,,,,,,,,,,,,,,,,,,,,,,,,,,,,,,,,,,,,,,,,,,,,,,,,,,,,,,,,,,,,,,,,,,,,,,,,,,,,,,,,,,,,,,,,,,,,,,,,,,,,,,,,,,,,,,,,,,,,,,,,,,other,,,,POINT (77.1741764 28.640496)
Hotel Krishna,hotel,28.6459152,77.2146894,osm,,,,,,,,New Delhi,110055,Arakashan Road,,hotel,,,,,,,,,,,,,,,,,,,IN,,,,,,,,,,Ram Nagar,,,,,,DL,,,,,,,,,,,,,,,,,,,,,,,,,,,,,,,,,,,,,,,,,,,,,,,,,,,,,,,,,,,,,,,,,,,,,,,,,,,,,,,,,,,,,,,,,,,,,,,,,,,,,,,,,,,,,,,,,,,,,,,,,,,,,,,,,,,,,,,,,,,,,,,,,,,,,,,,,,,,,,,,,,,,,,,,,,,,,,,,,,,hospitality,,,,POINT (77.2146894 28.6459152)
Club India Restaurant,restaurant,28.6409319,77.2137081,osm,restaurant,,,,,,,,,,,,,,,,,,,,,,,,,,,,,,,,,,,,,,,,,,,,,,,,,,,,,,,,,,,,,,,,,,,,,,,,,,,,,,,,,,,,,,,,,,,,,,,,,,,,,,,,,,,,,,,,,,,,,,,,,,,,,,,,,,,,,,,,,,,,,,,,,,,,,,,,,,,,,,,,,,,,,,,,,,,,,,,,,,,,,,,,,,,,,,,,,,,,,,,,,,,,,,,,,,,,,,,,,,,,,,,,,restaurant,,,,POINT (77.2137081 28.6409319)
Gushi International,hotel,28.6416237,77.2133024,osm,,,,,,,,,,,,hotel,,,,,,,,,,,,,,,,,,,,,,,,,,,,,,,,,,,,,,,,,,,,,,,,,,,,,,,,,,,,,,,,,,,,,,,,,,,,,,,,,,,,,,,,,,,,,,,,,,,,,,,,,,,,,,,,,,,,,,,,,,,,,,,,,,,,,,,,,,,,,,,,,,,,,,,,,,,,,,,,,,,,,,,,,,,,,,,,,,,,,,,,,,,,,,,,,,,,,,,,,,,,,,,,,,,,,,hospitality,,,,POINT (77.2133024 28.6416237)
Madan Café,cafe,28.6407272,77.2111472,osm,cafe,,,,,,,,,,,,,,,,,yes,,,,,,,,,,,,,,,,,,,,,,,,,,,,,,,,,,,,,,,,,,,,,,,,,,,,,,,,,,,,,,,,,,,,,,,,,,,,,,,,,,,,,,,,,,,,,,,,,,,,,,,,,,,,,,,,,,,,,,,,,,,,,,,,,,,,,,,,,,,,,,,,,,,,,,,,,,,,,,,,,,,,,,,,,,,,,,,,,,,,,,,,,,,,,,,,,,,,,,,,,,,,,,,,cafe,,,,POINT (77.2111472 28.6407272)
New Mt. Everest Restaurant,restaurant,28.641034,77.213836,osm,restaurant,,,,,,,,,,,,,,,,,,,,,,,,,,,,,,,,,,,,,,,,,,,,,,,,,,,,,,,,,,,,,,,,,,,,,,,,,,,,,,,,,,,,,,,,,,,,,,,,,,,,,,,,,,,,,,,,,,,,,,,,,,,,,,,,,,,,,,,,,,,,,,,,,,,,,,,,,,,,,,,,,,,,,,,,,,,,,,,,,,,,,,,,,,,,,,,,,,,,,,,,,,,,,,,,,,,,,,,,,,,,,,,,,restaurant,,,,POINT (77.213836 28.641034)
Unknown,convenience,28.641578,77.2133239,osm,,,,,,,,,,,,,,,,,,,,,,,,,,,convenience,,,,,,,,,,,,,,,,,,,,,,,,,,,,,,,,,,,,,,,,,,,,,,,,,,,,,,,,,,,,,,,,,,,,,,,,,,,,,,,,,,,,,,,,,,,,,,,,,,,,,,,,,,,,,,,,,,,,,,,,,,,,,,,,,,,,,,,,,,,,,,,,,,,,,,,,,,,,,,,,,,,,,,,,,,,,,,,,,,,,,,,,,,,,,,,,,,,,,,,retail,,,,POINT (77.2133239 28.641578)
Rak International,hotel,28.6416783,77.2133717,osm,,,,,,,,,,,,hotel,,,,,,,,,,,,,,,,wlan,,,,,,,,,,no,,,,,,,,,,no,,,,,,,,,,,,,,,,,,,,,,,,,,,,,,,,,,,,,,,,,,,,,,,,,,,,,,,,,,,,,,,,,,,,,,,,,,,,,,,,,,,,,,,,,,,,,,,,,,,,,,,,,,,,,,,,,,,,,,,,,,,,,,,,,,,,,,,,,,,,,,,,,,,,,,,,,,,,,,,,,,,,,,,,,,,,,,,,,,hospitality,,,,POINT (77.2133717 28.6416783)
Sapna,hotel,28.6406194,77.211041,osm,,,,,,,,,,,,hotel,,,,,,,,,,,,,,,,,,,,,,,,,,,,,,,,,,,,,,,,,,,,,,,,,,,,,,,,,,,,,,,,,,,,,,,,,,,,,,,,,,,,,,,,,,,,,,,,,,,,,,,,,,,,,,,,,,,,,,,,,,,,,,,,,,,,,,,,,,,,,,,,,,,,,,,,,,,,,,,,,,,,,,,,,,,,,,,,,,,,,,,,,,,,,,,,,,,,,,,,,,,,,,,,,,,,,,hospitality,,,,POINT (77.211041 28.6406194)
Andhra Bhawan Canteen,restaurant,28.6169212,77.225998,osm,restaurant,,,,,,,,,"Ashoka Road, New Delhi",,,,,,,asian;indian,,,,,,,,,,,,,,,1,,,,,,,,,,,,,,,,,Кафе Andhra Pradesh Bhavan,"Mo-Su 08:00-22:00, 00:00-15:00, 07:30-22:00",,,,,,,,,,,,,,,,,,,,,,,,,,,,,,,,,,,,,,,,,,,,,,,,,,,,,,,,,,,,,,,,,,,,,,,,,,,,,,,,,,,,,,,,,,,,,,,,,,,,,,,,,,,,,,,,,,,,,,,,,,,,,,,,,,,,,,,,,,,,,,,,,,,,,,,,,,,,,,,,,,,,,,,,,,,,,,,,restaurant,,,,POINT (77.225998 28.6169212)
Karim's,restaurant,28.6494286,77.2337411,osm,restaurant,,,,,,http://www.karimhoteldelhi.com,,110006,Kalan Mahal Road,,,,,,,chicken;kebab;curry;indian,,,,,,,,,,,,,,,19,,,,,,,,,,,,,,,,,,,Karim's,Q17064086,Category:Karim's,en:Karim's,,,,,,,,,,,,,,,,,,,,,,,,,,,,,,,,,,,,,,,,,,,,,,,,,,,,,,,,,,,,,,,,,,,,,,,,,,,,,,,,,,,,,,,,,,,,,,,,,,,,,,,,,,,,,,,,,,,,,,,,,,,,,,,,,,,,,,,,,,,,,,,,,,,,,,,,,,,,,,,,,,,,,,,,,,,,restaurant,,,,POINT (77.2337411 28.6494286)
Pandit Kanhaiya Lal Durga Prashad Dixit Paranthe Wala,restaurant,28.6560678,77.2303749,osm,restaurant,,,,,,,Delhi,110006,Paranthe Wali Gali,,,,,,,indian;parantha,,no,,,,,,,,,,,,,,,,,,,,,,Chandni Chowk,,पंडित कन्हैया लाल दुर्गा प्रशाद दीक्षित परांठे वाला,,,,,,,,,,,,36,+91-99-7199-7140;+91-98916-64131;+91-93507-14662,0,1875,,,,,,,,,,,,,,,,,,,,,,,,,,,,,,,,,,,,,,,,,,,,,,,,,,,,,,,,,,,,,,,,,,,,,,,,,,,,,,,,,,,,,,,,,,,,,,,,,,,,,,,,,,,,,,,,,,,,,,,,,,,,,,,,,,,,,,,,,,,,,,,,,,,,,,,,,,,,,,,,,,,,,,,,restaurant,,,,POINT (77.2303749 28.6560678)
Moti Mahal,restaurant,28.6468875,77.2399805,osm,restaurant,,,,,,,,,,,,,2024-12-22,,,,only,,,,,,,,,,,,,,,,,,,,,,,,,,,,,,,,,,,,,,,,,,,,,,,,,,,,,,,,,,,,,,,,,,,,,,,,,,,,,,,,,,,,,,,,,,,,,,,,,,,,,,,,,,,,,,,,,,,,,,,,,,,,,,,,,,,,,,,,,,,,,,,,,,,,,,,,,,,,,,,,,,,,,,,,,,,,,,,,,,,,,,,,,,,,,,,,,,,,,,,,,,,,,,,,restaurant,,,,POINT (77.2399805 28.6468875)
moti,bakery,28.6169705,77.2267362,osm,,,,,,,abccccc,,020626,moti,,,,,,,,,,,,,,,,,bakery,,,,,123,,,,,,,,,,,,,,,,,,,,,,,,,,,moti,,,,,,,,,,,,,,,,,,,,,,,,,,,,,,,,,,,,,,,,,,,,,,,,,,,,,,,,,,,,,,,,,,,,,,,,,,,,,,,,,,,,,,,,,,,,,,,,,,,,,,,,,,,,,,,,,,,,,,,,,,,,,,,,,,,,,,,,,,,,,,,,,,,,,,,,,,,,,,,,,,,,,,,other,,,,POINT (77.2267362 28.6169705)
Ajanta,hotel,28.6457798,77.2158487,osm,,,,,,,https://www.ajantahotel.com/,New Delhi,110055,Arakashan Road,+91 11 42350000,hotel,,,,,,,,,,,,,,,,wlan,,,IN,8647,,info@ajantahotel.com,,,+91 11 23620228,,,,Ram Nagar,,,,,,,no,,,,,,,,,,,,,,,,,,,,,,,,,,,,,,,,,,,,,,,,,,,,,,,,,,,,,,,,,,,,,,,,,,,,,,,,,,,,,,,,,,,,,,,,,,,,,,,,,,,,,,,,,,,,,,,,,,,,,,,,,,,,,,,,,,,,,,,,,,,,,,,,,,,,,,,,,,,,,,,,,,,,,,,,,,,,,,,,,,hospitality,,,,POINT (77.2158487 28.6457798)
Berco's,restaurant,28.6323764,77.2172154,osm,restaurant,,,,,,,New Delhi,,,,,,,,,asian;chinese;thai,,,,,,,,,,,,,,,,,,,,,,,,,,,,,,,,,,,,,,,,,,,,,,,,,,,,,,,,,,,,,,,,,,,,,,,,,,,,,,,,,,,,,,,,,,,,,,,,,,,,,,,,,,,,,,,,,,,,,,,,,,,,,,,,,,,,,,,,,,,,,,,,,,,,,,,,,,,,,,,,,,,,,,,,,,,,,,,,,,,,,,,,,,,,,,,,,,,,,,,,,,,,,,,,,restaurant,,,,POINT (77.2172154 28.6323764)
Starbucks,cafe,28.6321974,77.2177075,osm,cafe,,Starbucks,Q37158,,,,,,,,,,,,,coffee_shop,,,,,,,,,,,,,,,,,,,,,,,,,,,,,اسٹاربکس,,,,,,,,,,,,,,ਸਟਾਰਬਕਸ,اسٹاربکس,en:Starbucks,ਸਟਾਰਬਕਸ,Starbucks Coffee,ਸਟਾਰਬਕਸ ਕੌਫੀ,اسٹاربکس کافی,yes,,,,,,,,,,,,,,,,,,,,,,,,,,,,,,,,,,,,,,,,,,,,,,,,,,,,,,,,,,,,,,,,,,,,,,,,,,,,,,,,,,,,,,,,,,,,,,,,,,,,,,,,,,,,,,,,,,,,,,,,,,,,,,,,,,,,,,,,,,,,,,,,,,,,,,,,,,,,,,,cafe,,,,POINT (77.2177075 28.6321974)
IRCTC-Ginger Rail Yatri Niwas,hotel,28.6444996,77.2226902,osm,,,,,,,,,,,,hotel,,,,,,,,,,,,,,,,yes,,,,,,,,,,,,,,,,,,,,yes,,,,,,,,,,,,,,,,,,,,,,,,,,,,,,,,,,,,,,,,,,,,,,,,,,,,,,,,,,,,,,,,,,,,,,,,,,,,,,,,,,,,,,,,,,,,,,,,,,,,,,,,,,,,,,,,,,,,,,,,,,,,,,,,,,,,,,,,,,,,,,,,,,,,,,,,,,,,,,,,,,,,,,,,,,,,,,,,,,hospitality,,,,POINT (77.2226902 28.6444996)
All American Diner,restaurant,28.589224,77.225738,osm,restaurant,,,,,,,,,,,,,2023-10-20,,,,,yes,,,,,,,,,,,,,,,,,,,,,,,,,,,,,,,,,,,,,,0,,,,,,,,,,,,,,,,,,,,,,,,,,,,,,,,,,,,,,,,,,,,,,,,,,,,,,,,,,,,,,,,,,,,,,,,,,,,,,,,,,,,,,,,,,,,,,,,,,,,,,,,,,,,,,,,,,,,,,,,,,,,,,,,,,,,,,,,,,,,,,,,,,,,,,,,,,,,,,,,,,,,,,,,,restaurant,,,,POINT (77.225738 28.589224)
Bharat Petroleum,fuel,28.5924259,77.2375948,osm,fuel,,Bharat Petroleum,Q854826,,,,,,,,,,,,,,,,,,,,,,,,,,,,,,,,,,,,,,,,,,,,,,,,,,,,,,,,,,,,,,,,yes,,,,,,,,,,,,,,,,,,,,,,,,,,,,,,,,,,,,,,,,,,,,,,,,,,,,,,,,,,,,,,,,,,,,,,,,,,,,,,,,,,,,,,,,,,,,,,,,,,,,,,,,,,,,,,,,,,,,,,,,,,,,,,,,,,,,,,,,,,,,,,,,,,,,,,,,,,,,,,other,,,,POINT (77.2375948 28.5924259)
Cafe Turtle,cafe,28.6002007,77.2273465,osm,cafe,,,,,,https://cafeturtle.com/,New Delhi,,Khan Market,+911124655641,,,,,,,,,,,,,,,,,,,,,,,feedback@cafeturtle.com,,,,,,,,,,,,,,,,,,,,,,,,,,,,,,,,,,,2023-01-23,,,,,,,,,,,,,,,,,,,,,,,,,,,,,,,,,,,,,,,,,,,,,,,,,,,,,,,,,,,,,,,,,,,,,,,,,,,,,,,,,,,,,,,,,,,,,,,,,,,,,,,,,,,,,,,,,,,,,,,,,,,,,,,,,,,,,,,,,,,,,,,,,,,,,,,,,,,,,cafe,,,,POINT (77.2273465 28.6002007)
Vidya Bhawan Senior Secondary School,other,28.6387283,77.1763691,osm,school,,,,,,,,,,,,,,,,,,,,,,,,,,,,,,,,,,,,,,,,,,,,,,,,,,,,,,,,,,,,,,,,,,,,,,,,,,,,,,,,,,,,,,,,,,,,,,,,,,,,,,,,,,,,,,,,,,,,,,,,,,,,,,,,,,,,,,,,,,,,,,,,,,,,,,,,,,,,,,,,,,,,,,,,,,,,,,,,,,,,,,,,,,,,,,,,,,,,,,,,,,,,,,,,,,,,,,,,,,,,,,,,,other,,,,POINT (77.1763691 28.6387283)
Sindhi Higher Secondary School,other,28.6357621,77.1778604,osm,school,,,,,,,,,,,,,,,,,,,,,,,,,,,,,,,,,,,,,,,,,,,,,,,,,,,,,,,,,,,,,,,,,,,,,,,,,,,,,,,,,,,,,,,,,,,,,,,,,,,,,,,,,,,,,,,,,,,,,,,,,,,,,,,,,,,,,,,,,,,,,,,,,,,,,,,,,,,,,,,,,,,,,,,,,,,,,,,,,,,,,,,,,,,,,,,,,,,,,,,,,,,,,,,,,,,,,,,,,,,,,,,,,other,,,,POINT (77.1778604 28.6357621)
Manav Sthali School,other,28.6352772,77.1782466,osm,school,,,,,,,,,,,,,,,,,,,,,,,,,,,,,,,,,,,,,,,,,,,,,,,,,,,,,,,,,,,,,,,,,,,,,,,,,,,,,,,,,,,,,,,,,,,,,,,,,,,,,,,,,,,,,,,,,,,,,,,,,,,,,,,,,,,,,,,,,,,,,,,,,,,,,,,,,,,,,,,,,,,,,,,,,,,,,,,,,,,,,,,,,,,,,,,,,,,,,,,,,,,,,,,,,,,,,,,,,,,,,,,,,other,,,,POINT (77.1782466 28.6352772)
Andh Kanya Vidyalaya,other,28.6368309,77.1803119,osm,school,,,,,,,,,,,,,,,,,,,,,,,,,,,,,,,,,,,,,,,,,,,,,,,,,,,,,,,,,,,,,,,,,,,,,,,,,,,,,,,,,,,,,,,,,,,,,,,,,,,,,,,,,,,,,,,,,,,,,,,,,,,,,,,,,,,,,,,,,,,,,,,,,,,,,,,,,,,,,,,,,,,,,,,,,,,,,,,,,,,,,,,,,,,,,,,,,,,,,,,,,,,,,,,,,,,,,,,,,,,,,,,,,other,,,,POINT (77.1803119 28.6368309)
DI Khan Bharati Sabha Higher Secondary School,other,28.6307618,77.1795502,osm,school,,,,,,,,,,,,,,,,,,,,,,,,,,,,,,,,,,,,,,,,,,,,,,,,,,,,,,,,,,,,,,,,,,,,,,,,,,,,,,,,,,,,,,,,,,,,,,,,,,,,,,,,,,,,,,,,,,,,,,,,,,,,,,,,,,,,,,,,,,,,,,,,,,,,,,,,,,,,,,,,,,,,,,,,,,,,,,,,,,,,,,,,,,,,,,,,,,,,,,,,,,,,,,,,,,,,,,,,,,,,,,,,,other,,,,POINT (77.1795502 28.6307618)
Bapu Adarsh Vidyalaya,other,28.6306394,77.1804675,osm,school,,,,,,,,,,,,,,,,,,,,,,,,,,,,,,,,,,,,,,,,,,,,,,,,,,,,,,,,,,,,,,,,,,,,,,,,,,,,,,,,,,,,,,,,,,,,,,,,,,,,,,,,,,,,,,,,,,,,,,,,,,,,,,,,,,,,,,,,,,,,,,,,,,,,,,,,,,,,,,,,,,,,,,,,,,,,,,,,,,,,,,,,,,,,,,,,,,,,,,,,,,,,,,,,,,,,,,,,,,,,,,,,,other,,,,POINT (77.1804675 28.6306394)
Swami Dayanand Govt. Sarvodaya Vidyalaya,other,28.6397954,77.1856155,osm,school,,,,,,,,,,,,,,,,,,,,,,,,,,,,,,,,,,,,,,,,,,,,,,,,,,,,,,,,,,,,,,,,,,,,,,,,,,,,,,,,,,,,,,,,,,,,,,,,,,,,,,,,,,,,,,,,,,,,,,,,,,,,,,,,,,,,,,,,,,,,,,,,,,,,,,,,,,,,,,,,,,,,,,,,,,,,,,,,,,,,,,,,,,,,,,,,,,,,,,,,,,,,,,,,,,,,,,,,,,,,,,,,,other,,,,POINT (77.1856155 28.6397954)
GD Salwan Public School,other,28.6403133,77.1858677,osm,school,,,,,,,,,,,,,,,,,,,,,,,,,,,,,,,,,,,,,,,,,,,,,,,,,,,,,,,,,,,,,,,,,,,,,,,,,,,,,,,,,,,,,,,,,,,,,,,,,,,,,,,,,,,,,,,,,,,,,,,,,,,,,,,,,,,,,,,,,,,,,,,,,,,,,,,,,,,,,,,,,,,,,,,,,,,,,,,,,,,,,,,,,,,,,,,,,,,,,,,,,,,,,,,,,,,,,,,,,,,,,,,,,other,,,,POINT (77.1858677 28.6403133)
Uppal International,hotel,28.6464415,77.213339,osm,,,,,,,,,,Arakashan Road,,hotel,,,,,,,,,,,,,,,,,,,,28,,,,,,,,,,,,,,,,,,,,,,,,,,,,,,,,,,,,,,,,,,,,,,,,,,,,,,,,,,,,,,,,,,,,,,,,,,,,,,,,,,,,,,,,,,,,,,,,,,,,,,,,,,,,,,,,,,,,,,,,,,,,,,,,,,,,,,,,,,,,,,,,,,,,,,,,,,,,,,,,,,,,,,,,,,,,,,,,,,,,,,,,,,,,,,,,,,hospitality,,,,POINT (77.213339 28.6464415)
sunstar heights,hotel,28.645239,77.1834003,osm,,,,,,,,,,,,hotel,,,,,,,,,,,,,,,,,,,,,,,,,,,,,,,,,,,,,,,,Q111119735,,,,,,,,,,,,,,,,,,,,,,,,,,,,,,,,,,,,,,,,,,,,,,,,,,,,,,,,,,,,,,,,,,,,,,,,,,,,,,,,,,,,,,,,,,,,,,,,,,,,,,,,,,,,,,,,,,,,,,,,,,,,,,,,,,,,,,,,,,,,,,,,,,,,,,,,,,,,,,,,,,,,,,,,,,,,,,hospitality,,,,POINT (77.1834003 28.645239)
Cottage Yes Please,hotel,28.6410109,77.2104394,osm,,,,,,,,,,,,hotel,,,,,,,,,,,,,,,,,,,,,,,,,,,,,,,,,,,,,,,,,,,,,,,,,,,,,,,,,,,,,,,,,,,,,,,,,,,,,,,,,,,,,,,,,,,,,,,,,,,,,,,,,,,,,,,,,,,,,,,,,,,,,,,,,,,,,,,,,,,,,,,,,,,,,,,,,,,,,,,,,,,,,,,,,,,,,,,,,,,,,,,,,,,,,,,,,,,,,,,,,,,,,,,,,,,,,,hospitality,,,,POINT (77.2104394 28.6410109)
Indian Coffee House,restaurant,28.6306895,77.2160507,osm,restaurant,,Indian Coffee House,Q3595301,,Indian Coffee Workers' Cooperative Society Limited,http://indiancoffeehouse.com/,New Delhi,110001,Baba Kharak Singh Marg,,,,2024-12-23,,,coffee_shop;indian,yes,yes,,,,,,,,,,,,,,,,,,,yes,,,Connaught Place,,,,,,,,,08:30-21:00,,,,,,,2,1957,Mohan Singh Place,,,,,,,,,,,+91-11-2334-2994,no,ask,,,,,,,,,,,,,,,,,,,,,,,,,,,,,,,,,,,,,,,,,,,,,,,,,,,,,,,,,,,,,,,,,,,,,,,,,,,,,,,,,,,,,,,,,,,,,,,,,,,,,,,,,,,,,,,,,,,,,,,,,,,,,,,,,,,,,,,,,,,,,,,,,,,,,,,,,,restaurant,,,,POINT (77.2160507 28.6306895)
Hira Sweets,restaurant,28.6353527,77.220063,osm,restaurant,,,,,,,,110001,,+91-97736 13336,,,,,,pizza;indian;burger;italian;chinese;sandwich;coffee_shop,yes,,,,,yes,,,,,,,,,,,,,,,,,,,,,,,,,,,Mo-Su 08:00-23:00,,,,,,,,,,,,,,,,,yes,,,,,,yes,yes,,,,,,,,,,,,,,,,,,,,,,,,,,,,,,,,,,,,,,,,,,,,,,,,,,,,,,,,,,,,,,,,,,,,,,,,,,,,,,,,,,,,,,,,,,,,,,,,,,,,,,,,,,,,,,,,,,,,,,,,,,,,,,,,,,,,,,,,,,,,,,,,,,,,,,,,restaurant,,,,POINT (77.220063 28.6353527)
Sayam Roof Top Restaurant,restaurant,28.6411417,77.2137445,osm,restaurant,,,,,,,,,,,,,,,,,,,,,,,,,,,,,,,,,,,,,,,,,,,,,,,,,,,,,,,,,,,,,,,,,,,,,,,,,,,,,,,,,,,,,,,,,,,,,,,,,,,,,,,,,,,,,,,,,,,,,,,,,,,,,,,,,,,,,,,,,,,,,,,,,,,,,,,,,,,,,,,,,,,,,,,,,,,,,,,,,,,,,,,,,,,,,,,,,,,,,,,,,,,,,,,,,,,,,,,,,,,,,,,,,restaurant,,,,POINT (77.2137445 28.6411417)
Indian Oil Petrol Pump,fuel,28.6337158,77.2178321,osm,fuel,,Indian Oil,Q1289348,,,,New Delhi,110001,"Connaught Circus (Indira Chowk), Connaught Place",,,,,,,,,,,,,,,,,,,,,,A 23,,,,,,,,,,,,,,,,,,,,,,,,,,,,,,en:Indian Oil Corporation,,,,,,,,,,,,,,,,,,,,,,,,,,,,,,,,,,,,,,,,,,,,,,,,,,,,,,,,,,,,,,,,,,,,,,,,,,,,,,,,,,,,,,,,,,,,,,,,,,,,,,,,,,,,,,,,,,,,,,,,,,,,,,,,,,,,,,,,,,,,,,,,,,,,,,,,,,,,,,,,,,,,other,,,,POINT (77.2178321 28.6337158)
Sri Vinayak,hotel,28.6459004,77.2177066,osm,,,,,,,,,,,,hotel,,,,,,,,,,,,,,,,,,,,,,,,,,,,,,,,,,,,,,,,,,,,,,,,,,,,,,,,,,,,,,,,,,,,,,,,,,,,,,,,,,,,,,,,,,,,,,,,,,,,,,,,,,,,,,,,,,,,,,,,,,,,,,,,,,,,,,,,,,,,,,,,,,,,,,,,,,,,,,,,,,,,,,,,,,,,,,,,,,,,,,,,,,,,,,,,,,,,,,,,,,,,,,,,,,,,,,hospitality,,,,POINT (77.2177066 28.6459004)
Keshav Restaurant,restaurant,28.6337495,77.2230833,osm,restaurant,,,,,,,New Delhi,110001,Radial Road 6,+91-90154-84272,,,,,,,,,,,,,,,,,,,,,,,,,,,,,,,,,,,,,,,Mo-Su 10:00-18:00,,,,,,,,,,,,,,,,,,,,,,,,,50,,,,,,,,,,,,,,,,,,,,,,,,,,,,,,,,,,,,,,,,,,,,,,,,,,,,,,,,,,,,,,,,,,,,,,,,,,,,,,,,,,,,,,,,,,,,,,,,,,,,,,,,,,,,,,,,,,,,,,,,,,,,,,,,,,,,,,,,,,,,,,,,,,,,,,,restaurant,,,,POINT (77.2230833 28.6337495)
Good Times,hotel,28.6464716,77.1936868,osm,,,,,,,,,,,,hotel,,,,,,,,,,,,,,,,,,,,,,,,,,,,,,,,,,,,,,,,,,,,,,,,,,,,,,,,,,,,,,,,,,,,,,,,,,,,,,,,,,,,,,,,,,,,,,,,,,,,,,,,,,,,,,,,,,,,,,,,,,,,,,,,,,,,,,,,,,,,,,,,,,,,,,,,,,,,,,,,,,,,,,,,,,,,,,,,,,,,,,,,,,,,,,,,,,,,,,,,,,,,,,,,,,,,,,hospitality,,,,POINT (77.1936868 28.6464716)
b nineteen,hotel,28.5911807,77.2521566,osm,,,,,,,https://bnineteen.com/,,,,+91-11-41825500,hotel,,,,,,,,,,,,,,,,wlan,,,,,,reservations@bnineteen.com,,,+91-11-41825511,limited,,,,,,,,,,yes,,,,,,,,,,,,,,,,,,,,,,,,,,,,,,,,,,,,,,,,,,,,,,,,,,,,,,,,,,,,,,,,,,,,,,,,,,,,,,,,,,,,,,,,,,,,,,,,,,,,,,,,,,,,,,,,,,,,,,,,,,,,,,,,,,,,,,,,,,,,,,,,,,,,,,,,,,,,,,,,,,,,,,,,,,,,,,,,,,hospitality,,,,POINT (77.2521566 28.5911807)
M B Boys School,other,28.6350118,77.2002755,osm,school,,,,,,,,,,,,,,,,,,,,,,,,,,,,,,,,,,,,,,,,,,,,,,,,,,,,,,,,,,,,,,,,,,,,,,,,,,,,,,,,,,,,,,,,,,,,,,,,,,,,,,,,,,,,,,,,,,,,,,,,,,,,,,,,,,,,,,,,,,,,,,,,,,,,,,,,,,,,,,,,,,,,,,,,,,,,,,,,,,,,,,,,,,,,,,,,,,,,,,,,,,,,,,,,,,,,,,,,,,,,,,,,,other,,,,POINT (77.2002755 28.6350118)
Hotel Namaskar,hotel,28.6418664,77.2147421,osm,,,,,,,,,,Gali Chandi Wali,,hotel,,,,,,,,,,,,,,,,wlan,,,,917,,,,,,,,,,,,,,,,,,,,,,,,,,,,,,,,,,,,,,,,,,,,,,,,,,,,,,,,,,,,,,,,,,,,,,,,,,,,,,,,,,,,,,,,,,,,,,,,,,,,,,,,,,,,,,,,,,,,,,,,,,,,,,,,,,,,,,,,,,,,,,,,,,,,,,,,,,,,,,,,,,,,,,,,,,,,,,,,,,,,,,,,,,,,,,,,,,hospitality,,,,POINT (77.2147421 28.6418664)
Hotel Arina Inn,hotel,28.6414568,77.2414435,osm,,,,,,,,,,,,hotel,,,,,,,,,,,,,,,,,,,,,,,,,,,,,,,,,,,,,,,,,,,,,,,,,,,,,,,,,,,,,,,,,,,,,,,,,,,,,,,,,,,,,,,,,,,,,,,,,,,,,,,,,,,,,,,,,,,,,,,,,,,,,,,,,,,,,,,,,,,,,,,,,,,,,,,,,,,,,,,,,,,,,,,,,,,,,,,,,,,,,,,,,,,,,,,,,,,,,,,,,,,,,,,,,,,,,,hospitality,,,,POINT (77.2414435 28.6414568)
Andhra Bank,bank,28.6168699,77.225769,osm,bank,,Andhra Bank,Q2003476,Andhra Bank,,https://www.andhrabank.in,,,,,,,,,,,,,,,,,,,,,,,,,,,,,,,,,,,,,,,,,,,,,,,,,,,,,,,,,,,,,,,,,,,,,,,,,,,,,,,,,,,,,,,,,,,,,,,,,,,,,,,,,,,,,,,,,,,,,,,,,,,,,,,,,,,,,,,,,,,,,,,,,,,,,,,,,,,,,,,,,,,,,,,,,,,,,,,,,,,,,,,,,,,,,,,,,,,,,,,,,,,,,,,,,,,,,,,,,,,finance,,,,POINT (77.225769 28.6168699)
New Delhi City Centre,hotel,28.6456061,77.2158483,osm,,,,,,,,,,,,hotel,,,,,,,,,,,,,,,,,,,,,,,,,,,,,,,,,,,,,,,,,,,,,,,,,,,,,,,,,,,,,,,,,,,,,,,,,,,,,,,,,,,,,,,,,,,,,,,,,,,,,,,,,,,,,,,,,,,,,,,,,,,,,,,,,,,,,,,,,,,,,,,,,,,,,,,,,,,,,,,,,,,,,,,,,,,,,,,,,,,,,,,,,,,,,,,,,,,,,,,,,,,,,,,,,,,,,,hospitality,,,,POINT (77.2158483 28.6456061)
The Exotic Rooftop Restaurant,restaurant,28.6409844,77.2137687,osm,restaurant,,,,,,,,,,,,,,,,indian,,,,,,,,,,,,,,,,,,,,,,,,,,,,,,,,,Mo-Su 08:00-23:00,,,,,,,,,,,,,,,,,,,,,,,,,,,,,,,,,,,,,,,,,,,,,,,,,,,,,,,,,,,,,,,,,,,,,,,,,,,,,,,,,,,,,,,,,,,,,,,,,,,,,,,,,,,,,,,,,,,,,,,,,,,,,,,,,,,,,,,,,,,,,,,,,,,,,,,,,,,,,,,,,,,,,,,,,,,,,,,,restaurant,,,,POINT (77.2137687 28.6409844)
Madras Coffee House,cafe,28.6318506,77.2163093,osm,cafe,,,,,,,,,,,,,,,,,,no,,,,,,,,,,,,,P-5/90,,,,,,,,,,,,,,,,,,,,,,,,,0,1935,,,,,,,,,,,,+91-11-2336-3074,,,,,,"P-5/90, Connaught Circus, New Delhi - 110001",yes,,,,,,,,,,,,,,,,,,,,,,,,,,,,,,,,,,,,,,,,,,,,,,,,,,,,,,,,,,,,,,,,,,,,,,,,,,,,,,,,,,,,,,,,,,,,,,,,,,,,,,,,,,,,,,,,,,,,,,,,,,,,,,,,,,,,,,,,,,,,,,,,,,,,,cafe,,,,POINT (77.2163093 28.6318506)
Bank of India,bank,28.6563624,77.2310003,osm,bank,,Bank of India,Q2004439,Bank of India,,https://www.bankofindia.co.in/,,110006,,,,,,,BoI,,,,,,,,,,,,,,,,,,,,,,,,,,,,,,,,,,,,,,,,,,,,,,,,,,,,,,,,,,,,,,,,,,,,,,,,,,,,,,,,,,,,,,,,,,,,,,,,,,,,,,,,,,,,,,,,,,,,,,,,,,,,,,,,,,,,,,,,,,,,,,,,,,,,,,,,,,,,,,,,,,,,,,,,,,,,,,,,,,,,,,,,,,,,,,,,,,,,,,,,,,,,,,,,,,finance,,,,POINT (77.2310003 28.6563624)
ICICI Bank,bank,28.656061,77.2329064,osm,bank,,ICICI Bank,Q1653258,ICICI Bank,,https://www.icicibank.com,,110006,,,,,,,ICICI,,,,,,,,,,,,,,,,,,,,,,,,,,,,,,,,,,,,,,,,,,,,,,,,,,,,,,,,,,,,,,,,,,,,,,,,,,,,,,,,,,,,,,,,,,,,,,,,,,,,,,,,,,,,,,,,,,,,,,,,,,,,,,,,,,,,,,,,,,,,,,,,,,,,,,,,,,,,,,,,,,,,,,,,,,,,,,,,,,,,,,,,,,,,,,,,,,,,,,,,,,,,,,,,,,finance,,,,POINT (77.2329064 28.656061)
쉼터,restaurant,28.6414451,77.2132453,osm,restaurant,,,,Shimtur,,,,,,,,,,,,korean,,,,,,,,,,,,,,,,,,,,,,,,,,,,,,,,,,,,,,,,,,,,,,,,,,,,,,,,,,,,,Shimtur,,,,,,,,,,,,,,,,,,,,,,,,,,,,,,,,,,,,,,,,,,,,,,,,,,,,,,,,,,,,,,,,,,,,,,,,,,,,,,,,,,,,,,,,,,,,,,,,,,,,,,,,,,,,,,,,,,,,,,,,,,,,,,,,,,,,,,,,,,,,,,,,,,,,restaurant,,,,POINT (77.2132453 28.6414451)
DCB Bank,bank,28.6562423,77.2348625,osm,bank,yes,,Q5266685,DCB Bank,,https://www.dcbbank.com,,110006,,,,,,,,,,,,,,,,,,,,,,,,,,,,,,,,,,,,,,,,,,,,,,,,,,,,,,,,,,,,,,,,,,,,,,,,,,,,,,,,,,,,,,,,,,,,,,,,,,,,,,,,,,,,,,,,,,,,,,,,,,,,,,,,,,,,,,,,,,,,,,,,,,,,,,,,,,,,,,,,,,,,,,,,,,,,,,,,,,,,,,,,,,,,,,,,,,,,,,,,,,,,,,,,,,,,,,,,,finance,,,,POINT (77.2348625 28.6562423)
HDFC Bank,bank,28.6563318,77.2330386,osm,bank,yes,HDFC Bank,Q631047,,,https://www.hdfcbank.com,,110006,,,,,,,HDFC,,,,,,,,,,,,,,,,,,,,,,,,,,,,,,,,,,,,,,,,,,,,,,,,,,,,,,,,,,,,,,,,,,,,,,,,,,,,,,,,,,,,,,,,,,,,,,,,,,,,,,,,,,,,,,,,,,,,,,,,,,,,,,,,,,,,,,,,,,,,,,,,,,,,,,,,,,,,,,,,,,,,,,,,,,,,,,,,,,,,,,,,,,,,,,,,,,,,,,,,,,,,,,,,,,finance,,,,POINT (77.2330386 28.6563318)
Raj's Cozy Inn,hotel,28.6421194,77.2149507,osm,,,,,,,,,110055,,,hotel,,,,,,,,,,,,,,,,,,,,,,,,,,,,,,,,,,,,,,,,,,,,,,,,,,,,,,,,,,,,,,,,,,,,,,,,,,,,,,,,,,,,,,,,,,,,,,,,,,,,,,,,,,,,,,,,,,,,,,,,,,,,,,,,,,,,,,,,,,,,,,,,,,,,,,,,,,,,,,,,,,,,,,,,,,,,,,,,,,,,,,,,,,,,,,,,,,,,,,,,,,,,,,,,,,,,,,hospitality,,,,POINT (77.2149507 28.6421194)
Sterling Inn,hotel,28.6421683,77.2150151,osm,,,,,,,,,,,,hotel,,,,,,,,,,,,,,,,,,,,,,,,,,,,,,,,,,,,,,,,,,,,,,,,,,,,,,,,,,,,,,,,,,,,,,,,,,,,,,,,,,,,,,,,,,,,,,,,,,,,,,,,,,,,,,,,,,,,,,,,,,,,,,,,,,,,,,,,,,,,,,,,,,,,,,,,,,,,,,,,,,,,,,,,,,,,,,,,,,,,,,,,,,,,,,,,,,,,,,,,,,,,,,,,,,,,,,hospitality,,,,POINT (77.2150151 28.6421683)
Glow Inn,hotel,28.6421818,77.2149252,osm,,,,,,,,,110055,,,hotel,,,,,,,,,,,,,,,,,,,,,,,,,,,,,,,,,,,,,,,,Q111119751,,,,,,,,,,,,,,,,,,,,,,,,,,,,,,,,,,,,,,,,,,,,,,,,,,,,,,,,,,,,,,,,,,,,,,,,,,,,,,,,,,,,,,,,,,,,,,,,,,,,,,,,,,,,,,,,,,,,,,,,,,,,,,,,,,,,,,,,,,,,,,,,,,,,,,,,,,,,,,,,,,,,,,,,,,,,,,hospitality,,,,POINT (77.2149252 28.6421818)
Rajmahal Inn,hotel,28.642213,77.2147442,osm,,,,,,,,,,,,hotel,,,,,,,,,,,,,,,,,,,,,,,,,,,,,,,,,,,,,,,,,,,,,,,,,,,,,,,,,,,,,,,,,,,,,,,,,,,,,,,,,,,,,,,,,,,,,,,,,,,,,,,,,,,,,,,,,,,,,,,,,,,,,,,,,,,,,,,,,,,,,,,,,,,,,,,,,,,,,,,,,,,,,,,,,,,,,,,,,,,,,,,,,,,,,,,,,,,,,,,,,,,,,,,,,,,,,,hospitality,,,,POINT (77.2147442 28.642213)
Tadka,restaurant,28.6403009,77.2131013,osm,restaurant,,,,,,,,,Ramdwara Road,,,,,,,,yes,,,,,,,,,,,,,,4986,,,,,,,,,,,,,,,,,,Mo-Su 09:00-22:30,Tadka,,,,,,,,,,,,,,,,,,,,,,,,,,,,,,,,,,,,,,,,,,,,,,,,,,,,,,,,,,,,,,,,,,,,,,,,,,,,,,,,,,,,,,,,,,,,,,,,,,,,,,,,,,,,,,,,,,,,,,,,,,,,,,,,,,,,,,,,,,,,,,,,,,,,,,,,,,,,,,,,,,,,,,,,,,,,,,,restaurant,,,,POINT (77.2131013 28.6403009)
Gold Regency,hotel,28.6415698,77.2169879,osm,,,,,,,,,,,,hotel,,,,,,,,,,,,,,,,,,,,,,,,,,,,,,,,,,,,,,,,,,,,,,,,,,,,,,,,,,,,,,,,,,,,,,,,,,,,,,,,,,,,,,,,,,,,,,,,,,,,,,,,,,,,,,,,,,,,,,,,,,,,,,,,,,,,,,,,,,,,,,,,,,,,,,,,,,,,,,,,,,,,,,,,,,,,,,,,,,,,,,,,,,,,,,,,,,,,,,,,,,,,,,,,,,,,,,hospitality,,,,POINT (77.2169879 28.6415698)
Satyam,hotel,28.6405822,77.2108389,osm,,,,,,,,,,,,hotel,,,,,,,,,,,,,,,,,,,,,,,,,,,,,,,,,,,,,,,,,,,,,,,,,,,,,,,,,,,,,,,,,,,,,,,,,,,,,,,,,,,,,,,,,,,,,,,,,,,,,,,,,,,,,,,,,,,,,,,,,,,,,,,,,,,,,,,,,,,,,,,,,,,,,,,,,,,,,,,,,,,,,,,,,,,,,,,,,,,,,,,,,,,,,,,,,,,,,,,,,,,,,,,,,,,,,,hospitality,,,,POINT (77.2108389 28.6405822)
Aman International,hotel,28.6414356,77.216096,osm,,,,,,,,,,,,hotel,,,,,,,,,,,,,,,,,,,,,,,,,,,,,,,,,,,,,,,,,,,,,,,,,,,,,,,,,,,,,,,,,,,,,,,,,,,,,,,,,,,,,,,,,,,,,,,,,,,,,,,,,,,,,,,,,,,,,,,,,,,,,,,,,,,,,,,,,,,,,,,,,,,,,,,,,,,,,,,,,,,,,,,,,,,,,,,,,,,,,,,,,,,,,,,,,,,,,,,,,,,,,,,,,,,,,,hospitality,,,,POINT (77.216096 28.6414356)
Guruvas Inn,hotel,28.6415074,77.2161202,osm,,,,,,,,,,,,hotel,,,,,,,,,,,,,,,,,,,,,,,,,,,,,,,,,,,,,,,,,,,,,,,,,,,,,,,,,,,,,,,,,,,,,,,,,,,,,,,,,,,,,,,,,,,,,,,,,,,,,,,,,,,,,,,,,,,,,,,,,,,,,,,,,,,,,,,,,,,,,,,,,,,,,,,,,,,,,,,,,,,,,,,,,,,,,,,,,,,,,,,,,,,,,,,,,,,,,,,,,,,,,,,,,,,,,,hospitality,,,,POINT (77.2161202 28.6415074)
Hotel Durga International Dx,hotel,28.6445778,77.2152819,osm,,,,,,Hotel Durga International Dx,http://www.hoteldurgainternational.co.in,New Delhi,110055,Deshbandhu Gupta Road,"+91 11 23521362 , 63, 64, 65",hotel,,,,,,,,,,,,,,,,,1,,,8715,,,,,,,,,,,,,,,,,,,,,,,,,,,,,,,,,,,,,,,,,,,,,,,outside,,,,,,,,,,,,,,,,,,,,,,,,,,,,,,,,,,,,,,,,,,,,,,,,,,,,,,,,,,,,,,,,,,,,,,,,,,,,,,,,,,,,,,,,,,,,,,,,,,,,,,,,,,,,,,,,,,,,,,,,,,,,,,,,,,,,,,,,,,,,,,,,,,,hospitality,,,,POINT (77.2152819 28.6445778)
ICICI Bank,bank,28.601773,77.2413829,osm,bank,yes,ICICI Bank,Q1653258,ICICI Bank,,https://www.icicibank.com,,,,,,,,,ICICI,,,,,,,,,,,,,,,,,,,,,,,,,,,,,,,,,,,,,,,,,,,,,,,,,,,,,,,,,,,,,,,,,,,,,,,,,,,,,,,,,,,,,,,,,,,,,,,,,,,,,,,,,,,,,,,,,,,,,,,,,,,,,,,,,,,,,,,,,,,,,,,,,,,,,,,,,,,,,,,,,,,,,,,,,,,,,,,,,,,,,,,,,,,,,,,,,,,,,,,,,,,,,,,,,,finance,,,,POINT (77.2413829 28.601773)
Nathu Sweets,restaurant,28.6025805,77.2409575,osm,restaurant,,,,,,,,,,,,,,,,,,,,,,,,,,,,,,,,,,,,,,,,,,,,,,,,,,,,,,,,,,,,,,,,,,,,,,,,,,,,,,,,,,,,,,,,,,,,,,,,,,,,,,,,,,,,,,,,,,,,,,,,,,,,,,,,,,,,,,,,,,,,,,,,,,,,,,,,,,,,,,,,,,,,,,,,,,,,,,,,,,,,,,,,,,,,,,,,,,,,,,,,,,,,,,,,,,,,,,,,,,,,,,,,,restaurant,,,,POINT (77.2409575 28.6025805)
Sunder Nagar Market,convenience,28.6020757,77.2414413,osm,,,,,,,,,,,,,,,,,,,,,,,,,,,convenience,,,,,,,,,,,,,,,,,,,,,,,,,,,,,,,,,,,,,,,,,,,,,,,,,,,,,,,,,,,,,,,,,,,,,,,,,,,,,,,,,,,,,,,,,,,,,,,,,,,,,,,,,,,,,,,,,,,,,,,,,,,,,,,,,,,,,,,,,,,,,,,,,,,,,,,,,,,,,,,,,,,,,,,,,,,,,,,,,,,,,,,,,,,,,,,,,,,,,,,retail,,,,POINT (77.2414413 28.6020757)
Stri Shakti Canteen,cafe,28.6626448,77.2339599,osm,cafe,,,,,,,,,,,,,,,,indian,,,,,,,,,,,no,,,,,,,,,,,,,,,,,,,,,,,,,,,,,,,,,,,,,,,,,,,,,,,,,,,,,,,,,,,,,,,,,,,,,,,,,,,,,,,,,,,,,,,,,,,,,,,,,,,,,,,,,,,,,,,,,,,,,,,,,,,,,,,,,,,,,,,,,,,,,,,,,,,,,,,,,,,,,,,,,,,,,,,,,,,,,,,,,,,,,,,,,,,,,,,,,,,,,,cafe,,,,POINT (77.2339599 28.6626448)
Hotel Krishna Deluxe,hotel,28.6458875,77.2150552,osm,,,,,,,,,,,,hotel,,,,,,,,,,,,,,,,,,,,,,,,,,,,,,,,,,,,,,,,,,,,,,,,,,,,,,,,,,,,,,,,,,,,,,,,,,,,,,,,,,,,,,,,,,,,,,,,,,,,,,,,,,,,,,,,,,,,,,,,,,,,,,,,,,,,,,,,,,,,,,,,,,,,,,,,,,,,,,,,,,,,,,,,,,,,,,,,,,,,,,,,,,,,,,,,,,,,,,,,,,,,,,,,,,,,,,hospitality,,,,POINT (77.2150552 28.6458875)
Unknown,fuel,28.6517715,77.2682607,osm,fuel,,BP,,,,,,,,,,,,,,,,,,,,,,,,,,,,,,,,,,,,,,,,,,,,,,,,,,,,,,,,,,,,,,,,,,,,,,,,,,,,,no,,,,,,,,,,,,,,,,,,,,,,,,,,,,,,,,,,,,,,,,,,,,,,,,,,,,,,,,,,,,,,,,,,,,,,,,,,,,,,,,,,,,,,,,,,,,,,,,,,,,,,,,,,,,,,,,,,,,,,,,,,,,,,,,,,,,,,,,,,,,,,,,,,other,,,,POINT (77.2682607 28.6517715)
Nando's,restaurant,28.6309879,77.2197896,osm,restaurant,,Nando's,Q3472954,,,,New Delhi,,,,,,,,,chicken;portuguese,yes,,,,,,,,,,,,,,,,,,,,,,,,,,,,,,,,Mo-Su 11:30-00:30,,,,,,,,,,,,,,,,,,,,,,,,,,,,,,,,,,,,,,,,,,,,,,,,,,,,,,,,,,,,,,,,,,,,,,,,,,,,,,,,,,,,,,,,,,,,,,,,,,,,,,,,,,,,,,,,,,,,,,,,,,,,,,,,,,,,,,,,,,,,,,,,,,,,,,,,,,,,,,,,,,,,,,,,,,,,,,,,restaurant,,,,POINT (77.2197896 28.6309879)
Federal Bank,bank,28.6319496,77.2217935,osm,bank,yes,Federal Bank,Q2044983,Federal Bank,Federal Bank,https://www.federalbank.co.in,,,,,,,,,,,,,,,,,,,,,,,,,,,,,,,,,,,,,,,,,,,,,,,,,,,,,,,,,,,,,,,,,,,,,,,,,,,,,,,,,,,,,,,,,,,,,,,,,,,,,,,,,,,,,,,,,,,,,,,,,,,,,,,,,,,,,,,,,,,,,,,,,,,,,,,,,,,,,,,,,,,,,,,,,,,,,,,,,,,,,,,,,,,,,,,,,,,,,,,,,,,,,,,,,,,,,,,,,,,finance,,,,POINT (77.2217935 28.6319496)
Select Hotel,hotel,28.6308041,77.2244524,osm,,,,,,,,,,,,hotel,,,,,,,,,,,,,,,,,,,,,,,,,,,,,,,,,,,,,,,,,,,,,,,,,,,,,,,,,,,,,,,,,,,,,,,,,,,,,,,,,,,,,,,,,,,,,,,,,,,,,,,,,,,,,,,,,,,,,,,,,,,,,,,,,,,,,,,,,,,,,,,,,,,,,,,,,,,,,,,,,,,,,,,,,,,,,,,,,,,,,,,,,,,,,,,,,,,,,,,,,,,,,,,,,,,,,,hospitality,,,,POINT (77.2244524 28.6308041)
Hotel Alka Annexe,hotel,28.6320913,77.2226246,osm,,,,,,,,,,,,hotel,,,,,,,,,,,,,,,,,,,,,,,,,,,,,,,,,,,,,,,,,,,,,,,,,,,,,,,,,,,,,,,,,,,,,,,,,,,,,,,,,,,,,,,,,,,,,,,,,,,,,,,,,,,,,,,,,,,,,,,,,,,,,,,,,,,,,,,,,,,,,,,,,,,,,,,,,,,,,,,,,,,,,,,,,,,,,,,,,,,,,,,,,,,,,,,,,,,,,,,,,,,,,,,,,,,,,,hospitality,,,,POINT (77.2226246 28.6320913)
State Bank of India,bank,28.6322316,77.2223143,osm,bank,yes,State Bank of India,Q1340361,,,,,,,,,,,,SBI,,,,,,,,,,,,,,,,,,,,,,,,,,,,,,,,,,,,,,,,,,,,,,,,,,,,,,,,,,,,,,,,,,,,,,,,,,,,,,,,,,,,,,,,,,,,,,,,,,,,,,,,,,,,,,,,,,,,,,,,,,,,,,,,,,,,,,,,,,,,,,,,,,,,,,,,,,,,,,,,,,,,,,,,,,,,,,,,,,,,,,,,,,,,,,,,,,,,,,,,,,,,,,,,,,finance,,,,POINT (77.2223143 28.6322316)
Holiday Inn Hotels and Resorts,hotel,28.6312552,77.2209768,osm,,,Holiday Inn,Q2717882,,,,,,,,hotel,,,,,,,,,,,,,,,,,,,,,,,,,,,,,,,,,,,,,,,,,,,,,,,,,,,,,,,,,,,,,,,,,,,,,,,,,,,,,,,,,,,,,,,,,,,,,,,,,,,,,,,,,,,,,,,,,,,,,,,,,,,,,,,,,,,,,,,,,,,,,,,,,,,,,,,,,,,,,,,,,,,,,,,,,,,,,,,,,,,,,,,,,,,,,,,,,,,,,,,,,,,,,,,,,,,,,,hospitality,,,,POINT (77.2209768 28.6312552)
Amour Bistro,cafe,28.6016349,77.1859966,osm,cafe,,,,,,,,,,,,,,,,,,,,,,,,,,,,,,,,,,,,,,,,,,,,,,,,,,,,,,,,,,,,,,,,,,,,,,,,,,,,,,,,,,,,,,,,,,,,,,,,,,,,,,,,,,,,,,,,,,,,,,,,,,,,,,,,,,,,,,,,,,,,,,,,,,,,,,,,,,,,,,,,,,,,,,,,,,,,,,,,,,,,,,,,,,,,,,,,,,,,,,,,,,,,,,,,,,,,,,,,,,,,,,,,,cafe,,,,POINT (77.1859966 28.6016349)
Hotel Lal's Haveli,hotel,28.64597,77.2112119,osm,,,,,,,http://hotellalhaveli.com,Delhi,110055,Nabi Karim Road,+9123614067,hotel,,,,,,,,,,,,,,,,,,,,8892,,,,,,,,,,,,,,,,,,,,,,,,,,,,,,,,,,,,,,,,,,,,,,,no,,,,,,,,,,,,,,,,,,,,,,,,,,,,,,,,,,,,,,,,,,,,,,,,,,,,,,,,,,,,,,,,,,,,,,,,,,,,,,,,,,,,,,,,,,,,,,,,,,,,,,,,,,,,,,,,,,,,,,,,,,,,,,,,,,,,,,,,,,,,,,,,,,,hospitality,,,,POINT (77.2112119 28.64597)
Surbhi hospital,other,28.6491348,77.2164415,osm,hospital,,,,,,,New Delhi,201301,Qutab Road,,,,,,,,,,,,,,,,,,,,,,15,,,,,,,,,,,,,,,,,,,,,,,,,,,,,,,,,,,,,,,,,,,,,,,,,,,,,,,,,,,,,,,,,,,,,,,,,,,,,,,,,,,,,,,,,,,,,,,,,,,,,,,,,,,,,,,,,,,,,,,,,,,,,,,,,,,,,,,,,,,,,,,,,,,,,,,,,,,,,,,,,,,,,,,,,,,,,,,,,,,,,,,,,,,,,,,,,,other,,,,POINT (77.2164415 28.6491348)
Unknown,hotel,28.6490936,77.2170457,osm,,,,,,,,,,,,hotel,,,,,,,,,,,,,,,,,,,,,,,,,,,,,,,,,,,,,,,,,,,,,,,,,,,,,,,,,,,,,,,,,,,,,,,,,,,,,,,,,,,,,,,,,,,,,,,,,,,,,,,,,,,,,,,,,,,,,,,,,,,,,,,,,,,,,,,,,,,,,,,,,,,,,,,,,,,,,,,,,,,,,,,,,,,,,,,,,,,,,,,,,,,,,,,,,,,,,,,,,,,,,,,,,,,,,,hospitality,,,,POINT (77.2170457 28.6490936)
Hotel Grand Park Inn,hotel,28.646953,77.1958002,osm,,,,,,,,,,,,hotel,,,,,,,,,,,,,,,,,,,,,,,,,,,,,,,,,,,,,,,,,,,,,,,,,,,,,,,,,,,,,,,,,,,,,,,,,,,,,,,,,,,,,,,,,,,,,,,,,,,,,,,,,,,,,,,,,,,,,,,,,,,,,,,,,,,,,,,,,,,,,,,,,,,,,,,,,,,,,,,,,,,,,,,,,,,,,,,,,,,,,,,,,,,,,,,,,,,,,,,,,,,,,,,,,,,,,,hospitality,,,,POINT (77.1958002 28.646953)
Hotel City Star,hotel,28.6447365,77.214923,osm,,,,,,,https://www.hotel-citystar.com/,,,Deshbandu Gupta Road,,hotel,,,,,,,,,,,,,,,,,,,,8718,,,,,,,,,,,,,,,,,,Mo-Su 00:00-23:59,,Q111402172,,,,,,,,,,,,,,,,,,,,,,,,,,,,,,,,,,,,,,,,,,,,,,,,,,,,,,,,,,,,,,,,,,,,,,,,,,,,,,,,,,,,,,,,,,,,,,,,,,,,,,,,,,,,,,,,,,,,,,,,,,,,,,,,,,,,,,,,,,,,,,,,,,,,,,,,,,,,,,,,,,,,,,,,,,,,,,hospitality,,,,POINT (77.214923 28.6447365)
The Colonnade,restaurant,28.6342635,77.2190699,osm,restaurant,,,,,,,,110001,Inner Circle,,,,,,,,yes,no,,,,yes,,,,,,,,,B-23,Connaught Place,,,,,no,,,,,,,,,,,,,,,,,,,0,,B,,,,,,,,,,,,,,yes,,,,yes,,separated,,,,,,,,,,,,,,,,,,,,,,,,,,,,,,,,,,,,,,,,,,,,,,,,,,,,,,,,,,,,,,,,,,,,,,,,,,,,,,,,,,,,,,,,,,,,,,,,,,,,,,,,,,,,,,,,,,,,,,,,,,,,,,,,,,,,,,,,,,,,,,,,,,,restaurant,,,,POINT (77.2190699 28.6342635)
Gola,restaurant,28.6352724,77.220127,osm,restaurant,,,,,,,,,,,,,,,,,yes,,,,,yes,,,,,,,,,,,,,,,,,,,,,,,,,,,,,,,,,,,,,,,,,,,,,,,,,,,,,,,,,,,,,,,,,,,,,,,,,,,,,,,,,,,,,,,,,,,,,,,,,,,,,,,,,,,,,,,,,,,,,,,,,,,,,,,,,,,,,,,,,,,,,,,,,,,,,,,,,,,,,,,,,,,,,,,,,,,,,,,,,,,,,,,,,,,,,,,,,,,,,,,,,,,restaurant,,,,POINT (77.220127 28.6352724)
R. S. Medicos,pharmacy,28.6467075,77.2129328,osm,pharmacy,,,,,,,,,,,,,,,,,,,,,,,,,,,,,,,,,,,,,,,,,,,,,,,,,,,,,,,,,,,,,,,,,,,,,,,,,,,,,,,,,,,,,,,,,,,,,,,,,,,,,,,,,,,,,,,,,,,,,,,,,,,,,,,,,,,,,,,,,,,,,,,,,,,,,,,,,,,,,,,,,,,,,,,,,,,,,,,,,,,,,,,,,,,,,,,,,,,,,,,,,,,,,,,,,,,,,,,,,,,,,,,,,healthcare,,,,POINT (77.2129328 28.6467075)
White House,hotel,28.6467605,77.2130323,osm,,,,,,,,,,,,hotel,,,,,,,,,,,,,,,,,,,,,,,,,,,,,,,,,,,,,,,,,,,,,,,,,,,,,,,,,,,,,no,,,,,,,,,,,,,,,,,,,,,,,,,,,,,,,,,,,,,,,,,,,,,,,,,,,,,,,,,,,,,,,,,,,,,,,,,,,,,,,,,,,,,,,,,,,,,,,,,,,,,,,,,,,,,,,,,,,,,,,,,,,,,,,,,,,,,,,,,,,,,,,,,,,,,,,,,hospitality,,,,POINT (77.2130323 28.6467605)
Shell Deluxe,hotel,28.646794,77.2128902,osm,,,,,,,,,,,,hotel,,,,,,,,,,,,,,,,,,,,,,,,,,,,,,,,,,,,,,,,,,,,,,,,,,,,,,,,,,,,,,,,,,,,,,,,,,,,,,,,,,,,,,,,,,,,,,,,,,,,,,,,,,,,,,,,,,,,,,,,,,,,,,,,,,,,,,,,,,,,,,,,,,,,,,,,,,,,,,,,,,,,,,,,,,,,,,,,,,,,,,,,,,,,,,,,,,,,,,,,,,,,,,,,,,,,,,hospitality,,,,POINT (77.2128902 28.646794)
Bhagwati Medicos,pharmacy,28.6467013,77.2132438,osm,pharmacy,,,,,,,,,,,,,,,,,,,,,,,,,,,,,,,,,,,,,,,,,,,,,,,,,,,,,,,,,,,,,,,,,,,,,,,,,,,,,,,,,,,,,,,,,,,,,,,,,,,,,,,,,,,,,,,,,,,,,,,,,,,,,,,,,,,,,,,,,,,,,,,,,,,,,,,,,,,,,,,,,,,,,,,,,,,,,,,,,,,,,,,,,,,,,,,,,,,,,,,,,,,,,,,,,,,,,,,,,,,,,,,,,healthcare,,,,POINT (77.2132438 28.6467013)
Unknown,pharmacy,28.6466897,77.2128151,osm,pharmacy,,,,,,,,,,,,,,,,,,,,,,,,,,,,,,,,,,,,,,,,,,,,,,,,,,,,,,,,,,,,,,,,,,,,,,,,,,,,,,,,,,,,,,,,,,,,,,,,,,,,,,,,,,,,,,,,,,,,,,,,,,,,,,,,,,,,,,,,,,,,,,,,,,,,,,,,,,,,,,,,,,,,,,,,,,,,,,,,,,,,,,,,,,,,,,,,,,,,,,,,,,,,,,,,,,,,,,,,,,,,,,,,,healthcare,,,,POINT (77.2128151 28.6466897)
Amax Inn,hotel,28.6467628,77.2135529,osm,,,,,,,http://www.hotelamax.com/,,,Arakashan Road,+91-11-23543813,hotel,,,,,,,,,,,,,,,,,,,,8145/6,,,,,+91-11-23557412,,,,,,,,,,,,,,,,,,,,,,,,,,,,,,,,,,,,,,,,,,,,,,,,,,,,,,,,,,,,,,,,,,,,,,,,,,,,,,,,,,,,,,,,,,,,,,,,,,,,,,,,,,,,,,,,,,,,,,,,,,,,,,,,,,,,,,,,,,,,,,,,,,,,,,,,,,,,,,,,,,,,,,,,,,,,,,,,,,,,,,,,,,,,,hospitality,,,,POINT (77.2135529 28.6467628)
Hotel S&b East Inn,hotel,28.6444725,77.1763258,osm,,,,,,,,,,,,hotel,,,,,,,,,,,,,,,,,,,,,,,,,,,,,,,,,,,,,,,,,,,,,,,,,,,,,,,,,,,,,,,,,,,,,,,,,,,,,,,,,,,,,,,,,,,,,,,,,,,,,,,,,,,,,,,,,,,,,,,,,,,,,,,,,,,,,,,,,,,,,,,,,,,,,,,,,,,,,,,,,,,,,,,,,,,,,,,,,,,,,,,,,,,,,,,,,,,,,,,,,,,,,,,,,,,,,,hospitality,,,,POINT (77.1763258 28.6444725)
Fat Lulu's,restaurant,28.5996402,77.2262942,osm,restaurant,,,,,,,,,,,,,,,,,,,,,,,,,,,wlan,,,,,,,,,,,,,,,,,,,,,,,,,,,,,,,,,,,,,,,,,2023-01-20,,,,,,,,,,,,,,,,,,,,,,,,,,,,,,,,,,,,,,,,,,,,,,,,,,,,,,,,,,,,,,,,,,,,,,,,,,,,,,,,,,,,,,,,,,,,,,,,,,,,,,,,,,,,,,,,,,,,,,,,,,,,,,,,,,,,,,,,,,,,,,,,,,,,,,,,,,,,,restaurant,,,,POINT (77.2262942 28.5996402)
Bloomrooms,hotel,28.6455153,77.2177757,osm,,,,,,,http://bloomrooms.com/hotels-railwayst.php,New Delhi,110055,Arakashan Road,+91 11 412 25666,hotel,,,,,,,,,,,,,,,,wlan,,,,8591,,,,,,,,,,,,,,,,,,,,,,,,,,,,,,,,,,,,,,,,,,,,,,,no,,,,,,,,,,,,,,,,,,,,,,,,,,,,,,,,,,,,,,,,,,,,,,,,,,,,,,,,,,,,,,,,,,,,,,,,,,,,,,,,,,,,,,,,,,,,,,,,,,,,,,,,,,,,,,,,,,,,,,,,,,,,,,,,,,,,,,,,,,,,,,,,,,,hospitality,,,,POINT (77.2177757 28.6455153)
Unknown,bank,28.6294722,77.2129442,osm,bank,,Ratnakar Bank Limited,,,,,,,,,,,,,,,,,,,,,,,,,,,,,,,,,,,,,,,,,,,,,,,,,,,,,,,,,,,,,,,,,,,,,,,,,,,,,,Capital Point,RNL Bank,,,,,,,,,,,,,,,,,,,,,,,,,,,,,,,,,,,,,,,,,,,,,,,,,,,,,,,,,,,,,,,,,,,,,,,,,,,,,,,,,,,,,,,,,,,,,,,,,,,,,,,,,,,,,,,,,,,,,,,,,,,,,,,,,,,,,,,,,,,,,,,,finance,,,,POINT (77.2129442 28.6294722)
Unknown,bank,28.6321307,77.2163119,osm,bank,,,,,,,,,,,,,,,,,,,,,,,,,,,,,,,,,,,,,,,,,,,,,,,,,,,,,,,,,,,,,,,,,,,,,,,,,,,,,,,,,,,,,,,,,,,,,,,,,,,,,,,,,,,,,,,,,,,,,,,,,,,,,,,,,,,,,,,,,,,,,,,,,,,,,,,,,,,,,,,,,,,,,,,,,,,,,,,,,,,,,,,,,,,,,,,,,,,,,,,,,,,,,,,,,,,,,,,,,,,,,,,,,finance,,,,POINT (77.2163119 28.6321307)
Bharat Petroleum,fuel,28.6288906,77.210219,osm,fuel,,Bharat Petroleum,Q854826,,,,,,,,,,,,,,,,,,,,,,,,,,,,,,,,,,,,,,,,,,,,,,,,,,,,,,,,,,,,,,,,,,,,,,,,,,,,,,,,,,,,,,,,,,,,,,,,,,,,,,,,,,,,,,,,,,,,,,,,,,,,,,,,,,,,,,,,,,,,,,,,,,,,,,,,,,,,,,,,,,,,,,,,,,,,,,,,,,,,,,,,,,,,,,,,,,,,,,,,,,,,,,,,,,,,,,,,,,,,,,other,,,,POINT (77.210219 28.6288906)
Unknown,bank,28.6333793,77.2076665,osm,bank,,,,,,,,,,,,,,,,,,,,,,,,,,,,,,,,,,,,,,,,,,,,,,,,,,,,,,,,,,,,,,,,,,,,,,,,,,,,,,,,,,,,,,,,,,,,,,,,,,,,,,,,,,,,,,,,,,,,,,,,,,,,,,,,,,,,,,,,,,,,,,,,,,,,,,,,,,,,,,,,,,,,,,,,,,,,,,,,,,,,,,,,,,,,,,,,,,,,,,,,,,,,,,,,,,,,,,,,,,,,,,,,,finance,,,,POINT (77.2076665 28.6333793)
Odeon sweets,restaurant,28.6334275,77.2080471,osm,restaurant,,,,,,,,,,,,,,,,,,,,,,,,,,,,,,,,,,,,,,,,,,,,,,,,,,,,,,,,,,,,,,,,,,,,,,,,,,,,,,,,,,,,,,,,,,,,,,,,,,,,,,,,,,,,,,,,,,,,,,,,,,,,,,,,,,,,,,,,,,,,,,,,,,,,,,,,,,,,,,,,,,,,,,,,,,,,,,,,,,,,,,,,,,,,,,,,,,,,,,,,,,,,,,,,,,,,,,,,,,,,,,,,,restaurant,,,,POINT (77.2080471 28.6334275)
Imly,restaurant,28.645305,77.1785622,osm,restaurant,,,,,,,,,,,,,,,,,,,,,,,,,,,,,,,,,,,,,,,,,,,,,,,,,,,,,,,,,,,,,,,,,,,,,,,,,,,,,,,,,,,,,,,,,,,,,,,,,,,,,,,,,,,,,,,,,,,,,,,,,,,,,,,,,,,,,,,,,,,,,,,,,,,,,,,,,,,,,,,,,,,,,,,,,,,,,,,,,,,,,,,,,,,,,,,,,,,,,,,,,,,,,,,,,,,,,,,,,,,,,,,,,restaurant,,,,POINT (77.1785622 28.645305)
Hotel City Heights,hotel,28.6410598,77.2143437,osm,,,,,,,,,,,,hotel,,,,,,,,,,,,,,,,,,,,,,,,,,,,,,,,,,,,,,,,,,,,,,,,,,,,,,,,,,,,,,,,,,,,,,,,,,,,,,,,,,,,,,,,,,,,,,,,,,,,,,,,,,,,,,,,,,,,,,,,,,,,,,,,,,,,,,,,,,,,,,,,,,,,,,,,,,,,,,,,,,,,,,,,,,,,,,,,,,,,,,,,,,,,,,,,,,,,,,,,,,,,,,,,,,,,,,hospitality,,,,POINT (77.2143437 28.6410598)
Malhotra,restaurant,28.6410445,77.2105515,osm,restaurant,,,,,,,,,,,,,,,,,,,,,,,,,,,,,,,,,,,,,,,,,,,,,,,,,,,,,,,,,,,,,,,,,,,,,,,,,,,,,,,,,,,,,,,,,,,,,,,,,,,,,,,,,,,,,,,,,,,,,,,,,,,,,,,,,,,,,,,,,,,,,,,,,,,,,,,,,,,,,,,,,,,,,,,,,,,,,,,,,,,,,,,,,,,,,,,,,,,,,,,,,,,,,,,,,,,,,,,,,,,,,,,,,restaurant,,,,POINT (77.2105515 28.6410445)
Sam's Cafe,restaurant,28.6410923,77.2126799,osm,restaurant,,,,,,,,,,,,,,,,,,,,,,,,,,,,,,,,,,,,,,,,,,,,,,,,,,,,,,,,,,,,,,,,,,,,,,,,,,,,,,,,,,,,,,,,,,,,,,,,,,,,,,,,,,,,,,,,,,,,,,,,,,,,,,,,,,,,,,,,,,,,,,,,,,,,,,,,,,,,,,,,,,,,,,,,,,,,,,,,,,,,,,,,,,,,,,,,,,,,,,,,,,,,,,,,,,,,,,,,,,,,,,,,,restaurant,,,,POINT (77.2126799 28.6410923)
Starbucks,cafe,28.6302915,77.2204826,osm,cafe,,Starbucks,Q37158,,,,,,,,,,,,,coffee_shop,yes,no,,,,,,,,,wlan,,,,,,,,,,limited,,,,,,,,اسٹاربکس,,no,,Mo-Su 08:15-01:00,,,,,,,0;1,,,ਸਟਾਰਬਕਸ,اسٹاربکس,en:Starbucks,ਸਟਾਰਬਕਸ,Starbucks Coffee,ਸਟਾਰਬਕਸ ਕੌਫੀ,اسٹاربکس کافی,yes,,,,,,,,,,,,no,,,,,,,,,,,,,,,,,,,,,,,,,,,,,,,,,,,,,,,,,,,,,,,,,,,,,,,,,,,,,,,,,,,,,,,,,,,,,,,,,,,,,,,,,,,,,,,,,,,,,,,,,,,,,,,,,,,,,,,,,,,,,,,,,,,,,,,,,,,,,,,,,,,cafe,,,,POINT (77.2204826 28.6302915)
Festa Cafe ,cafe,28.6409134,77.2104527,osm,cafe,,,,,,,,,,,,,,,,,,,,,,,,,,,,,,,,,,,,,,,,,,,,,,,,,,,,,,,,,,,,,,,,,,,,,,,,,,,,,,,,,,,,,,,,,,,,,,,,,,,,,,,,,,,,,,,,,,,,,,,,,,,,,,,,,,,,,,,,,,,,,,,,,,,,,,,,,,,,,,,,,,,,,,,,,,,,,,,,,,,,,,,,,,,,,,,,,,,,,,,,,,,,,,,,,,,,,,,,,,,,,,,,,cafe,,,,POINT (77.2104527 28.6409134)
Smyle Inn,hotel,28.6416911,77.2147016,osm,,,,,,,https://www.smyleinn.com,New Delhi,110055,Gali Chandi Wali,+911145795192,hotel,,,,,,,,,,,,,,,,wlan,,,,916,,smyleinn@hotmail.com,,,,no,,,,,,1,,,,no,,24/7,,,,,,,,,,,,,,,,,,,,,recommended,,yes,,,,,,outside,,,,CENTRAL DELHI,no,SmyleInn,+91 9999276591,yes,yes,yes,yes,yes,yes,35,,,,,,,,,,,,,,,,,,,,,,,,,,,,,,,,,,,,,,,,,,,,,,,,,,,,,,,,,,,,,,,,,,,,,,,,,,,,,,,,,,,,,,,,,,,,,,,,,,,,,,,,,,,,,,,,,,,,,,,,,,,,,,,,,,,,,hospitality,,,,POINT (77.2147016 28.6416911)
Shangri-La's Eros Hotel,hotel,28.6210244,77.2178611,osm,,,,,,,https://www.shangri-la.com/newdelhi/erosshangrila/,New Delhi,110001,Ashoka Road,+91 11 41191919,hotel,,,,,,,,,,,,,,,,,,,,19,,,,,,,,,,,,,,,,,,,,,,,,,,,,,,,,,,,,,,,,,,,,,,,,,,,,,,,,,,,,,,,,,,,,,,,,,,,,,,,,,,,,,,,,,,,,,,,,,,,,,,,,,,,,,,,,,,,,,,,,,,,,,,,,,,,,,,,,,,,,,,,,,,,,,,,,,,,,,,,,,,,,,,,,,,,,,,,,,,,,,,,,,,,,,,,,,,hospitality,,,,POINT (77.2178611 28.6210244)
the spot,hotel,28.6417585,77.2152429,osm,,,,,,,www.hotelthespot.in,,110055,Gali Chandi Wali,91-11-23580168/69,hotel,,,,,,,,,,,,,,,,wlan,,,,867-868,,hotelthespot@ymail.com,,,,,,,,,,,,,,,,,,,,,,,,,,,,,,,,,,,,,,,,,,,,,,,,,,,,,,,,,,,,,,,,,,,,,,,,,,,,,,,,,,,,,,,,,,,,,,,,,,,,,,,,,,,,,,,,,,,,,,,,,,,,,,,,,,,,,,,,,,,,,,,,,,,,,,,,,,,,,,,,,,,,,,,,,,,,,,,,,,,,,,,,,,,,,,,,hospitality,,,,POINT (77.2152429 28.6417585)
Kitchen Cafe Roof Top,cafe,28.6409875,77.2128901,osm,cafe,,,,,,,,110055,Main Bazaar,,,,,,,,,,,,,,,,,,,,,,,,,,,,,,,,,,,,,,,,,,,,,,,,,,,,,,,,,,,,,,,,,,,,,,,,,,,,,,,,,,,,,,,,,,,,,,,,,,,,,,,,,,,,,,,,,,,,,,,,,,,,,,,,,,,,,,,,,,,,,,,,,,,,,,,,,,,,,,,,,,,,,,,,,,,,,,,,,,,,,,,,,,,,,,,,,,,,,,,,,,,,,,,,,,,,,,,,cafe,,,,POINT (77.2128901 28.6409875)
Café office office,cafe,28.6269741,77.2202933,osm,cafe,,,,,,,,,,,,,,,,,,,,,,,,,,,wlan,,,,,,,,,,,,,,,,,,,,,,,,,,,,,,,,,,,,,,,,,,,,,,,,,,,,,,,,,,,,,,,,,,,,,,,,,,,,,,,,,,,,,,,,,,,,,,,,,,,,,,,,,,,,,,,,,,,,,,,,,,,,,,,,,,,,,,,,,,,,,,,,,,,,,,,,,,,,,,,,,,,,,,,,,,,,,,,,,,,,,,,,,,,,,,,,,,,,,,cafe,,,,POINT (77.2202933 28.6269741)
HOTEL PALACE HEIGHTS,hotel,28.6335783,77.2212231,osm,,,,,,,,New Delhi,110001,Radial Road 6,,hotel,,,,,,,,,,,,,,,,,,,,D-26/28,,,,,,,,,,,,3,,,,,,,,,,,,,,,,,,,,,,,,,,,,,,,,,,,,,,,,,,,,,,,,,,,,,,,,,,,,,,,,,,,,,,,,,,,,,,,,,,,,,,,,,,,,,,,,,,,,,,,,,,,,,,,,,,,,,,,,,,,,,,,,,,,,,,,,,,,,,,,,,,,,,,,,,,,,,,,,,,,,,,,,,,,,,,,,,,,,,,hospitality,,,,POINT (77.2212231 28.6335783)
Zaffran,restaurant,28.6337656,77.2213244,osm,restaurant,,,,,,,New Delhi,110001,Radial Road No.6,,,,,,,regional,,,,,,,,,,,,,,,26/28,,,,,,,D,,,,,,,,,,,,,,,,,,0,,,,,,,,,,,,,,,,,,,,,,,,,,,,,,,,,,,,,Zaffran,,,,,,,,,,,,,,,,,,,,,,,,,,,,,,,,,,,,,,,,,,,,,,,,,,,,,,,,,,,,,,,,,,,,,,,,,,,,,,,,,,,,,,,,,,,,,,,,,,,,,,,,,,,,,,,,,,,,,,,,,,,,,,,,,,,,restaurant,,,,POINT (77.2213244 28.6337656)
Barbeque Nation,restaurant,28.6303156,77.2206535,osm,restaurant,,,,,,,New Delhi,110001,"2nd Floor, Munshi Lal Building, Connaught Place",,,,,,,regional,yes,,,,,,,,,,,,,,N-96,,,,,,,,,,,,,,,,,,,,,,,,,,,,,,,,,,,,,,,,,,,,,,,,,,,,,,,,,,,,,,,,,,,,,,,,,,,,,,,,,,,,,,,,,,,,,,,,,,,,,,,,,,,,,,,,,,,,,,,,,,,,,,,,,,,,,,,,,,,,,,,,,,,,,,,,,,,,,,,,,,,,,,,,,,,,,,,,,,,,,,,,,,,,,,,,,,restaurant,,,,POINT (77.2206535 28.6303156)
Nepali Food,restaurant,28.6411171,77.2144269,osm,restaurant,,,,,,,,,,,,,,,,,,,,,,,,,,,,,,,,,,,,,,,,,,,,,,,,,,,,,,,,,,,,,,,,,,,,,,,,,,,,,,,,,,,,,,,,,,,,,,,,,,,,,,,,,,,,,,,,,,,,,,,,,,,,,,,,,,,,,,,,,,,,,,,,,,,,,,,,,,,,,,,,,,,,,,,,,,,,,,,,,,,,,,,,,,,,,,,,,,,,,,,,,,,,,,,,,,,,,,,,,,,,,,,,,restaurant,,,,POINT (77.2144269 28.6411171)
Punjab National Bank,bank,28.6316411,77.2215631,osm,bank,,Punjab National Bank,Q2743499,Punjab National Bank,,https://www.pnbindia.in,,,,,,,,,PNB,,,,,,,,,,,,,,,,,,,,,,,,,,,,,,,,,,,,,,,,,,,,,,,,,,,,,,,,,,,,,,,,,,,,,,,,,,,,,,,,,,,,,,,,,,,,,,,,,,,,,,,,,,,,,,,,,,,,,,,,,,,,,,,,,,,,,,,,,,,,,,,,,,,,,,,,,,,,,,,,,,,,,,,,,,,,,,,,,,,,,,,,,,,,,,,,,,,,,,,,,,,,,,,,,,finance,,,,POINT (77.2215631 28.6316411)
Malhotra,restaurant,28.6408661,77.2103053,osm,restaurant,,,,,,,,,,,,,,,,,,,,,,,,,,,,,,,,,,,,,,,,,,,,,,,,,,,,,,,,,,,,,,,,,,,,,,,,,,,,,,,,,,,,,,,,,,,,,,,,,,,,,,,,,,,,,,,,,,,,,,,,,,,,,,,,,,,,,,,,,,,,,,,,,,,,,,,,,,,,,,,,,,,,,,,,,,,,,,,,,,,,,,,,,,,,,,,,,,,,,,,,,,,,,,,,,,,,,,,,,,,,,,,,,restaurant,,,,POINT (77.2103053 28.6408661)
Hotel Sunstar Grand,hotel,28.6462138,77.1841285,osm,,,,,Hotel Sunstar Grand,,,,,Guru Nanak Marg,,hotel,,,,,,,,,,,,,,,,,,,,7A/17,,,,,,,,,,,Hotel Sunstar Grand,,,,,,,,,Q111119741,,,,,,,,,,,,,,,,,,,,,,,,,,,,,,,,,,,,,,,,,,,,,,,,,,,,,,,,,,,,,,,,,,,,,,,,,,,,,,,,,,,,,,,,,,,,,,,,,,,,,,,,,,,,,,,,,,,,,,,,,,,,,,,,,,,,,,,,,,,,,,,,,,,,,,,,,,,,,,,,,,,,,,,,,,,,,,hospitality,,,,POINT (77.1841285 28.6462138)
Pind Balluchi,restaurant,28.6303463,77.217545,osm,restaurant,,,,,,https://www.pindballuchi.com/,New Delhi,,Sansad Marg,,,,,,,punjabi,,,,,,,,,,,,,,,13,,,,,,,,,,,,,,,,,,Mo-Su 12:00-23:00,Pind Baluchi,,,,,,,,,,,,,,,,,,,,,,,,,,,,,,,,,,,,,,,,,,,,پیند بلوچی,,,,,,,,,,,,,,,,,,,,,,,,,,,,,,,,,,,,,,,,,,,,,,,,,,,,,,,,,,,,,,,,,,,,,,,,,,,,,,,,,,,,,,,,,,,,,,,,,,,,,,,,,,,,,,,,,,,,,,,,,,,,,,,,,,,restaurant,,,,POINT (77.217545 28.6303463)
Unknown,restaurant,28.5995342,77.2251048,osm,restaurant,,,,,,http://khanchancha.in,,,Khan Market,,,,,,,,,,,,,,,,,,,,,,50,,,,,,,,,,,,,,,,,,,Khan Chancha,,,,,,,,,,,,,,,,,,,,,,,,,,,,,,,,,,,,,,,,,,,,,,,,,,,,,,,,,,,,,,,,,,,,,,,,,,,,,,,,,,,,,,,,,,,,,,,,,,,,,,,,,,,,,,,,,,,,,,,,,,,,,,,,,,,,,,,,,,,,,,,,,,,,,,,,,,,,,,,,,,,,,,,,,,,,,,,restaurant,,,,POINT (77.2251048 28.5995342)
Rajdhani,restaurant,28.6298048,77.2204846,osm,restaurant,,,,,,https://www.rajdhani.co.in/,,,,,,,,,,,,,,,,,,,,,,,,,,Connaught Place,,,,,,,,,,,,,,,,,,,,,,Shop 9A,,,,"Atmaram Mansion, Scindia House",,,,,,,,,,,,,,,,,,,,,,,,,,,,,,,,,,,,,,,,,,,,,,,,,,,,,,,,,,,,,,,,,,,,,,,,,,,,,,,,,,,,,,,,,,,,,,,,,,,,,,,,,,,,,,,,,,,,,,,,,,,,,,,,,,,,,,,,,,,,,,,,,,,,,,,,,,,,,,,,,,,,,,,restaurant,,,,POINT (77.2204846 28.6298048)
Neelam Restaurant,restaurant,28.6420621,77.2179887,osm,restaurant,,,,,,,,,,,,,,,,,,,,,,,,,,,,,,,,,,,,,,,,,,,,,,,,,,,,,,,,,,,,,,,,,,,,,,,,,,,,,,,,,,,,,,,,,,,,,,,,,,,,,,,,,,,,,,,,,,,,,,,,,,,,,,,,,,,,,,,,,,,,,,,,,,,,,,,,,,,,,,,,,,,,,,,,,,,,,,,,,,,,,,,,,,,,,,,,,,,,,,,,,,,,,,,,,,,,,,,,,,,,,,,,,restaurant,,,,POINT (77.2179887 28.6420621)
Unknown,bank,28.6451684,77.1945193,osm,bank,,,,,State Bank of Mysore,,,,,,,,,,,,,,,,,,,,,,,,,,,,,,,,,,,,,,,,,,,,,,,,,,,,,,,,,,,,,,,,,,,,,,,,,,,,,,,,,,,,,,,,,,,,,,,,,,,,,,,,,,,,,,,,,,,,,,,,,,,,,,,,,,,,,,,,,,,,,,,,,,,,,,,,,,,,,,,,,,,,,,,,,,,,,,,,,,,,,,,,,,,,,,,,,,,,,,,,,,,,,,,,,,,,,,,,,,,,finance,,,,POINT (77.1945193 28.6451684)
Reliance Fresh,supermarket,28.645693,77.2108527,osm,,,Reliance Fresh,Q7311014,,,,,110055,Deshbandhu Gupta Road,02261220220,,,,,,,,,,,,,,,,supermarket,,,,,9008,,,,,,,,,,,Reliance Fresh,,,,,,,Mo-Su 07:00-22:00,,,,,,,,,,,,,,,,,,,,,,,,,,,,,,,,,,,,,,,,,,,,,,,,,,,,,,,,,,,,,,,,,,,,,,,,,,,,,,,,,,,,,,,,,,,,,,,,,,,,,,,,,,,,,,,,,,,,,,,,,,,,,,,,,,,,,,,,,,,,,,,,,,,,,,,,,,,,,,,,,,,,,,,,,,,,,,,,retail,,,,POINT (77.2108527 28.645693)
S.D. Public,other,28.6473887,77.169391,osm,school,,,,S.D. Public,,,,,,,,,,,,,,,,,,,,,,,,,,,,,,,,,,,,,,S.D. Public,,,,,,,,,,,,,,,,,,,,,,,,,,,,,,,,,,,,,,,,,,,,,,,,,,,,,,,,,,,,,,,,,,,,,,,,,,,,,,,,,,,,,,,,,,,,,,,,,,,,,,,,,,,,,,,,,,,,,,,,,,,,,,,,,,,,,,,,,,,,,,,,,,,,,,,,,,,,,,,,,,,,,,,,,,,,,,,,,,,,,,,other,,,,POINT (77.169391 28.6473887)
Metropolis Guest House,hotel,28.6399645,77.2100934,osm,,,,,Metropolis Guest House,,,,,,,hotel,,,,,,,,,,,,,,,,wlan,,,,,,,,,,,,,,,,,,,,,,,,,,,,,,,,,,,,,,,,,,,,,,,,,,,,,,,,,,,,,,,,,,,,,,,,,,,,,,,,,,,,,,,,,,,,,,,,,,,,,,,,,,,,,,,,,,,,,,,,,,,,,,,,,,,,,,,,,,,,,,,,,,,,,,,,,,,,,,,,,,,,,,,,,,,,,,,,,,,,,,,,,,,,,,,,,,,,,,hospitality,,,,POINT (77.2100934 28.6399645)
Canara Bank,bank,28.6223326,77.2361501,osm,bank,yes,Canara Bank,Q2003777,Canara Bank,,https://www.canarabank.com/,Delhi,110001,Bhagwan Das Road,,,,,,,,,,,,,,,,,,,,,,6,,,,,,,,,,,केनरा बैंक,,,کینرا بینک,,,,"Mo-Sa 10:00-14:00,14:30-15:30; Sa[2,4] closed; PH closed",,,,,,,,,,ਕੇਨਰਾ ਬੈਂਕ,کینرا بینک,en:Canara Bank,ਕੇਨਰਾ ਬੈਂਕ,,,,,,,,,,,,,,,,,,,,,,,,,,,,,,,,,Canara Bank,केनरा बैंक,ಕೆನರಾ ಬ್ಯಾಂಕ್,کینرا بینک,ਕੇਨਰਾ ਬੈਂਕ,Has a wheelchair ramp.,ಕೆನರಾ ಬ್ಯಾಂಕ್,کینرا بینک,,,,,,,,,,,,,,,,,,,,,,,,,,,,,,,,,,,,,,,,,,,,,,,,,,,,,,,,,,,,,,,,,,,,,,,,,,,,,,,,,,,,,,,,,,,,,,,,,,,,,,,,,,,,,,,,,,,,,,,,,,,finance,,,,POINT (77.2361501 28.6223326)
Smokeys,restaurant,28.6005777,77.2273349,osm,restaurant,,,,,,https://smokehousegrill.in/,,,"Khan Market, New Delhi",+911124611551,,,,,,barbecue,,,,,,,,,,,,,,,51-A,,contact.smokeys@gmail.com,,,,,,,,,,,,,,,,,,,,,,,,,,,,,,,,,,,2023-01-20,,,,,,,,,,,,,,,,,,,,,,,,,,,,,,,,,,,,,,,,,,,,,,,,,,,,,,,,,,,,,,,,,,,,,,,,,,,,,,,,,,,,,,,,,,,,,,,,,,,,,,,,,,,,,,,,,,,,,,,,,,,,,,,,,,,,,,,,,,,,,,,,,,,,,,,,,,,,,restaurant,,,,POINT (77.2273349 28.6005777)
Fa Yian The Chinese Restaurant,restaurant,28.6328293,77.2172007,osm,restaurant,,,,,,http://www.fayian.com,New Delhi,,,,,,,,,,yes,,,,,yes,,,,,,,,,,,,,,,,,,,,,,,,,,,,,,,,,,,,,,,,,,,,,,,,,,,,,,,,,,,,,,,,,,,,,,,,,,,,,,,,,,,,,,,,,,,,,,,,,,,,,,,,,,,,,,,,,,,,,,,,,,,,,,,,,,,,,,,,,,,,,,,,,,,,,,,,,,,,,,,,,,,,,,,,,,,,,,,,,,,,,,,,,,,,,,,,,,,,,,,,,,,restaurant,,,,POINT (77.2172007 28.6328293)
Kiran Hotel,hotel,28.6414626,77.2164508,osm,,,,,,,,,,,,hotel,,,,,,,,,,,,,,,,,,,,,,,,,,,,,,,,,,,,,,,,,,,,,,,,,,,,,,,,,,,,,,,,,,,,,,,,,,,,,,,,,,,,,,,,,,,,,,,,,,,,,,,,,,,,,,,,,,,,,,,,,,,,,,,,,,,,,,,,,,,,,,,,,,,,,,,,,,,,,,,,,,,,,,,,,,,,,,,,,,,,,,,,,,,,,,,,,,,,,,,,,,,,,,,,,,,,,,hospitality,,,,POINT (77.2164508 28.6414626)
L'Opera,bakery,28.5998152,77.2261697,osm,,,,,L'Opera,,https://loperaindia.com/,,,,,,,,,,,,,,,,,,,,bakery,,,,,,,,,,,,,,,,,,,,,,,,,,,,,,,,,,,,,,,,,,,,,,,,,,,,,,,,,,,,,,,,,,,,,,,,,,,,,,,,,,,,,,,,,,,,,,,,,,,,,,,,,,,,,,,,,,,,,,,,,,,,,,,,,,,,,,,,,,,,,,,,,,,,,,,,,,,,,,,,,,,,,,,,,,,,,,,,,,,,,,,,,,,,,,,,,,,,,,,other,,,,POINT (77.2261697 28.5998152)
Out Of The Box (OTB),cafe,28.5997702,77.2261911,osm,cafe,,,,OTB,,,,,,,,,,,,mexican;italian;lebanese;american;indian,,,,,,,,,,,,,,,,,,,,,,,,,,,,,,,,,,,,,,,,,,,,,,,,,,,,,,,,,,,,,,,,,,,,,,,,,,,,,,,,,,,,,,,,,,,,,,,,,,,,,,,,,,,,,,,,,,,,,,,,,,,,,,,,,,,,,,,,,,,,,,,,,,,,,,,,,,,,,,,,,,,,,,,,,,,,,,,,,,,,,,,,,,,,,,,,,,,,,,,,,,,,,,,,,cafe,,,,POINT (77.2261911 28.5997702)
State Bank of India,bank,28.6266262,77.2145324,osm,bank,yes,State Bank of India,Q1340361,State Bank of India,,,,,,,,,,,SBI,,,,,,,,,,,,,,,,,,,,,,,,,,,,,,,,,,,,,,,,,,,,,,,,,,,,,,,,,,,,,,,,,New Delhi,,,,,,,,,,,,,,,,,,,,,,,,,,,,,,,,,,,,,,,,,,,,,,,,,,,,,,,,,,,,,,,,,,,,,,,,,,,,,,,,,,,,,,,,,,,,,,,,,,,,,,,,,,,,,,,,,,,,,,,,,,,,,,,,,,,,,,,,,,,,,,,,,finance,,,,POINT (77.2145324 28.6266262)
Wow Cafe,restaurant,28.6412137,77.2147624,osm,restaurant,,,,Wow Cafe,,,,,,,,,,,,,,,,,,,,,,,,,,,,,,,,,,,,,,,,,,,,,,,,,,,,,,,,,,,,,,,,,,,,,,,,,,,,,,,,,,,,,,,,,,,,,,,,,,,와우카페 한식당,,,,,,,,,,,,,,,,,,,,,,,,,,,,,,,,,,,,,,,,,,,,,,,,,,,,,,,,,,,,,,,,,,,,,,,,,,,,,,,,,,,,,,,,,,,,,,,,,,,,,,,,,,,,,,,,,,,,,,,,,,restaurant,,,,POINT (77.2147624 28.6412137)
Hridey Inn,hotel,28.6407431,77.2123118,osm,,,,,Hridey Inn,,,,,,,hotel,,,,,,,,,,,,,,,,,,,,,,,,,,,,,,,,,,,,,,,,,,,,,,,,,,,,,,,,,,,,,,,,,,,,,,,,,,,,,,,,,,,,,,,,,,,,,,,,,,,,,,,,,,,,,,,,,,,,,,,,,,,,,,,,,,,,,,,,,,,,,,,,,,,,,,,,,,,,,,,,,,,,,,,,,,,,,,,,,,,,,,,,,,,,,,,,,,,,,,,,,,,,,,,,,,,,,,hospitality,,,,POINT (77.2123118 28.6407431)
Livasa Inn,hotel,28.6459,77.1832113,osm,,,,,Livasa Inn,,,,,,,hotel,,,,,,,,,,,,,,,,wlan,,,,,,,,,,,,,,,,,,,,,,,,,,,,,,,,,,,,,,,,,,,,,,,,,,,,,,,,,,,,,,,,,,,,,,,,,,,,,,,,,,,,,,,,,,,,,,,,,,,,,,,,,,,,,,,,,,,,,,,,,,,,,,,,,,,,,,,,,,,,,,,,,,,,,,,,,,,,,,,,,,,,,,,,,,,,,,,,,,,,,,,,,,,,,,,,,,,,,,hospitality,,,,POINT (77.1832113 28.6459)
Unknown,restaurant,28.6415909,77.2155347,osm,restaurant,,,,,,,,,,,,,,,,,,,,,,,,,,,,,,,,,,,,,,,,,,,,,,,,,,,,,,,,,,,,,,,,,,,,,,,,,,,,,,,,,,,,,,,,,,,,,,,,,,,,,,,인도방랑기,,,,,,,,,,,,,,,,,,,,,,,,,,,,,,,,,,,,,,,,,,,,,,,,,,,,,,,,,,,,,,,,,,,,,,,,,,,,,,,,,,,,,,,,,,,,,,,,,,,,,,,,,,,,,,,,,,,,,,,,,,restaurant,,,,POINT (77.2155347 28.6415909)
Unknown,restaurant,28.6098311,77.2323979,osm,restaurant,,,,,,,,,,,,,,,,,,,,,,,,,,,,,,,,,,,,,,,,,,,,,,,,,,,,,,,,,,,,,,,,,,,,,,,,,,,,,,,,,,,,,,,,,,,,,Restaurant OCTOPUS,,,,,,,,,,,,,,,,,,,,,,,,,,,,,,,,,,,,,,,,,,,,,,,,,,,,,,,,,,,,,,,,,,,,,,,,,,,,,,,,,,,,,,,,,,,,,,,,,,,,,,,,,,,,,,,,,,,,,,,,,,,,,,,,,,,,restaurant,,,,POINT (77.2323979 28.6098311)
Gulati,restaurant,28.6078499,77.2300673,osm,restaurant,,,,,,http://www.gulatirestaurant.in/,New Delhi,,Pandara Road Market,+91 112338 8836,,,,,,,,,,,,,,,,,,,,,6,,,,,,,,,,,,,,,,,,Mo-Su 12:00-24:00,,,,,,,,,,,,,,,,,,,,,,,,,,,,,,,,,,,,,,,,,,,,,,,,,,,,,,,,,,,,,,,,,,,,,,,,,,,,,,,,,,,,,,,,,,,,,,,,,,,,,,,,,,,,,,,,,,,,,,,,,,,,,,,,,,,,,,,,,,,,,,,,,,,,,,,,,,,,,,,,,,,,,,,,,,,,,,,,restaurant,,,,POINT (77.2300673 28.6078499)
U-Like,restaurant,28.6452167,77.2110064,osm,restaurant,,,,U-Like,,,,,,,,,,,,,,,,,,,,,,,,,,,,,,,,,,,,,,,,,,,,,,,,,,,,,,,,,,,,,,,,,,,,,,,,,,,,,,,,,,,,,,,,,,,,,,,,,,,,,,,,,,,,,,,,,,,,,,,,,,,,,,,,,,,,,,,,,,,,,,,,,,,,,,,,,,,,,,,,,,,,,,,,,,,,,,,,,,,,,,,,,,,,,,,,,,,,,,,,,,,,,,,,,,,,,,,,,,,,,restaurant,,,,POINT (77.2110064 28.6452167)
NATRAJ restaurant,restaurant,28.6424044,77.2103819,osm,restaurant,,,,NATRAJ restaurant,,,,,,,,,,,,,,,,,,,,,,,,,,,,,,,,,,,,,,,,,,,,,,,,,,,,,,,,,,,,,,,,,,,,,,,,,,,,,,,,,,,,,,,,,,,,,,,,,,,,,,,,,,,,,,,,,,,,,,,,,,,,,,,,,,,,,,,,,,,,,,,,,,,,,,,,,,,,,,,,,,,,,,,,,,,,,,,,,,,,,,,,,,,,,,,,,,,,,,,,,,,,,,,,,,,,,,,,,,,,,restaurant,,,,POINT (77.2103819 28.6424044)
Latitude,restaurant,28.6021414,77.2279557,osm,restaurant,,,,,,,,,,,,,,,,,,,,,,,,,,,,,,,,,,,,,,,,,,,,,,,,,,,,,,,,,,,,,,,,,,,,,,,,,,,,,,,,,,,,,,,,,,,,,,,,,,,,,,,,,,,,,,,,,,,,,,,,,,,,,,,,,,,,,,,,,,,,,,,,,,,,,,,,,,,,,,,,,,,,,,,,,,,,,,,,,,,,,,,,,,,,,,,,,,,,,,,,,,,,,,,,,,,,,,,,,,,,,,,,,restaurant,,,,POINT (77.2279557 28.6021414)
Biryani Blues,restaurant,28.6298227,77.2205834,osm,restaurant,,,,,,,,,,,,,,,,,,,,,,,,,,,,,,,,,,,,,,,,,,,,,,,,,,,,,,,,,,,,,,,,,,,,,,,,,,,,,,,,,,,,,,,,,,,,,,,,,,,,,,,,,,,,,,,,,,,,,,,,,,,,,,,,,,,,,,,,,,,,,,,,,,,,,,,,,,,,,,,,,,,,,,,,,,,,,,,,,,,,,,,,,,,,,,,,,,,,,,,,,,,,,,,,,,,,,,,,,,,,,,,,,restaurant,,,,POINT (77.2205834 28.6298227)
Jiwan Service Station,fuel,28.6045138,77.2245624,osm,fuel,,Bharat Petroleum,Q854826,,,,,,,,,,,,,,,,,,,,,,,,,,,,,,,,,,,,,,,,,,,,,,24/7,,,,,,,,,,,,,,,,,,,,,,,,,,,,,,,,,,,,,,,,,,,,,,,,,,,,,,,,,,,,,,,,,,,,,,,,,,,,,,,,,,,,,,,,,,,,,,,,,,,,,,,,,,,,,,,,,,,,,,,,,,,,,,,,,,,,,,,,,,,,,,,,,,,,,,,,,,,,,,,,,,,,,,,,,,,,,,,,other,,,,POINT (77.2245624 28.6045138)
Bikaner Bus Depot,bus_station,28.6086972,77.2302094,osm,bus_station,,,,,,,,,,,,,,,,,,,,,,,,yes,station,,,,,,,,,,,,,,,,,Bikaner Bus Depot,,,,,,,,,,,,,,,,,,,,,,,,,,,,,,,,,,,,,,,,,,,,,,,,,,,,,,,,,,,,,,,,,,,,,,,,,,,,,,,,,,,,,,,,,,,,,,,,,,,,,,,,,,,,,,,,,,,,,,,,,,,,,,,,,,,,,,,,,,,,,,,,,,,,,,,,,,,,,,,,,,,,,,,,,,,,,,,,,,,,,,,other,,,,POINT (77.2302094 28.6086972)
cosmo,hotel,28.6458511,77.1832931,osm,,,,,cosmo,,,,,,,hotel,,,,,,,,,,,,,,,,,,,,,,,,,,,,,,,,,,,,,,,,,,,,,,,,,,,,,,,,,,,,,,,,,,,,,,,,,,,,,,,,,,,,,,,,,,,,,,,,,,,,,,,,,,,,,,,,,,,,,,,,,,,,,,,,,,,,,,,,,,,,,,,,,,,,,,,,,,,,,,,,,,,,,,,,,,,,,,,,,,,,,,,,,,,,,,,,,,,,,,,,,,,,,,,,,,,,,,hospitality,,,,POINT (77.1832931 28.6458511)
Wenger's,bakery,28.6333804,77.21807,osm,,,,,,,https://wengers.in/,,110001,Inner Circle,+91-11-2332-8589,,,,,,,,,,,,,,,,bakery,,,,,,Connaught Place,,,,,,,,,,,,,,,,,,,,,,22,,,,A,,,,,,,,,,,,,,,,,,,,,,,,,,,,,,,,,,,,,,,,,,,,,,,,,,,,,,,,,,,,,,,,,,,,,,,,,,,,,,,,,,,,,,,,,,,,,,,,,,,,,,,,,,,,,,,,,,,,,,,,,,,,,,,,,,,,,,,,,,,,,,,,,,,,,,,,,,,,,,,,,,,,,,,other,,,,POINT (77.21807 28.6333804)
The Big Chill,bakery,28.5999121,77.2265009,osm,,,,,The Big Chill,,https://www.thebigchillonline.com/,,,,,,,,,,,,,,,,,,,,bakery,,,,,,,,,,,,,,,,,,,,,,,,,Q7717578,,en:The Big Chill Cafe,,,,,,,,,,,,,,,2023-01-20,,,,,,,,,,,,,,,,,,,,,,,,,,,,,,,,,,,,,,,,,,,,,,,,,,,,,,,,,,,,,,,,,,,,,,,,,,,,,,,,,,,,,,,,,,,,,,,,,,,,,,,,,,,,,,,,,,,,,,,,,,,,,,,,,,,,,,,,,,,,,,,,,,,,,,,,,,,,,other,,,,POINT (77.2265009 28.5999121)
Kaliva sweets and restaurant,bakery,28.6279577,77.2472775,osm,,,,,Kaliva sweets and restaurant,,,,,,,,,,,,,,,,,,,,,,bakery,,,,,,,,,,,,,,,,,,,,,,,,,,,,,,,,,,,,,,,,,,,,,,,,,,,,,,,,,,,,,,,,,,,,,,,,,,,,,,,,,,,,,,,,,,,,,,,,,,,,,,,,,,,,,,,,,,,,,,,,,,,,,,,,,,,,,,,,,,,,,,,,,,,,,,,,,,,,,,,,,,,,,,,,,,,,,,,,,,,,,,,,,,,,,,,,,,,,,,,other,,,,POINT (77.2472775 28.6279577)
The Oberoi Patisserie And Delicatessen,bakery,28.5967148,77.2398221,osm,,,,,The Oberoi Patisserie And Delicatessen,,,,,,,,,,,,,,,,,,,,,,bakery,,,,,,,,,,,,,,,,,,,,,,,,,,,,,,,,,,,,,,,,,,,,,,,,,,,,,,,,,,,,,,,,,,,,,,,,,,,,,,,,,,,,,,,,,,,,,,,,,,,,,,,,,,,,,,,,,,,,,,,,,,,,,,,,,,,,,,,,,,,,,,,,,,,,,,,,,,,,,,,,,,,,,,,,,,,,,,,,,,,,,,,,,,,,,,,,,,,,,,,other,,,,POINT (77.2398221 28.5967148)
Bikanerwala Sweet,bakery,28.6482466,77.1928613,osm,,,,,Bikanerwala Sweet,,,,,,,,,,,,,,,,,,,,,,bakery,,,,,,,,,,,,,,,,,,,,,,,,,,,,,,,,,,,,,,,,,,,,,,,,,,,,,,,,,,,,,,,,,,,,,,,,,,,,,,,,,,,,,,,,,,,,,,,,,,,,,,,,,,,,,,,,,,,,,,,,,,,,,,,,,,,,,,,,,,,,,,,,,,,,,,,,,,,,,,,,,,,,,,,,,,,,,,,,,,,,,,,,,,,,,,,,,,,,,,,other,,,,POINT (77.1928613 28.6482466)
Bikanervala  Sweet,bakery,28.6481583,77.1929425,osm,,,,,Bikanervala  Sweet,,,,,,,,,,,,,,,,,,,,,,bakery,,,,,,,,,,,,,,,,,,,,,,,,,,,,,,,,,,,,,,,,,,,,,,,,,,,,,,,,,,,,,,,,,,,,,,,,,,,,,,,,,,,,,,,,,,,,,,,,,,,,,,,,,,,,,,,,,,,,,,,,,,,,,,,,,,,,,,,,,,,,,,,,,,,,,,,,,,,,,,,,,,,,,,,,,,,,,,,,,,,,,,,,,,,,,,,,,,,,,,,other,,,,POINT (77.1929425 28.6481583)
Shiv misthan Bander,bakery,28.6500162,77.2324574,osm,,,,,Shiv misthan Bander,,,,110006,,,,,,,,,,,,,,,,,,bakery,,,,,,,,,,,,,,,,,,,,,,,,,,,,,,,,,,,,,,,,,,,,,,,,,,,,,,,,,,,,,,,,,,,,,,,,,,,,,,,,,,,,,,,,,,,,,,,,,,,,,,,,,,,,,,,,,,,,,,,,,,,,,,,,,,,,,,,,,,,,,,,,,,,,,,,,,,,,,,,,,,,,,,,,,,,,,,,,,,,,,,,,,,,,,,,,,,,,,,,other,,,,POINT (77.2324574 28.6500162)
Alkauser ( best biryani),restaurant,28.6018922,77.1936521,osm,restaurant,,,,Alkauser ( best biryani),,,New Delhi,,,,,,,,,,,,,,,,,,,,,,,,,,,,,,,,,,,,,,,,,,,,,,,,,,,,,,,,,,,,,,,,,,,,,,,,,,,,,,,,,,,,,,,,,,,,,,,,,,,,,,,,,,,,,,,,,,,,,,,,,,,,,,,,,,,,,,,,,,,,,,,,,,,,,,,,,,,,,,,,,,,,,,,,,,,,,,,,,,,,,,,,,,,,,,,,,,,,,,,,,,,,,,,,,,,,,,,,,,restaurant,,,,POINT (77.1936521 28.6018922)
Aljawahir,restaurant,28.6495389,77.2335887,osm,restaurant,,,,Aljawahir,,,,110006,,,,,,,,,,,,,,,,,,,,,,,,,,,,,,,,,,,,,,,,,,,,,,,,,,,,,,,,,,,,,,,,,,,,,,,,,,,,,,,,,,,,,,,,,,,,,,,,,,,,,,,,,,,,,,,,,,,,,,,,,,,,,,,,,,,,,,,,,,,,,,,,,,,,,,,,,,,,,,,,,,,,,,,,,,,,,,,,,,,,,,,,,,,,,,,,,,,,,,,,,,,,,,,,,,,,,,,,,restaurant,,,,POINT (77.2335887 28.6495389)
Alslam Chicken,restaurant,28.6482081,77.2336645,osm,restaurant,,,,Alslam Chicken,,,,110006,,,,,,,,,,,,,,,,,,,,,,,,,,,,,,,,,,,,,,,,,,,,,,,,,,,,,,,,,,,,,,,,,,,,,,,,,,,,,,,,,,,,,,,,,,,,,,,,,,,,,,,,,,,,,,,,,,,,,,,,,,,,,,,,,,,,,,,,,,,,,,,,,,,,,,,,,,,,,,,,,,,,,,,,,,,,,,,,,,,,,,,,,,,,,,,,,,,,,,,,,,,,,,,,,,,,,,,,,restaurant,,,,POINT (77.2336645 28.6482081)
Bengali Sweet house & Pastry,bakery,28.6294288,77.2319022,osm,,,,,,,,,,,,,,,,,,,,,,,,,,,bakery,,,,,,,,,,,,,,,,,,,,,,,,,,,,,,,,,,,,,,,,,,,,,,,,,,,,,,,,,,,,,,,,,,,,,,,,,,,,,,,,,,,,,,,,,,,,,,,,,,,,,,,,,,,,,,,,,,,,,,,,,,,,,,,,,,,,,,,,,,,,,,,,,,,,,,,,,,,,,,,,,,,,,,,,,,,,,,,,,,,,,,,,,,,,,,,,,,,,,,,other,,,,POINT (77.2319022 28.6294288)
Janta Sweets ( kashori samosa),bakery,28.6481235,77.2117033,osm,,,,,Janta Sweets ( kashori samosa),,,,,,9811009914,,,,,,,,,,,,,,,,bakery,,,,,,,,,,,,,,,,,,,,,,,,,,,,,,,,,,,,,,,,,,,,,,,,,,,,,,,,,,,,,,,,,,,,,,,,,,,,,,,,,,,,,,,,,,,,,,,,,,,,,,,,,,,,,,,,,,,,,,,,,,,,,,,,,,,,,,,,,,,,,,,,,,,,,,,,,,,,,,,,,,,,,,,,,,,,,,,,,,,,,,,,,,,,,,,,,,,,,,,other,,,,POINT (77.2117033 28.6481235)
"Japani Samosa, opposite Moti Cinema",bakery,28.6565844,77.2345987,osm,,,,,"Japani Samosa, opposite Moti Cinema",,,,110006,Chandni Chowk,,,,,,,,,,,,,,,,,bakery,,,,,,,,,,,,,,,,,,,,,,,,,,,,,,,,,,,,,,,,,,,,,,,,,,,,,,,,,,,,,,,,,,,,,,,,,,,,,,,,,,,,,,,,,,,,,,,,,,,,,,,,,,,,,,,,,,,,,,,,,,,,,,,,,,,,,,,,,,,,,,,,,,,,,,,,,,,,,,,,,,,,,,,,,,,,,,,,,,,,,,,,,,,,,,,,,,,,,,,other,,,,POINT (77.2345987 28.6565844)
Embassy Restaurant ( Samosa),restaurant,28.6336538,77.2211826,osm,restaurant,,,,Embassy Restaurant ( Samosa),,,,,,01123416434,,,,,,,,,,,,,,,,,,,,,,,,,,,,,,,,,,,,,,,,,,,,,,,,,,,,,,,,,,,,,,,,,,,,,,,,,,,,,,,,,,,,,,,,,,,,,,,,,,,,,,,,,,,,,,,,,,,,,,,,,,,,,,,,,,,,,,,,,,,,,,,,,,,,,,,,,,,,,,,,,,,,,,,,,,,,,,,,,,,,,,,,,,,,,,,,,,,,,,,,,,,,,,,,,,,,,,,restaurant,,,,POINT (77.2211826 28.6336538)
You and Me,hotel,28.6414075,77.2165842,osm,,,,,You and Me,,,,110055,Main Bazaar,011235583563,hotel,,,,,,,,,,,,,,,,wlan,,,,4459-61,,hotelyoumedelhi055@gmail.com,,,,,,,,,,,,,,,Ты и Я,24/7,,,,,,,,,,,,,,,,,,,,,,,,,,,,,,,,,,,,,,,,,,,,,,,,,,,,,,,,,,,,,,,,,,,,,,,,,,,,,,,,,,,,,,,,,,,,,,,,,,,,,,,,,,,,,,,,,,,,,,,,,,,,,,,,,,,,,,,,,,,,,,,,,,,,,,,,,,,,,,,,,,,,,,,,,,,,,,,,hospitality,,,,POINT (77.2165842 28.6414075)
Malabar Hotel,restaurant,28.6423302,77.2182562,osm,restaurant,,,,Malabar Hotel,,,,,,,,,,,,,,,,,,,,,,,,,,,,,,,,,,,,,,,,,,,,,,,,,,,,,,,,,,,,,,,,,,,,,,,,,,,,,,,,,,,,,,,,,,,,,,,,,,,,,,,,,,,,,,,,,,,,,,,,,,,,,,,,,,,,,,,,,,,,,,,,,,,,,,,,,,,,,,,,,,,,,,,,,,,,,,,,,,,,,,,,,,,,,,,,,,,,,,,,,,,,,,,,,,,,,,,,,,,,,restaurant,,,,POINT (77.2182562 28.6423302)
Hotel Madras Dx,restaurant,28.642273,77.218265,osm,restaurant,,,,Hotel Madras Dx,,,,,,,,,,,,,,,,,,,,,,,,,,,,,,,,,,,,,,,,,,,,,,,,,,,,,,,,,,,,,,,,,,,,,,,,,,,,,,,,,,,,,,,,,,,,,,,,,ಹೋಟೆಲ್ ಮಡ್ರಾಸ್ ಡೀಲಕ್ಸ್,,,,,,,,,,,,,,,,,,,,,,,,,,,,,,,,,,,,,,,,,,,,,,,,,,,,,,,,,,,,,,,,,,,,,,,,,,,,,,,,,,,,,,,,,,,,,,,,,,,,,,,,,,,,,,,,,,,,,,,,,,,,restaurant,,,,POINT (77.218265 28.642273)
Hyderabadi Dum Biriyaani,restaurant,28.6424057,77.2182489,osm,restaurant,,,,Hyderabadi Dum Biriyaani,,,,,Amir Kaur Market,+919717334256,,,,,,,,,,,,,,,,,,,,,113,,,,,,,,,,,,,,,,,,,,,,,,,,,,,,,,,,,,,,,,,,,,,,,,,,,,,,,,,,,,,,,,,,,,,In side road of Babu Ram Solanki Marg near railway station,,,,,,,,,,,,,,,,,,,,,,,,,,,,,,,,,,,,,,,,,,,,,,,,,,,,,,,,,,,,,,,,,,,,,,,,,,,,,,,,,,,,,,,,,,,,,,,,,,,,,,,,,,,,,,,,,,,,,,,,,,,,,restaurant,,,,POINT (77.2182489 28.6424057)
South Indian Foods,restaurant,28.6424536,77.2182429,osm,restaurant,,,,South Indian Foods,,,,,,,,,,,,,,,,,,,,,,,,,,,,,,,,,,,,,,,,,,,,,,,,,,,,,,,,,,,,,,,,,,,,,,,,,,,,,,,,,,,,,,,,,,,,,,,,,,,,,,,,,,,,,,,,,,,,,,,,,,,,,,,,,,,,,,,,,,,,,,,,,,,,,,,,,,,,,,,,,,,,,,,,,,,,,,,,,,,,,,,,,,,,,,,,,,,,,,,,,,,,,,,,,,,,,,,,,,,,,restaurant,,,,POINT (77.2182429 28.6424536)
resto,convenience,28.6347993,77.2126048,osm,,,,,,,,,,,,,,,,,,,,,,,,,,,convenience,,,,,,,,,,,,,,,,,,,,,,,,,,,,,,,,,,,,,,,,,,,,,,,,,,,,,,,,,,,,,,,,,,,,,,,,,,,,,,,,,,,,,,,,,,,,,,,,,,,,,,,,,,,,,,,,,,,,,,,,,,,,,,,,,,,,,,,,,,,,,,,,,,,,,,,,,,,,,,,,,,,,,,,,,,,,,,,,,,,,,,,,,,,,,,,,,,,,,,,retail,,,,POINT (77.2126048 28.6347993)
Sapphire Inn Dx 379,hotel,28.6419316,77.2171017,osm,,,,,Sapphire Inn Dx 379,,,,,,,hotel,,,,,,,,,,,,,,,,,,,,,,,,,,,,,,,,,,,,,,,,,,,,,,,,,,,,,,,,,,,,,,,,,,,,,,,,,,,,,,,,,,,,,,,,,,,,,,,,,,,,,,,,,,,,,,,,,,,,,,,,,,,,,,,,,,,,,,,,,,,,,,,,,,,,,,,,,,,,,,,,,,,,,,,,,,,,,,,,,,,,,,,,,,,,,,,,,,,,,,,,,,,,,,,,,,,,,,hospitality,,,,POINT (77.2171017 28.6419316)
Paharganj bus stand,bus_station,28.6447747,77.2043367,osm,bus_station,,,,Paharganj bus stand (Himachal Tourist),,,,,,,,,,,,,,,,,,,,,,,,,,,,,,,,,,,,,,,,,,,,,,,,,,,,,,,,,,,,,,,,,,,,,,,,,,,,,,,,,,,,,,,,,,,,,,,,,,,,,,,,,,,,,,,,,,,,,,,,,,,,,,,,,,,,,,,,,,,,,,,,,,,,,,,,,,,,,,,,,,,,,,,,,,,,,,,,,,,,,,,,,,,,,,,,,,,,,,,,,,,,,,,,,,,,,,,,,,,,,other,,,,POINT (77.2043367 28.6447747)
Everest Bakery Cafe,cafe,28.6417215,77.2147806,osm,cafe,,,,,,,,,,,,,,,,italian_pizza;indian;italian,yes,,,,,,,,,,,,,,,,,,,,,,,,,,,,,,,,Mo-Su 10:00-22:00,,,,,,,,,,,,,,,,,,,,,,,,,,,,,,,,,,,,,,,,,,,,,,,,,,,,,,,,,,,,,,,,,,,,,,,,,,,,,,,,,,,,,,,,,,,,,,,,,,,,,,,,,,,,,,,,,,,,,,,,,,,,,,,,,,,,,,,,,,,,,,,,,,,,,,,,,,,,,,,,,,,,,,,,,,,,,,,,cafe,,,,POINT (77.2147806 28.6417215)
The Lalit New Delhi,hotel,28.6314643,77.2271911,osm,,,,,The Lalit New Delhi,,,,,,,hotel,,,,,,,,,,,,,,,,wlan,,,,,,,,,,,,,,,,,,,,,,,,,,,,,,,,,,,,,,,,,,,,,,,,,,,,,,,,,THELaLiT,,,,,,,,,,,,,,,,,,,,,,,,,,,,,,,,,,,,,,,,,,,,,,,,,,,,,,,,,,,,,,,,,,,,,,,,,,,,,,,,,,,,,,,,,,,,,,,,,,,,,,,,,,,,,,,,,,,,,,,,,,,,,,,,,,,,,,,,,,,,,hospitality,,,,POINT (77.2271911 28.6314643)
Safari Restro Lounge,restaurant,28.6319603,77.2078492,osm,restaurant,,,,,,,,,,,,,,,,,,,,,,,,,,,,,,,,,,,,,,,,,,,,,,,,,,,,,,,,,,,,,,,,,,,,,,,,,,,,,,,,,,,,,,,,,,,,,,,,,,,,,,,,,,,,,,,,,,,,,,,,,,,,,,,,,,,,,,,,,,,,,,,,,,,,,,,,,,,,,,,,,,,,,,,,,,,,,,,,,,,,,,,,,,,,,,,,,,,,,,,,,,,,,,,,,,,,,,,,,,,,,,,,,restaurant,,,,POINT (77.2078492 28.6319603)
Rishi Vaishno Dhaba,restaurant,28.6405446,77.217099,osm,restaurant,,,,Rishi Vaishno Dhaba,,,,,,,,,,,,indian,yes,,,,,,,,,,,,,,,,,,,,,,,,,,,,,,,,,,,,,,,,,,,,,,,,,,,,,,,,,,,,,,,,,,,,,,,,,,,,,,,,,,,,,,,,,,,,,,,,,,,,,,,,,,,,,,,,,,,,,,,,,,,,,,,,,,,,,,,,,,,,,,,,,,,,,,,,,,,,,,,,,,,,,,,,,,,,,,,,,,,,,,,,,,,,,,,,,,,,,,,,,,,,,,,,restaurant,,,,POINT (77.217099 28.6405446)
Sonu,restaurant,28.6409944,77.2127435,osm,restaurant,,,,,,,,,,,,,,,,,,,,,,,,,,,,,,,,,,,,,,,,,,Sonu,,,,,,,,,,,,,,,,,,,,,,,,,,,,,,,,,,,,,,,,,,,,,,,,,,,,,,,,,,,,,,,,,,,,,,,,,,,,,,,,,,,,,,,,,,,,,,,,,,,,,,,,,,,,,,,,,,,,,,,,,,,,,,,,,,,,,,,,,,,,,,,,,,,,,,,,,,,,,,,,,,,,,,,,,,,,,,,,,,,,,,,restaurant,,,,POINT (77.2127435 28.6409944)
Kwality,restaurant,28.6299114,77.2172701,osm,restaurant,,,,Kwality,,,,,,,,,,,,indian,,,,,,,,,,,,,,,,,,,,,,,,,,Kwality,,,,,,,,,,,,,,,,,,,,,,,,,,2023-01-22,,,,,,,,,,,,,,,,,,,,,,,,,,,,,,,,,,,,Kwality,,,,,,,,,,,,,,,,,,,,,,,,,,,,,,,,,,,,,,,,,,,,,,,,,,,,,,,,,,,,,,,,,,,,,,,,,,,,,,,,,,,,,,,,,,,,,,,,,,,,,,,,,,,,,,,,,,,,,,,,,restaurant,,,,POINT (77.2172701 28.6299114)
Adyar Ananda Bhavan,restaurant,28.6465886,77.1957658,osm,restaurant,,Adyar Ananda Bhavan,Q15178238,,Adyar Ananda Bhavan,https://aabsweets.com,New Delhi,110005,Arya Samaj Road,+91 98712 60803,,,,,,regional,only,,,,,,,,,confectionery,,,,,,,,,,,,,,,,,,,,,,,,,,,,,,,,,,,,,,,,,,,,,,,,,,,,no,,,,,,,,,,,,,,,,,,,,,,,,,,,A2B,,,,,,,,,,,,,,,,,,,,,,,,,,,,,,,,,,,,,,,,,,,,,,,,,,,,,,,,,,,,,,,,,,,,,,,,,,,,,,,,,,,,,,,,,,,,,,,,,,,,,,,,,,,,,,,,,,,,,,,,restaurant,,,,POINT (77.1957658 28.6465886)
Hotel SP,hotel,28.6521278,77.1943584,osm,,,,,Hotel SP,,,,110005,Deshbandhu Gupta Road,,hotel,,,,,,,,,,,,,,,,wlan,,,,F-3,,,,,,,,,,,,,,,,,,24/7,,Q111861318,,,,,,,,,,,,,,,,,,,,,,,,,,,,,,,,,,,,,,,,,,,,,,,,,,,,,,,,,,,,,,,,,,,,,,,,,,,,,,,,,,,,,,,,,,,,,,,,,,,,,,,,,,,,,,,,,,,,,,,,,,,,,,,,,,,,,,,,,,,,,,,,,,,,,,,,,,,,,,,,,,,,,,,,,,,,,,hospitality,,,,POINT (77.1943584 28.6521278)
Everest kitchen,restaurant,28.6411046,77.2135151,osm,restaurant,,,,Everest Café,,,,,,,,,,,,,yes,,,,,,,,,,,,,,,,,,,,,,,,,,,,,,,,,,,,,,,,,,,,,,,,,,,,,,,,,,,,Everest Café,,,,,,,,,,,,,,,,,,,,,,,,,,,,,,,,,,,,,,,,,,,,,,,,,,,,,,,,,,,,,,,,,,,,,,,,,,,,,,,,,,,,,,,,,,,,,,,,,,,,,,,,,,,,,,,,,,,,,,,,,,,,,,,,,,,,,,,,,,,,,,,,,,,,restaurant,,,,POINT (77.2135151 28.6411046)
Devna Bed & breakfast,hotel,28.6050274,77.2412834,osm,,,,,Devna Bed & breakfast,,,,,,,hotel,,,,,,,,,,,,,,,,,,,,,,,,,,,,,,,,,,,,,,,,,,,,,,,,,,,,,,,,,,,,,,,,,,Devna Chambre d'hôte,,,,,,,,,,,,,,,,,,,,,,,,,,,,,,,,,,,,,,,,,,,,,,,,,,,,,,,,,,,,,,,,,,,,,,,,,,,,,,,,,,,,,,,,,,,,,,,,,,,,,,,,,,,,,,,,,,,,,,,,,,,,,,,,,,,,,,,,,,,,,,,,,,,,hospitality,,,,POINT (77.2412834 28.6050274)
Unknown,restaurant,28.6453864,77.1839126,osm,restaurant,,,,,,,,,Pusa Road,,,,,,,,,,,,,,,,,,,,,,8 A/ 37,,,,,,,,,,,,,,,,,,,,,,,,,,,,,,,,,,,,,,,,,,,,,,,,,,,,,,,,,,,,,,,,,,,,,,,,,,,المطعم العراقي الراقي,,,,,,,,,,,,,,,,,,,,,,,,,,,,,,,,,,,,,,,,,,,,,,,,,,,,,,,,,,,,,,,,,,,,,,,,,,,,,,,,,,,,,,,,,,,,,,,,,,,,,,,,,,,,,,,,,,,,,,,restaurant,,,,POINT (77.1839126 28.6453864)
Chaayos,cafe,28.6314625,77.2206262,osm,cafe,,Chaayos,Q117235235,Chaayos,,,,,,,,,,,,tea,,no,,,,,,,,,,,,,,,,,,,,,,,,,,,,,,,,,,,,,,1,,,,,,,,,,yes,,,,,,,yes,,,,,,,,,,,,,,,,,,,,,,,,,,,,,,,,,,,,,,,,,,,,,,,,,,,,,,,,,,,,,,,,,,,,,,,,,,,,,,,,,,,,,,,,,,,,,,,,,,,,,,,,,,,,,,,,,,,,,,,,,,,,,,,,,,,,,,,,,,,,,,,,,,,,,,,,cafe,,,,POINT (77.2206262 28.6314625)
Parth Palace,hotel,28.6409796,77.2151659,osm,,,,,Parth Palace,,,,,,,hotel,,,,,,,,,,,,,,,,,,,,,,,,,,,,,,,,,,,,,,,,,,,,,,,,,,,,,,,,,,,,,,,,,,,,,,,,,,,,,,,,,,,,,,,,,,,,,,,,,,,,,,,,,,,,,,,,,,,,,,,,,,,,,,,,,,,,,,,,,,,,,,,,,,,,,,,,,,,,,,,,,,,,,,,,,,,,,,,,,,,,,,,,,,,,,,,,,,,,,,,,,,,,,,,,,,,,,,hospitality,,,,POINT (77.2151659 28.6409796)
Shri Krishna Daba,restaurant,28.6478146,77.2399952,osm,restaurant,,,,Shri Krishna Daba,,,,,,,,,,,,,,,,,,,,,,,,,,,,,,,,,,,,,,,,,,,,,,,,,,,,,,,,,,,,,,,,,,,,,,,,,,,,,,,,,,,,,,,,,,,,,,,,,,,,,,,,,,,,,,,,,,,,,,,,,,,,,,,,,,,,,,,,,,,,,,,,,,,,,,,,,,,,,,,,,,,,,,,,,,,,,,,,,,,,,,,,,,,,,,,,,,,,,,,,,,,,,,,,,,,,,,,,,,,,,restaurant,,,,POINT (77.2399952 28.6478146)
Kathmandu Food Cafe,restaurant,28.6418156,77.2126057,osm,restaurant,,,,Kathmandu Food Cafe,,,,,,,,,,,,,,,,,,,,,,,,,,,,,,,,,,,,,,,,,,,,,,,,,,,,,,,,,,,,,,,,,,,,,,,,,,,,,,,,,,,,,,,,,,,,,,,,,,,,,,,,,,,,,,,,,,,,,,,,,,,,,,,,,,,,,,,,,,,,,,,,,,,,,,,,,,,,,,,,,,,,,,,,,,,,,,,,,,,,,,,,,,,,,,,,,,,,,,,,,,,,,,,,,,,,,,,,,,,,,restaurant,,,,POINT (77.2126057 28.6418156)
Brownie Cafe,cafe,28.645479,77.2163699,osm,cafe,,,,Brownie Cafe,,,,,,,,,,,,,,,,,,,,,,,wlan,,,,,,,,,,,,,,,,,,,,,,,,,,,,,,,,,,,,,,,,,,,,,,,,,,,,,,,,,,,,,,,,,,,,,,,,,,,,,,,,,,,,,,,,,,,,,,,,,,,,,,,,,,,,,,,,,,,,,,,,,,,,,,,,,,,,,,,,,,,,,,,,,,,,,,,,,,,,,,,,,,,,,,,,,,,,,,,,,,,,,,,,,,,,,,,,,,,,,,cafe,,,,POINT (77.2163699 28.645479)
Lazeez Affaire,restaurant,28.6353146,77.2206088,osm,restaurant,,,,,,,,,,,,,,,,,yes,,,,,,,,,,,,,,,,,,,,,,,,,,,,,,,,,,,,,,,,,,,,,,,,,,,,,,,,,,,,,,,,,,,,,,,,,,,,,,,,,,,,,,,,,,,,,,,,,,,,,,,,,,,,,,,,,,,,,,,,,,,,,,,,,,,,,,,,,,,,,,,,,,,,,,,,,,,,,,,,,,,,,,,,,,,,,,,,,,,,,,,,,,,,,,,,,,,,,,,,,,,,,,,,restaurant,,,,POINT (77.2206088 28.6353146)
Kovil,restaurant,28.6333695,77.2212936,osm,restaurant,,,,Kovil,,,,,,,,,,,,,,,,,,,,,,,,,,,,,,,,,,,,,,,,,,,,,,,,,,,,,,,,,,,,,,,,,,,,,,,,,,,,,,,,,,,,,,,,,,,,,,,,,,,,,,,,,,,,,,,,,,,,,,,,,,,,,,,,,,,,,,,,,,,,,,,,,,,,,,,,,,,,,,,,,,,,,,,,,,,,,,,,,,,,,,,,,,,,,,,,,,,,,,,,,,,,,,,,,,,,,,,,,,,,,restaurant,,,,POINT (77.2212936 28.6333695)
Radjhani Thali,restaurant,28.630182,77.2204075,osm,restaurant,,,,Radjhani Thali,,,,,,,,,,,,indian,yes,,,,,,,,,,,,,,,,,,,,,,,,,,,,,,,,,,,,,,,,,,,,,,,,,,,,,,,,,,,,,,,,,,,,,,,,,,,,,,,,,,,,,,,,,,,,,,,,,,,,,,,,,,,,,,,,,,,,,,,,,,,,,,,,,,,,,,,,,,,,,,,,,,,,,,,,,,,,,,,,,,,,,,,,,,,,,,,,,,,,,,,,,,,,,,,,,,,,,,,,,,,,,,,,restaurant,,,,POINT (77.2204075 28.630182)
The Big Chill,restaurant,28.6006451,77.2275063,osm,restaurant,,,,Big Chill Restaurant,,,,,,,,,2024-01-28,,,,,,,,,,,,,,,,,,,,,,,,no,,,,,,,,,,,,,,,,,,,1;2,,,,,,,,,,,,,,,,,,,,,,,,,,,,,,,,,,,,,,,,,,,,,,,,,,,,,,,,,,,,,,,,,,,,,,,,,,,,,,,,,,,,,,,,,,,,,,,,,,,,,,,,,,,,,,,,,,,,,,,,,,,,,,,,,,,,,,,,,,,,,,,,,,,,,,,,,,,,,,,,,,,,,,,,,restaurant,,,,POINT (77.2275063 28.6006451)
Hotel Singh Sons,hotel,28.6467365,77.1835662,osm,,,,,Hotel Singh Sons,,,,,,,hotel,,,,,,,,,,,,,,,,wlan,,,,,,,,,,,,,,,,,,,,,,,,,,,,,,,,,,,,,,,,,,,,,,,,,,,,,,,,,,,,,,,,,,,,,,,,,,,,,,,,,,,,,,,,,,,,,,,,,,,,,,,,,,,,,,,,,,,,,,,,,,,,,,,,,,,,,,,,,,,,,,,,,,,,,,,,,,,,,,,,,,,,,,,,,,,,,,,,,,,,,,,,,,,,,,,,,,,,,,hospitality,,,,POINT (77.1835662 28.6467365)
Thalee,restaurant,28.6409867,77.2108048,osm,restaurant,,,,Thalee,,,,,,,,,,,,,,,,,,,,,,,,,,,,,,,,,,,,,,,,,,,,,,,,,,,,,,,,,,,,,,,,,,,,,,,,,Thalee,,,,,,,,,,,,,,,,,,,,,,,,,,,,,,,,,,,,,,,,,,,,,,,,,,,,,,,,,,,,,,,,,,,,,,,,,,,,,,,,,,,,,,,,,,,,,,,,,,,,,,,,,,,,,,,,,,,,,,,,,,,,,,,,,,,,,,,,,,,,,,,,,,,,restaurant,,,,POINT (77.2108048 28.6409867)
Pizza Hut,restaurant,28.6275145,77.2198691,osm,restaurant,,Pizza Hut,Q191615,Pizza Hut,,,New Delhi,,,,,,,,,pizza,,,,,,,,,,,,,,,,,,,,,,,,,,,,,,,,,,,,,,,,,,,,,,,,,,,,,,,,,,,,,,,,,,,,,,,,,,,,,,,,,,,,,,,,,,,,,,,,,,,,,,,,,,,,,,,,,,,,,,,,,,,,,,,,,,,,,,,,,,,,,,,,,,,,,,,,,,,,,,,,,,,,,,,,,,,,,,,,,,,,,,,,,,,,,,,,,,,,,,,,,,,,,,,,,restaurant,,,,POINT (77.2198691 28.6275145)
Mughlai Junction,restaurant,28.6307517,77.2205444,osm,restaurant,,,,Mughlai Junction,,http://mughlaihunction.com,,,,,,,,,,indian,,,,,,,,,,,,,,,,,,,,,,,,,,,,,,,,,Mo-Su 12:00-23:00,,,,,,,,,,,,,,,,,,,,,,,,,,,,,,,,,,,,,,,,,,,,,,,,,,,,,,,,,,,,,,,,,,,,,,,,,,,,,,,,,,,,,,,,,,,,,,,,,,,,,,,,,,,,,,,,,,,,,,,,,,,,,,,,,,,,,,,,,,,,,,,,,,,,,,,,,,,,,,,,,,,,,,,,,,,,,,,,restaurant,,,,POINT (77.2205444 28.6307517)
Kotak Mahindra Bank,bank,28.6296084,77.2241064,osm,bank,yes,Kotak Mahindra Bank,Q2040404,,,,,,,,,,,,,,,,,,,,,,,,,,,,,,,,,,,,,,,,,,,,,,,,,,,,,,,,,,,,,,,,,,,,,,,,,,,,,,,,,,,,,,,,,,,,,,,,,,,,,,,,,,,,,,,,,,,,,,,,,,,,,,,,,,,,,,,,,,,,,,,,,,,,,,,,,,,,,,,,,,,,,,,,,,,,,,,,,,,,,,,,,,,,,,,,,,,,,,,,,,,,,,,,,,,,,,,,,,,,,,finance,,,,POINT (77.2241064 28.6296084)
ICICI Bank,bank,28.6291812,77.2248562,osm,bank,yes,ICICI Bank,Q1653258,,ICICI Bank,,,,,,,,,,ICICI,,,,,,,,,,,,,,,,,,,,,,,,,,,,,,,,,,,,,,,,,,,,,,,,,,,,,,,,,,,,,,,,,Barakhamba Road,,,,,,,,,,,,,,,,,,,,,,,,,,,,,,,,,,,,,,,,,,,,,,,,,,,,,,,,,,,,,,,,,,,,,,,,,,,,,,,,,,,,,,,,,,,,,,,,,,,,,,,,,,,,,,,,,,,,,,,,,,,,,,,,,,,,,,,,,,,,,,,,,finance,,,,POINT (77.2248562 28.6291812)
Standard Chartered,bank,28.6296576,77.2239758,osm,bank,yes,Standard Chartered,Q548278,,,,,,,,,,,,,,,,,,,,,,,,,,,,,,,,,,,,,,,,,,,,,,,,,,,,,,,,,,,,,,,,,,,,,,,,,,,,,,,,,,,,,,,,,,,,,,,,,,,,,,,,,,,,,,,,,,,,,,,,,,,,,,,,,,,,,,,,,,,,,,,,,,,,,,,,,,,,,,,,,,,,,,,,,,,,,,,,,,,,,,,,,,,,,,,,,,,,,,,,,,,,,,,,,,,,,,,,,,,,,,finance,,,,POINT (77.2239758 28.6296576)
HSBC,bank,28.6298916,77.2237716,osm,bank,,HSBC,Q190464,,,,,,,,,,,,,,,,,,,,,,,,,,,,,,,,,,,,,,,,,,,,,,,,,,,,,1,,,,,,,,,,,,,,,,,,,,,,,,,,,,,,,,,,,,,,,,,,,,,,,,,,,,,,,,,,,,,,,,,,,,,,,,,,,,,,,,,,,,,,,,,,,,,,,,,,,,,,,,,,,,,,,,,,,,,,,,,,,,,,,,,,,,,,,,,,,,,,,,,,,,,,,,,,,,,,,,,,,,,,,,,finance,,,,POINT (77.2237716 28.6298916)
Punjab National Bank,bank,28.630268,77.2232644,osm,bank,,Punjab National Bank,Q2743499,,,,,,,,,,,,,,,,,,,,,,,,,,,,,,,,,,,,,,,,,,,,,,,,,,,,,,,,,,,,,,,,,,,,,,,,,,,,,,,,,,,,,,,,,,,,,,,,,,,,,,,,,,,,,,,,,,,,,,,,,,,,,,,,,,,,,,,,,,,,,,,,,,,,,,,,,,,,,,,,,,,,,,,,,,,,,,,,,,,,,,,,,,,,,,,,,,,,,,,,,,,,,,,,,,,,,,,,,,,,,,finance,,,,POINT (77.2232644 28.630268)
Axis Bank,bank,28.6305309,77.222709,osm,bank,yes,Axis Bank,Q2003549,,,,,,,,,,,,,,,,,,,,,,,,,,,,,,,,,,,,,,,,,,,,,,,,,,,,,,,,,,,,,,,,,,,,,,,,,,,,,,,,,,,,,,,,,,,,,,,,,,,,,,,,,,,,,,,,,,,,,,,,,,,,,,,,,,,,,,,,,,,,,,,,,,,,,,,,,,,,,,,,,,,,,,,,,,,,,,,,,,,,,,,,,,,,,,,,,,,,,,,,,,,,,,,,,,,,,,,,,,,,,,finance,,,,POINT (77.222709 28.6305309)
ICICI Mutual Funds,bank,28.6293464,77.2239496,osm,bank,,,,,,,,,,,,,,,,,,,,,,,,,,,,,,,,,,,,,,,,,,,,,,,,,,,,,,,,,,,,,,,,,,,,,,,,,,,,,,,,,,,,,,,,,,,,,,,,,,,,,,,,,,,,,,,,,,,,,,,,,,,,,,,,,,,,,,,,,,,,,,,,,,,,,,,,,,,,,,,,,,,,,,,,,,,,,,,,,,,,,,,,,,,,,,,,,,,,,,,,,,,,,,,,,,,,,,,,,,,,,,,,,finance,,,,POINT (77.2239496 28.6293464)
saravan bhavan,restaurant,28.6249108,77.2194157,osm,restaurant,,,,saravan bhavan,,,,,,,,,,,,,,,,,,,,,,,,,,,,,,,,,,,,,,,,,,,,,,,,,,,,,,,,,,,,,,,,,,,,,,,,,,,,,,,,,,,,,,,,,,,,,,,,,,,,,,,,,,,,,,,,,,,,,,,,,,,,,,,,,,,,,,,,,,,,,,,,,,,,,,,,,,,,,,,,,,,,,,,,,,,,,,,,,,,,,,,,,,,,,,,,,,,,,,,,,,,,,,,,,,,,,,,,,,,,,restaurant,,,,POINT (77.2194157 28.6249108)
Pindi,restaurant,28.6078554,77.2296194,osm,restaurant,,,,Pindi restaurant Delhi,,,,110003,Pandara Road,911123387932,,,,,,,,,,,,,,,,,,,,,16,,,,,,,,,,,,,,,,,,,,,,,,,,,,,,,,,,,,,,,,,,,,,,,,,,,,,,,,,,,,,,,,,,,,,,,,,,,,,,,,,,,,,,,,,,,,,,,,,,,,,,,,,,,,,,,,,,,,,,,,,,,,,,,,,,,,,,,,,,,,,,,,,,,,,,,,,,,,,,,,,,,,,,,,,,,,,,,,,,,,,,,,,,,,,,,,,,restaurant,,,,POINT (77.2296194 28.6078554)
The Immigrant Cafe,restaurant,28.6341541,77.218784,osm,restaurant,,,,,,,,110001,,,,,,,,,yes,no,,,,yes,,,,,,,,,,Connaught Place,,,,,no,,,,,,,,,,,,,,,,,,,1,,B,,,,,,,,,,,,,,no,,,,yes,,yes,,,,,,,,,,,,,,,,,,,,,,,,,,,,,,,,,,,,,,,,,,,,,,,,,,,,,,,,,,,,,,,,,,,,,,,,,,,,,,,,,,,,,,,,,,,,,,,,,,,,,,,,,,,,,,,,,,,,,,,,,,,,,,,,,,,,,,,,,,,,,,,,,,,restaurant,,,,POINT (77.218784 28.6341541)
Sawhney Medicos,pharmacy,28.6023889,77.1868863,osm,pharmacy,,,,,,,New Delhi,110021,Malcha Marg,,,,,,,,,,,,,,,,,,,,,,22,Chanakyapuri,,,,,,,,,,,,,,,,,,,,,,,,,,,,,,,,,,,,,,,,,,,,,,,,,,,,,,,,,,,,,,,,,,,,,,,,,,,,,,,,,,,,,,,,,,,,,,,,,,,,,,,,,,,,,,,,,,,,,,,,,,,,,,,,,,,,,,,,,,,,,,,,,,,,,,,,,,,,,,,,,,,,,,,,,,,,,,,,,,,,,,,,,,,,,,,,,healthcare,,,,POINT (77.1868863 28.6023889)
Garg Store,convenience,28.6021797,77.1871301,osm,,,,,,,,,,,,,,,,,,,,,,,,,,,convenience,,,,,,,,,,,,,,,,,,,,,,,,,,,,,,,,,,,,,,,,,,,,,,,,,,,,,,,,,,,,,,,,,,,,,,,,,,,,,,,,,,,,,,,,,,,,,,,,,,,,,,,,,,,,,,,,,,,,,,,,,,,,,,,,,,,,,,,,,,,,,,,,,,,,,,,,,,,,,,,,,,,,,,,,,,,,,,,,,,,,,,,,,,,,,,,,,,,,,,,retail,,,,POINT (77.1871301 28.6021797)
Unknown,convenience,28.6026344,77.1866414,osm,,,,,,,,,,,,,,,,,,,,,,,,,,,convenience,,,,,,,,,,,,,,,,,,,,,,,,,,,,,,,,,,,,,,,,,,,,,,,,,,,,,,,,,,,,,,,,,,,,,,,,,,,,,,,,,,,,,,,,,,,,,,,,,,,,,,,,,,,,,,,,,,,,,,,,,,,,,,,,,,,,,,,,,,,,,,,,,,,,,,,,,,,,,,,,,,,,,,,,,,,,,,,,,,,,,,,,,,,,,,,,,,,,,,,retail,,,,POINT (77.1866414 28.6026344)
Hari Prakash Food Point,restaurant,28.6027056,77.1865603,osm,restaurant,,,,,,,,,,,,,,,,indian,,,,,,,,,,,,,,,,,,,,,,,,,,,,,,,,,,,,,,,,,,,,,,,,,,,,,,,,,,,,,,,,,,,,,,,,,,,,,,,,,,,,,,,,,,,,,,,,,,,,,,,,,,,,,,,,,,,,,,,,,,,,,,,,,,,,,,,,,,,,,,,,,,,,,,,,,,,,,,,,,,,,,,,,,,,,,,,,,,,,,,,,,,,,,,,,,,,,,,,,,,,,,,,,,restaurant,,,,POINT (77.1865603 28.6027056)
Yes Bank,bank,28.6019799,77.189294,osm,bank,,Yes Bank,Q2040394,,,,,,,,,,,,,,,,,,,,,,,,,,,,,,,,,,,,,,,,,,,,,,,,,,,,,,,,,,,,,,,,,,,,,,,,,,,,,,,,,,,,,,,,,,,بانک یس,,,,,,,,,,,,,,,,,,,,,,,,,,,,,,,,,,,,,,,,,,,,,,,,,,,,,,,,,,,,,,,,,,,,,,,,,,,,,,,,,,,,,,,,,,,,,,,,,,,,,,,,,,,,,,,,,,,,,,,,,,,,,,,,,,,finance,,,,POINT (77.189294 28.6019799)
Anand Medical Stores,pharmacy,28.6023768,77.1869003,osm,pharmacy,,,,,,,New Delhi,110021,Malcha Marg,,,,,,,,,,,,,,,,,,,,,,21,Chanakyapuri,,,,,,,,,,,,,,,,,,,,,,,,,,,,,,,,,,,,,,,,,,,,,,,,,,,,,,,,,,,,,,,,,,,,,,,,,,,,,,,,,,,,,,,,,,,,,,,,,,,,,,,,,,,,,,,,,,,,,,,,,,,,,,,,,,,,,,,,,,,,,,,,,,,,,,,,,,,,,,,,,,,,,,,,,,,,,,,,,,,,,,,,,,,,,,,,,healthcare,,,,POINT (77.1869003 28.6023768)
Naveen Fruit Juice,convenience,28.602274,77.1870201,osm,,,,,,,,,,,,,,,,,,,,,,,,,,,convenience,,,,,,,,,,,,,,,,,,,,,,,,,,,,,,,,,,,,,,,,,,,,,,,,,,,,,,,,,,,,,,,,,,,,,,,,,,,,,,,,,,,,,,,,,,,,,,,,,,,,,,,,,,,,,,,,,,,,,,,,,,,,,,,,,,,,,,,,,,,,,,,,,,,,,,,,,,,,,,,,,,,,,,,,,,,,,,,,,,,,,,,,,,,,,,,,,,,,,,,retail,,,,POINT (77.1870201 28.602274)
Punjab National Bank,bank,28.6038119,77.1849985,osm,bank,,Punjab National Bank,Q2743499,,Punjab National Bank,,New Delhi,110021,,,,,,,,,,,,,,,,,,,,,,,,Chanakyapuri,,,,,,,,,,,,,,,,,,,,,,,,,,,,,,,,,,,,,,,,,,,,,,,,,,,,,,,,,,,,,,,,,,,,,,,,,,,,,,,,,,,,,,,,,,,,,,,,,,,,,,,,,,,,,,,,,,,,,,,,,,,,,,,,,,,,,,,,,,,,,,,,,,,,,,,,,,,,,,,,,,,,,,,,,,,,,,,,,,,,,,,,,,,,,,,,,finance,,,,POINT (77.1849985 28.6038119)
Ingerpuri,restaurant,28.6579615,77.2233418,osm,restaurant,,,,,,,,110006,,,,,,,,local,only,,,,,,,,,,,,,,,,,,,,,,,,,,,,,,,,,,,,,,,,1947,,,,,,,,,,,,,,,,,,,,,,,,,,,,,,,,,,,,,,,,,,,,,,,,,,,,,,,,,,,,,,,,,,,,,,,,,,,,,,,,,,,,,,,,,,,,,,,,,,,,,,,,,,,,,,,,,,,,,,,,,,,,,,,,,,,,,,,,,,,,,,,,,,,,,,,,,,,,,,,,,,,,,,,,restaurant,,,,POINT (77.2233418 28.6579615)
Kake di Hatti,restaurant,28.6580412,77.223216,osm,restaurant,,,,Kake di Hatti,,,,110006,,+91 92058 17114; +91 99365 93140; +91 80106 95450,,,2025-02-16,,,local,only,,,,,,,,,,no,,,,,,,,,,limited,,,,,काके दी हट्टी,,,,,,,08:00-01:00,,,,,,,0;1,1942,,,,,,,,,,,,,,,,,,,,,,,,,,,,,,,,,,,,,,,,,,,,,,,,,,,,,,,,,,,,,,,,,,,,,,,,,,,,,,,,,,,,,,,,,,,,,,,,,,,,,,,,,,,,,,,,,,,,,,,,,,,,,,,,,,,,,,,,,,,,,,,,,,,,,,,,,,,,,,,,,,,,,,,,restaurant,,,,POINT (77.223216 28.6580412)
Jagjit Restaurant,restaurant,28.657558,77.2231804,osm,restaurant,,,,Jagjit Restaurant,,,,110006,,,,,,,,,,,,,,,,,,,,,,,,,,,,,,,,,,,,,,,,,,,,,,,,,,,,,,,,,,,,,,,,,,,,,,,,,,,,,,,,,,,,,,,,,,,,,,,,,,,,,,,,,,,,,,,,,,,,,,,,,,,,,,,,,,,,,,,,,,,,,,,,,,,,,,,,,,,,,,,,,,,,,,,,,,,,,,,,,,,,,,,,,,,,,,,,,,,,,,,,,,,,,,,,,,,,,,,,,restaurant,,,,POINT (77.2231804 28.657558)
Hindustan Petroleum,fuel,28.6318815,77.2215358,osm,fuel,,Hindustan Petroleum,Q1619375,,,,,,,,,,2024-06-02,,,,,,,,,,,,,,,,,,24,Connaught Place,,,,,,,,,,,,,,,,,,,,,,,,,,,,,,,Hindustan Petroleum,,,,yes,,,,,,,,,,,,,,,,,,,,,,,,,,,,,,,,,,,,,,,,,,,,,,,,,,,,,,,,,,,,,,,,,,,,,,,,,,,,,,,,,,,,,,,,,,,,,,,,,,,,,,,,,,,,,,,,,,,,,,,,,,,,,,,,,,,,,,,,,,,,,,,,,,,,,,,,,,,,,,other,,,,POINT (77.2215358 28.6318815)
Wok In The Clouds,restaurant,28.6005614,77.2273808,osm,restaurant,,,,,,,,,,,,,,,,,,,,,,,,,,,,,,,,,,,,,,,,,,,,,,,,,,,,,,,,,,,,,,,,,,,,,,,,,,,,,,,,,,,,,,,,,,,,,,,,,,,,,,,,,,,,,,,,,,,,,,,,,,,,,,,,,,,,,,,,,,,,,,,,,,,,,,,,,,,,,,,,,,,,,,,,,,,,,,,,,,,,,,,,,,,,,,,,,,,,,,,,,,,,,,,,,,,,,,,,,,,,,,,,,restaurant,,,,POINT (77.2273808 28.6005614)
Indian Accent,restaurant,28.5917587,77.2379033,osm,restaurant,,,,,,,,,,,,,,,,,,,,,,,,,,,,,,,,,,,,,,,,,,,,,,,,,,,,,,,,,,,,,,,,,,,,,,,,,,,,,,,,,,,,,,,,,,,,,,,,,,,,,,,,,,,,,,,,,,,,,,,,,,,,,,,,,,,,,,,,,,,,,,,,,,,,,,,,,,,,,,,,,,,,,,,,,,,,,,,,,,,,,,,,,,,,,,,,,,,,,,,,,,,,,,,,,,,,,,,,,,,,,,,,,restaurant,,,,POINT (77.2379033 28.5917587)
Syndicate Bank,bank,28.6225443,77.2360014,osm,bank,yes,Syndicate Bank,Q2004088,,,,,,,,,,,,,,,,,,,,,,,,,,,,,,,,,,,,,,,,,,,,,,,,,,,,,1,,,,,,,,,,,,,,,,,,,,,,,,,,,,,,,,,,,,,,,,,,,,,,,,,,,,,,,,,,,,,,,,,,,,,,,,,,,,,,,,,,,,,,,,,,,,,,,,,,,,,,,,,,,,,,,,,,,,,,,,,,,,,,,,,,,,,,,,,,,,,,,,,,,,,,,,,,,,,,,,,,,,,,,,,finance,,,,POINT (77.2360014 28.6225443)
OYO 7684 Hotel Repose Villa,hotel,28.6434615,77.2115005,osm,,,OYO,Q24906315,,,,,,,,hotel,,,,,,,,,,,,,,,,wlan,,,,,,,,,,,,,,,,,,,,,,,,,,,,,,,,,,,,,,,,,,,,,,,,,,,,,,,,,,,,,,,,,,,,,,,,,,,,,,,,,,,,,,,,,,,,,,,,,,,,,,,,,,,,,,,,,,,,,,,,,,,,,,,,,,,,,,,,,,,,,,,,,,,,,,,,,,,,,,,,,,,,,,,,,,,,,,,,,,,,,,,,,,,,,,,,,,,,,,hospitality,,,,POINT (77.2115005 28.6434615)
Sir Ganga Ram Kolmet Hospital,other,28.643492,77.187296,osm,hospital,,,,,,,,110060,,,,,,hospital,,,,,,,,,,,,,,,,,,,,,,,,,,,,,,,,Delhi,,,,,,,,,,,,,,,,,,,,,,,1145099999,,,,,,"7-B, Pusa Road, Karol Bagh",,,,,,,Central,,,,,,,,,,,,,,,,,,<100 Bedded Hospital,,,,,,,,,,,,,,,,,,,,,,,,,,,,,,,,,,,,,,,,,,,,,,,,,,,,,,,,,,,,,,,,,,,,,,,,,,,,,,,,,,,,,,,,,,,,,,,,,,,,,,,,,,,,,,,,,,,,,,,,,,,,,other,,,,POINT (77.187296 28.643492)
Bhumi Spices Shop,supermarket,28.64038,77.213101,osm,,,,,,,,,,,,,,,,,,,,,,,,,,,supermarket,,,,,,,,,,,,,,,,,,,,,,,,,,,,,,,,,,,,,,,,,,,,,,,,,,,,,,,,,,,,,,,,,,,,,,,,,,,,,,,,,,,,,,,,,,,,,,,,,,,,,,,,,,,,,,,,,,,,,,,,,,,,,,,,,,,,,,,,,,,,,,,,,,,,,,,,,,,,,,,,,,,,,,,,,,,,,,,,,,,,,,,,,,,,,,,,,,,,,,,retail,,,,POINT (77.213101 28.64038)
Satguru’s tea stall,cafe,28.6504719,77.2303091,osm,cafe,,,,,,,,110006,,,,,,,,,,,,,,,,,,,,,,,,,,,,,,,,,,,,,,,,,,,,,,,,,,,,,,,,,,,,,,,,,,,,,,,,,,,,,,,,,,,,,,,,,,,,,,,,,,,,,,,,,,,,,,,,,,,,,,,,,,,,,,,,,,,,,,,,,,,,,,,,,,,,,,,,,,,,,,,,,,,,,,,,,,,,,,,,,,,,,,,,,,,,,,,,,,,,,,,,,,,,,,,,,,,,,,,,,cafe,,,,POINT (77.2303091 28.6504719)
Hotel Moon Palace dx,hotel,28.6417169,77.2132653,osm,,,,,,,,,,,,hotel,,,,,,,,,,,,,,,,,,,,,,,,,,,,,,,,,,,,,,,,,,,,,,,,,,,,,,,,,,,,,,,,,,,,,,,,,,,,,,,,,,,,,,,,,,,,,,,,,,,,,,,,,,,,,,,,,,,,,,,,,,,,,,,,,,,,,,,,,,,,,,,,,,,,,,,,,,,,,,,,,,,,,,,,,,,,,,,,,,,,,,,,,,,,,,,,,,,,,,,,,,,,,,,,,,,,,,hospitality,,,,POINT (77.2132653 28.6417169)
Punjab National Bank,bank,28.6312513,77.2218705,osm,bank,yes,Punjab National Bank,Q2743499,,,,,110001,,,,,,,,,,,,,,,,,,,,,,,N-46,Connaught Circus,,,,,,,,,,,,,,,,,,,,,,,,,,,,,,,,,,,,,,,,,,,,,,,,,,,,,,,,,,,,,,,,,,,,,,,,,,,,,,,,,,,,,,,,,,,,,,,,,,,,,,,,,,,,,,,,,,,,,,,,,,,,,,,,,,,,,,,,,,,,,,,,,,,,,,,,,,,,,,,,,,,,,,,,,,,,,,,,,,,,,,,,,,,,,,,,,finance,,,,POINT (77.2218705 28.6312513)
Union Bank of India,bank,28.6314468,77.2205311,osm,bank,yes,Union Bank of India,Q2004078,,,,,,,,,,,,,,,,,,,,,,,,,,,,,,,,,,,,,,,,,,,,,,"24/7 ""atm""",,,,,,,,,,,,,,,,,,,,,,,,,,,,,,,,,,,,,,,,,,,,,,,,,,,,,,,,,,,,,,,,,,,,,,,,,,,,,,,,,,,,,,,,,,,,,,,,,,,,,,,,,,,,,,,,,,,,,,,,,,,,,,,,,,,,,,,,,,,,,,,,,,,,,,,,,,,,,,,,,,,,,,,,,,,,,,,,finance,,,,POINT (77.2205311 28.6314468)
Masala House,restaurant,28.6026965,77.2410926,osm,restaurant,,,,,,,,,,,,,,,,,,,,,,,,,,,,,,,,,,,,,,,,,,,,,,,,,,,,,,,,,,,,,,,,,,,,,,,,,,,,,,,,,,,,,,,,,,,,,,,,,,,,,,,,,,,,,,,,,,,,,,,,,,,,,,,,,,,,,,,,,,,,,,,,,,,,,,,,,,,,,,,,,,,,,,,,,,,,,,,,,,,,,,,,,,,,,,,,,,,,,,,,,,,,,,,,,,,,,,,,,,,,,,,,,restaurant,,,,POINT (77.2410926 28.6026965)
Unknown,restaurant,28.6408832,77.213014,osm,restaurant,,,,,,,,,,,,,,,,,,,,,,,,,,,,,,,,,,,,,,,,,,,,,,,,,,,,,,,,,,,,,,,,,,,,,,,,,,,,,,,,,,,,,,,,,,,,,,,,,,,,,,,,,,,,,,,,,,,,,,,,,,,,,,,,,,,,,,,,,,,,,,,,,,,,,,,,,,,,,,,,,,,,,,,,,,,,,,,,,,,,,,,,,,,,,,,,,,,,,,,,,,,,,,,,,,,,,,,,,,,,,,,,,restaurant,,,,POINT (77.213014 28.6408832)
Sagar Ratna,restaurant,28.6353446,77.2203635,osm,restaurant,,Sagar Ratna,,,M/s Sagar Ratna Restaurants Pvt Ltd,https://www.sagarratna.in,New Delhi,110001,,+91 11 4737 7300,,,2024-09-17,,,indian,yes,no,,,,yes,,,,,no,,,,15,,,,,,no,K,,,,सागर रत्ना,,,,,,,08:00-23:00,,,,,,,0;1,1986,,,,,,,,,yes,,,,,,yes,,,,,,no,,Connaught Place,,,no,,,yes,,,yes,,,,,,,,,,,,,,,,,,Connaught Place,sagarratnaofficial,yes,d5c7fef7-7a20-4fee-92e2-b98c9c8bf758,d1e87968-6f95-4826-87a7-221a8199360b,3c754826-eb60-42b1-a0d8-67023b2329f4,91010955-0ee4-4ed5-a373-df46286f6d81,31813afa-4dbb-48eb-a5b0-64e602a9f843,7c962b49-4088-4b14-bd86-bcee4ea70d98,cd0420cc-d125-47ac-8bdb-3a6ee352b415,a18ef6e5-43ee-4b5b-bdf6-e2a35b11bbe1,da144236-2143-4bb6-979b-b2ecc69864b6,0429c2c4-bab1-44a4-88bd-43afbcde61b9,1fd58a46-2970-4414-b75c-954acc43cc66,aaca5a4b-377f-4651-bc28-12d3407a01c2,2b440358-fb82-4a12-bb6d-b7a3dbe3e0bc,yes,yes,yes,customers,no,1,no,,,,,,,,,,,,,,,,,,,,,,,,,,,,,,,,,,,,,,,,,,,,,,,,,,,,,,,,,,,,,,,,,,,,,,,,,,,,,,,,,,,,,,,,,,,,,,,,restaurant,,,,POINT (77.2203635 28.6353446)
Bharat Petroleum,fuel,28.624526,77.2188215,osm,fuel,,Bharat Petroleum,Q854826,,,,,,,,,,,,,,,,,,,,,,,,,,,,,,,,,,,,,,,,,,,,,,,,,,,,,,,,,,,,,,,,,,,,,,,,,,,,,,,,,,,,,,,,,,,,,,,,,,,,,,,,,,,,,,,,,,,,,,,,,,,,,,,,,,,,,,,,,,,,,,,,,,,,,,,,,,,,,,,,,,,,,,,,,,,,,,,,,,,,,,,,,,,,,,,,,,,,,,,,,,,,,,,,,,,,,,,,,,,,,,other,,,,POINT (77.2188215 28.624526)
The Janpath Hotel,hotel,28.6217589,77.2184932,osm,,,,,,,,,,,,hotel,,,,,,,,,,,,,,,,,,,,,,,,,,,,,,,,,,,,,,,,,,,,,,,,,,,,,,,,,,,,,,,,,,,,,,,,,,,,,,,,,,,,,,,,,,,,,,,,,,,,,,,,,,,,,,,,,,,,,,,,,,,,,,,,,,,,,,,,,,,,,,,,,,,,,,,,,,,,,,,,,,,,,,,,,,,,,,,,,,,,,,,,,,,,,,,,,,,,,,,,,,,,,,,,,,,,,,hospitality,,,,POINT (77.2184932 28.6217589)
Indian Oil,fuel,28.6264672,77.2199591,osm,fuel,,Indian Oil,Q1289348,,,,,,,,,,,,,,,,,,,,,,,,,,,,,,,,,,,,,,,,,,,,,,,,,,,,,,,,,,,,,,,,,,,,,,,,,,,,,,,,,,,,,,,,,,,,,,,,,,,,,,,,,,,,,,,,,,,,,,,,,,,,,,,,,,,,,,,,,,,,,,,,,,,,,,,,,,,,,,,,,,,,,,,,,,,,,,,,,,,,,,,,,,,,,,,,,,,,,,,,,,,,,,,,,,,,,,,,,,,,,,other,,,,POINT (77.2199591 28.6264672)
Hotel Vintage Inn,hotel,28.6418295,77.2144552,osm,,,,,,,,,,,,hotel,,,,,,,,,,,,,,,,wlan,,,,,,,,,,,,,,,,,,,,,,,,,,,,,,,,,,,,,,,,,,,,,,,,,,,,,,,,,,,,,,,,,,,,,,,,,,,,,,,,,,,,,,,,,,,,,,,,,,,,,,,,,,,,,,,,,,,,,,,,,,,,,,,,,,,,,,,,,,,,,,,,,,,,,,,,,,,,,,,,,,,,,,,,,,,,,,,,,,,,,,,,,,,,,,,,,,,,,,hospitality,,,,POINT (77.2144552 28.6418295)
Bank of Baroda,bank,28.6289357,77.2174179,osm,bank,,Bank of Baroda,Q2003797,,,,,,,,,,,,,,,,,,,,,,,,,,,,,,,,,,,,,,,,,,,,,,,,,,,,,,,,,,,,,,,,,,,,,,,,,,,,,,,,,,,,,,,,,,,,,,,,,,,,,,,,,,,,,,,,,,,,,,,,,,,,,,,,,,,,,,,,,,,,,,,,,,,,,,,,,,,,,,,,,,,,,,,,,,,,,,,,,,,,,,,,,,,,,,,,,,,,,,,,,,,,,,,,,,,,,,,,,,,,,,finance,,,,POINT (77.2174179 28.6289357)
Tashi,hotel,28.6419034,77.2103116,osm,,,,,,,,,,,,hotel,,,,,,,,,,,,,,,,,,,,,,,,,,,,,,,,,,,,,,,,,,,,,,,,,,,,,,,,,,,,,,,,,,,,,,,,,,,,,,,,,,,,,,,,,,,,,,,,,,,,,,,,,,,,,,,,,,,,,,,,,,,,,,,,,,,,,,,,,,,,,,,,,,,,,,,,,,,,,,,,,,,,,,,,,,,,,,,,,,,,,,,,,,,,,,,,,,,,,,,,,,,,,,,,,,,,,,hospitality,,,,POINT (77.2103116 28.6419034)
Hotel India International Sitare - correct location!!,hotel,28.6439885,77.2102049,osm,,,,,,,,,,,,hotel,,,,,,,,,,,,,,,,,,,,,,,,,,,,,,,,,,,,,,,,,,,,,,,,,,,,,,,,,,,,,,,,,,,,,,,,,,,,,,,,,,,,,,,,,,,,,,,,,,,,,,,,,,,,,,,,,,,,,,,,,,,,,,,,,,,,,,,,,,,,,,,,,,,,,,,,,,,,,,,,,,,,,,,,,,,,,,,,,,,,,,,,,,,,,,,,,,,,,,,,,,,,,,,,,,,,,,hospitality,,,,POINT (77.2102049 28.6439885)
