name,category,latitude,longitude,source,addr:city,addr:district,addr:full,addr:housenumber,addr:postcode,addr:state,addr:street,amenity,email,healthcare:speciality,name:kn,operator:type,phone,website,wheelchair,brand,brand:wikidata,brand:wikipedia,operator,shop,fax,healthcare,fee,parking,cuisine,toilets:wheelchair,fuel:biodiesel,fuel:biogas,fuel:cng,fuel:diesel,fuel:e10,fuel:e85,fuel:electricity,fuel:lpg,building,opening_hours,atm,name:en,short_name,emergency,tourism,organic,official_name,addr:housename,brand:en,brand:hi,brand:kn,brand:pa,brand:pnb,brand:ur,brand:wikipedia:pa,name:hi,name:pa,name:pnb,name:ur,description,alt_name,alt_name:en,alt_name:hi,alt_name:pa,alt_name:pnb,alt_name:ur,brand:wikipedia:ur,takeaway,diet:vegetarian,addr:subdistrict,air_conditioning,indoor_seating,outdoor_seating,smoking,dispensing,addr:country,addr:suburb,delivery,phone_1,phone_2,diet:halal,diet:vegan,payment:credit_cards,payment:debit_cards,addr:hamlet,contact:email,emergency_telephone_code,medical_system,brand:ks,name:ks,check_date,internet_access,brand:fa,brand:mr,brand:ta,brand:website,name:fa,name:mr,name:ta,short_name:pa,short_name:ur,designation,fuel:octane_100,contact:phone,branch,wifi,cmt,ele,hdop,sat,time,compressed_air,level,leisure,payment:cash,user_defined,drive_through,bus,public_transport,addr:floor,building:levels,currency:INR,diet:dairy,diet:ovo_vegetarian,second_hand,stroller,toilets,operator:short,operator:wikidata,reservation,sport,name_1,name_2,old_name,stars,fast_food,food,name:ru,internet_access:fee,description:kn,fuel:petrol,note,payment:coins,payment:notes,rooms,bar,access,self_service,payment:upi,office,diet:non-vegetarian,building:floor,layer,contact:instagram,survey:date,surface,mobile,highchair,payment:cards,not:brand:wikidata,website:menu,landuse,network,int_name,toilets:access,local_ref,wikidata,wikipedia,capacity,covered,name:bn,bicycle_parking,motorcycle:parking,name:etymology:wikidata,school:gender,check_date:compressed_air,orientation,type,category_group,rating,footfall_estimate,population_nearby,point_geometry
Chord Road Hospital Pvt Ltd,other,12.9981215,77.5404836,osm,"Basaveshwara Nagar, Bangalore",Bengaluru Urban,"#100/101, Lic Colony West Of Chord, Basaveshwaranagar",100,560079,Karnataka,West of Chord Road (LIC Colony),hospital,chordroadhospital100@yahoo.co.in,multi speciality,ಕೊರ್ಡ್ ರಸ್ತೆ ಆಸ್ಪತ್ರೆ,private,+91-80-23225858;+91-80-23225868;+91-80-23225878,http://www.chordroadhospitalent.com/,yes,,,,,,,,,,,,,,,,,,,,,,,,,,,,,,,,,,,,,,,,,,,,,,,,,,,,,,,,,,,,,,,,,,,,,,,,,,,,,,,,,,,,,,,,,,,,,,,,,,,,,,,,,,,,,,,,,,,,,,,,,,,,,,,,,,,,,,,,,,,,,,,,,,,,,,,,,,,,,,,,other,,,,POINT (77.5404836 12.9981215)
Indian Oil,fuel,12.9967798,77.5404068,osm,,,,,,,WOC Road,fuel,,,,,,,yes,Indian Oil,Q1289348,en:Indian Oil Corporation,Indian Oil,,,,,,,,,,,,,,,,,,,,,,,,,,,,,,,,,,,,,,,,,,,,,,,,,,,,,,,,,,,,,,,,,,,,,,,,,,,,,,,,,,,,,,,,,,,,,,,,,,,,,,,,,,,,,,,,,,,,,,,,,,,,,,,,,,,,,,,,,,,,,,,,,,,,,,,,,,,,other,,,,POINT (77.5404068 12.9967798)
Bharat Petroleum,fuel,12.9966627,77.5400464,osm,,,,,,,WOC Road,fuel,,,,,,,yes,Bharat Petroleum,Q854826,,Bharat Petroleum,,,,,,,,,,,,,,,,,,,,,,,,,,,,,,,,,,,,,,,,,,,,,,,,,,,,,,,,,,,,,,,,,,,,,,,,,,,,,,,,,,,,,,,,,,,,,,,,,,,,,,,,,,,,,,,,,,,,,,,,,,,,,,,,,,,,,,,,,,,,,,,,,,,,,,,,,,,,other,,,,POINT (77.5400464 12.9966627)
St Charles High School,other,12.9965228,77.5423272,osm,"Basaveshwara Nagar, Bangalore",,,,,,,school,,,,,,,,,,,,,,,,,,,,,,,,,,,,,,,,,,,,,,,,,,,,,,,,,,,,,,,,,,,,,,,,,,,,,,,,,,,,,,,,,,,,,,,,,,,,,,,,,,,,,,,,,,,,,,,,,,,,,,,,,,,,,,,,,,,,,,,,,,,,,,,,,,,,,,,,,,,,,,,,,,,,,,,other,,,,POINT (77.5423272 12.9965228)
Guru Sagar Hotel,restaurant,12.9951833,77.5396211,osm,"Basaveshwara Nagar, Bangalore",,,,,,WOC Road,restaurant,,,ಗುರು ಸಾಗರ,,,,,,,,,,,,,,,,,,,,,,,,,,,,,,,,,,,,,,,,,,,,,,,,,,,,,,,,,,,,,,,,,,,,,,,,,,,,,,,,,,,,,,,,,,,,,,,,,,,,,,,,,,,,,,,,,,,,,,,,,,,,,,,,,,,,,,,,,,,,,,,,,,,,,,,,,,,,,,,,,,,,restaurant,,,,POINT (77.5396211 12.9951833)
Fresh@Heritage,convenience,12.9974545,77.5403023,osm,"Basaveshwara Nagar, Bangalore",,,,,,,,,,,,,,,,,,,convenience,,,,,,,,,,,,,,,,,,,,,,,,,,,,,,,,,,,,,,,,,,,,,,,,,,,,,,,,,,,,,,,,,,,,,,,,,,,,,,,,,,,,,,,,,,,,,,,,,,,,,,,,,,,,,,,,,,,,,,,,,,,,,,,,,,,,,,,,,,,,,,,,,,,,,,,,,,,retail,,,,POINT (77.5403023 12.9974545)
Carmel High School,other,12.9885908,77.5442935,osm,,,,,,,,school,,,ಕಾರ್ಮೆಲ್ ಪ್ರೌಡಶಾಲೆ,,,,limited,,,,,,,,,,,,,,,,,,,,,,,,,,,,,,,,,,,,,,,,,,,,,,,,,,,,,,,,,,,,,,,,,,,,,,,,,,,,,,,,,,,,,,,,,,,,,,,,,,,,,,,,,,,,,,,,,,,,,,,,,,,,,,,,,,,,,,,,,,,,,,,,,,,,,,,,,,,,,,,,other,,,,POINT (77.5442935 12.9885908)
Pristline Hospital,other,12.9978931,77.5436127,osm,"Basaveshwara Nagar, Bangalore",,,877,560079,,Modi Hospital Road (West of Chord Road),hospital,pristinehospitals@pristinehospitals.com,,ಪ್ರಿಸ್ಟೀನ್ ಆಸ್ಪತ್ರೆ,,+91-80-41354444;+91-80-51270776,http://www.pristinehospitals.com/,,,,,,,+91-80-41354455,hospital,,,,,,,,,,,,,,,,,,,,,,,,,,,,,,,,,,,,,,,,,,,,,,,,,,,,,,,,,,,,,,,,,,,,,,,,,,,,,,,,,,,,,,,,,,,,,,,,,,,,,,,,,,,,,,,,,,,,,,,,,,,,,,,,,,,,,,,,,,,,,,,,,,,,,,,,,other,,,,POINT (77.5436127 12.9978931)
Unknown,convenience,12.9972514,77.541656,osm,,,,,,,,,,,,,,,,,,,,convenience,,,,,,,,,,,,,,,,,,,,,,,,,,,,,,,,,,,,,,,,,,,,,,,,,,,,,,,,,,,,,,,,,,,,,,,,,,,,,,,,,,,,,,,,,,,,,,,,,,,,,,,,,,,,,,,,,,,,,,,,,,,,,,,,,,,,,,,,,,,,,,,,,,,,,,,,,,,retail,,,,POINT (77.541656 12.9972514)
Unknown,parking,13.0097345,77.5515655,osm,,,,,,,,parking,,,,,,,,,,,,,,,yes,multi-storey,,,,,,,,,,,,,,,,,,,,,,,,,,,,,,,,,,,,,,,,,,,,,,,,,,,,,,,,,,,,,,,,,,,,,,,,,,,,,,,,,,,,,,,,,,,,,,,,,,,,,,,,,,,,,,,,,,,,,,,,,,,,,,,,,,,,,,,,,,,,,,,,,,,,,,,other,,,,POINT (77.5515655 13.0097345)
More,supermarket,12.9409932,77.544655,osm,,,,,,,80 Feet Road Girinagar,,,,ಮೋರ್,,,,,,,,,supermarket,,,,,,,,,,,,,,,,,,,,,,,,,,,,,,,,,,,,,,,,,,,,,,,,,,,,,,,,,,,,,,,,,,,,,,,,,,,,,,,,,,,,,,,,,,,,,,,,,,,,,,,,,,,,,,,,,,,,,,,,,,,,,,,,,,,,,,,,,,,,,,,,,,,,,,,,,,,retail,,,,POINT (77.544655 12.9409932)
Unknown,bank,12.9394898,77.5451718,osm,,,,,,,Nehru Road,bank,,,,,,,,,,,State Bank of India,,,,,,,,,,,,,,,,,,,,,,,,,,,,,,,,,,,,,,,,,,,,,,,,,,,,,,,,,,,,,,,,,,,,,,,,,,,,,,,,,,,,,,,,,,,,,,,,,,,,,,,,,,,,,,,,,,,,,,,,,,,,,,,,,,,,,,,,,,,,,,,,,,,,,,,,,,,,finance,,,,POINT (77.5451718 12.9394898)
Nilgiris Store,convenience,12.9410374,77.542039,osm,,,,,,,80 Feet Road Girinagar,,,,,,,,,,,,,convenience,,,,,,,,,,,,,,,,,,,,,,,,,,,,,,,,,,,,,,,,,,,,,,,,,,,,,,,,,,,,,,,,,,,,,,,,,,,,,,,,,,,,,,,,,,,,,,,,,,,,,,,,,,,,,,,,,,,,,,,,,,,,,,,,,,,,,,,,,,,,,,,,,,,,,,,,,,,retail,,,,POINT (77.542039 12.9410374)
Udupi Upahar,restaurant,12.9387161,77.5534116,osm,,,,,,,80 Feet Road,restaurant,,,ಉಡುಪಿ ಉಪಹಾರ,,,,,,,,,,,,,,regional,,,,,,,,,,,,,,,,,,,,,,,,,,,,,,,,,,,,,,,,,,,,,,,,,,,,,,,,,,,,,,,,,,,,,,,,,,,,,,,,,,,,,,,,,,,,,,,,,,,,,,,,,,,,,,,,,,,,,,,,,,,,,,,,,,,,,,,,,,,,,,,,,,,,,,restaurant,,,,POINT (77.5534116 12.9387161)
Auden Public School,other,12.9381024,77.543378,osm,,,,,,,,school,,,,,,,,,,,,,,,,,,,,,,,,,,,,,,,,,,,,,,,,,,,,,,,,,,,,,,,,,,,,,,,,,,,,,,,,,,,,,,,,,,,,,,,,,,,,,,,,,,,,,,,,,,,,,,,,,,,,,,,,,,,,,,,,,,,,,,,,,,,,,,,,,,,,,,,,,,,,,,,,,,,,,,,other,,,,POINT (77.543378 12.9381024)
Radhakrishna Pharmacy,pharmacy,12.9408942,77.5456204,osm,,,,,,,,pharmacy,,,,,,,,,,,,,,,,,,,,,,,,,,,,,,,,,,,,,,,,,,,,,,,,,,,,,,,,,,,,,,,,,,,,,,,,,,,,,,,,,,,,,,,,,,,,,,,,,,,,,,,,,,,,,,,,,,,,,,,,,,,,,,,,,,,,,,,,,,,,,,,,,,,,,,,,,,,,,,,,,,,,,,,healthcare,,,,POINT (77.5456204 12.9408942)
Sri Balaji Medicals and General Stores,pharmacy,12.9403595,77.5458556,osm,,,,,,,,pharmacy,,,,,,,,,,,,,,,,,,,,,,,,,,,,,,,,,,,,,,,,,,,,,,,,,,,,,,,,,,,,,,,,,,,,,,,,,,,,,,,,,,,,,,,,,,,,,,,,,,,,,,,,,,,,,,,,,,,,,,,,,,,,,,,,,,,,,,,,,,,,,,,,,,,,,,,,,,,,,,,,,,,,,,,healthcare,,,,POINT (77.5458556 12.9403595)
Big Bazaar,supermarket,12.9265852,77.5509047,osm,,,,,,,,,,,ಬಿಗ್ ಬಜಾರ್,,,,limited,,,,,supermarket,,,,,,no,,,,,,,,,,,,,,,,,,,,,,,,,,,,,,,,,,,,,,,,,,,,,,,,,,,,,,,,,,,,,,,,,,,,,,,,,,,,,,,,,,,,,,,,,,,,,,,,,,,,,,,,,,,,,,,,,,,,,,,,,,,,,,,,,,,,,,,,,,,,,,,,,,,,,retail,,,,POINT (77.5509047 12.9265852)
Food World,supermarket,12.925511,77.5501686,osm,,,,,,,,,,,ಫುಡ್ ವರ್ಲ್ಡ್,,,,,,,,,supermarket,,,,,,,,,,,,,,,,,,,,,,,,,,,,,,,,,,,,,,,,,,,,,,,,,,,,,,,,,,,,,,,,,,,,,,,,,,,,,,,,,,,,,,,,,,,,,,,,,,,,,,,,,,,,,,,,,,,,,,,,,,,,,,,,,,,,,,,,,,,,,,,,,,,,,,,,,,,retail,,,,POINT (77.5501686 12.925511)
Anna Kuteera,restaurant,12.9261046,77.5502503,osm,,,,,,,,restaurant,,,ಅಣ್ಣ ಕುಟೀರ,,,,no,,,,,,,,,,,no,,,,,,,,,,,,,,,,,,,,,,,,,,,,,,,,,,,,,,,,,,,,,,,,,,,,,,,,,,,,,,,,,,,,,,,,,,,,,,,,,,,,,,,,,,,,,,,,,,,,,,,,,,,,,,,,,,,,,,,,,,,,,,,,,,,,,,,,,,,,,,,,,,,,,restaurant,,,,POINT (77.5502503 12.9261046)
Shanthi Sagar,restaurant,12.9237141,77.5534616,osm,,,,,,,Outer Ring Road,restaurant,,,ಶಾಂತಿ ಸಾಗರ,,,,,,,,,,,,,,,,,,,,,,,,,,,,,,,,,,,,,,,,,,,,,,,,,,,,,,,,,,,,,,,,,,,,,,,,,,,,,,,,,,,,,,,,,,,,,,,,,,,,,,,,,,,,,,,,,,,,,,,,,,,,,,,,,,,,,,,,,,,,,,,,,,,,,,,,,,,,,,,,,,,,restaurant,,,,POINT (77.5534616 12.9237141)
Auden School,other,12.9323436,77.5437984,osm,,,,,,,,school,,,,,,,,,,,,,,,,,,,,,,,,,,,,,,,,,,,,,,,,,,,,,,,,,,,,,,,,,,,,,,,,,,,,,,,,,,,,,,,,,,,,,,,,,,,,,,,,,,,,,,,,,,,,,,,,,,,,,,,,,,,,,,,,,,,,,,,,,,,,,,,,,,,,,,,,,,,,,,,,,,,,,,,other,,,,POINT (77.5437984 12.9323436)
IBP Petrol Station,fuel,12.9380085,77.5496081,osm,,,,,,,80 Feet Road,fuel,,,,,,,,IBP,,,,,,,,,,,no,no,no,yes,no,no,no,no,,,,,,,,,,,,,,,,,,,,,,,,,,,,,,,,,,,,,,,,,,,,,,,,,,,,,,,,,,,,,,,,,,,,,,,,,,,,,,,,,,,,,,,,,,,,,,,,,,,,,,,,,,,,,,,,,,,,,,,,,,,,,,,,,,,,,,,,,,,,,other,,,,POINT (77.5496081 12.9380085)
Srinagar Bus Station,bus_station,12.9444378,77.5546637,osm,,,,,,,,bus_station,,,ಶ್ರೀನಗರ ಬಸ್ ನಿಲ್ದಾಣ,,,,,,,,,,,,,,,,,,,,,,,,public,,,,,,,,,,,,,,,,,,,,,,,,,,,,,,,,,,,,,,,,,,,,,,,,,,,,,,,,,,,,,,,,,,,,,,,,,,,,,,,,,,,,,,,,,,,,,,,,,,,,,,,,,,,,,,,,,,,,,,,,,,,,,,,,,,,,,,,,,,,,other,,,,POINT (77.5546637 12.9444378)
Sri Vinayaka Poly Clinic,other,12.939058,77.5510802,osm,bangalore,,,8/45,560050,,"80 Feet Road, SBM Colony, Near-Bank Colony Bus Stop, Banashankari 1st Stage",hospital,,,,,080 2672 8455,,,,,,,,,,,,,,,,,,,,,,,,,,,,,,,,,,,,,,,,,,,,,,,,,,,,,,,,,,,,,,,,,,,,,,,,,,,,,,,,,,,,,,,,,,,,,,,,,,,,,,,,,,,,,,,,,,,,,,,,,,,,,,,,,,,,,,,,,,,,,,,,,,,,,,,,,,,,,,,,,,other,,,,POINT (77.5510802 12.939058)
Apollo Pharmacy,pharmacy,12.9332899,77.5427058,osm,,,,,,,,pharmacy,,,ಅಪೋಲೋ ಫಾರ್ಮಸಿ,,,,,Apollo Pharmacy,Q62562612,,,,,pharmacy,,,,,,,,,,,,,,"Mo-Su,PH 08:30-21:30",,,,,,,,,,,,,,,,,,,,,,,,,,,,,,,,,,,,,,,,,,,,,,,,,,,,,,,,,,,,,,,,,,,,,,,,,,,,,,,,,,,,,,,,,,,,,,,,,,,,,,,,,,,,,,,,,,,,,,,,,,,,,,,,,,,,,,,,,,,healthcare,,,,POINT (77.5427058 12.9332899)
Pizza Hut,restaurant,12.9972009,77.540616,osm,"Basaveshwara Nagar, Bangalore",,,,,,,restaurant,,,ಪಿಜ್ಜಾ ಹಟ್,,,,no,Pizza Hut,Q191615,,Pizza Hut,,,,,,pizza,,,,,,,,,,,,,,,,,,,,,,,,,,,,,,,,,,,,,,,,,,,,,,,,,,,,,,,,,,,,,,,,,,,,,,,,,,,,,,,,,,,,,,,,,,,,,,,,,,,,,,,,,,,,,,,,,,,,,,,,,,,,,,,,,,,,,,,,,,,,,,,,,,,,,,restaurant,,,,POINT (77.540616 12.9972009)
Bank of India,bank,12.9899522,77.5378467,osm,,,,,,,,bank,,,,,,http://www.bankofindia.co.in,,Bank of India,Q2004439,en:Bank of India,,,,,,,,,,,,,,,,,,,yes,Bank of India,BoI,,,,,,,,,,,,,,,,,,,,,,,,,,,,,,,,,,,,,,,,,,,,,,,,,,,,,,,,,,,,,,,,,,,,,,,,,,,,,,,,,,,,,,,,,,,,,,,,,,,,,,,,,,,,,,,,,,,,,,,,,,,,,,,,,,,,,,,,finance,,,,POINT (77.5378467 12.9899522)
Axis Bank,bank,12.9958306,77.5401339,osm,,,,,,,WOC Road,bank,,,ಆಕ್ಸಿಸ್ ಬ್ಯಾಂಕ್,,,https://www.axisbank.com,no,Axis Bank,Q2003549,en:Axis Bank,,,,,,,,,,,,,,,,,,,yes,Axis Bank,,,,,,,,,,,,,,,,,,,,,,,,,,,,,,,,,,,,,,,,,,,,,,,,,,,,,,,,,,,,,,,,,,,,,,,,,,,,,,,,,,,,,,,,,,,,,,,,,,,,,,,,,,,,,,,,,,,,,,,,,,,,,,,,,,,,,,,,,finance,,,,POINT (77.5401339 12.9958306)
Vikas Medicals,pharmacy,12.9672449,77.5427653,osm,,,,,,,,pharmacy,,,,,,,,,,,,,,,,,,,,,,,,,,,,,,,,,,,,,,,,,,,,,,,,,,,,,,,,,,,,,,,,,,,,,,,,,,,,,,,,,,,,,,,,,,,,,,,,,,,,,,,,,,,,,,,,,,,,,,,,,,,,,,,,,,,,,,,,,,,,,,,,,,,,,,,,,,,,,,,,,,,,,,,healthcare,,,,POINT (77.5427653 12.9672449)
MedPlus,pharmacy,12.9670358,77.5428833,osm,,,,,,,,pharmacy,,,ಮೆಡ್‍ಪ್ಲಸ್,,,,,MedPlus,Q65684234,,,,,pharmacy,,,,,,,,,,,,,,,,,,,,,,,,,,,,,,,,,,,,,,,,,,,,,,,,,,,,,,,,,,,,,,,,,,,,,,,,,,,,,,,,,,,,,,,,,,,,,,,,,,,,,,,,,,,,,,,,,,,,,,,,,,,,,,,,,,,,,,,,,,,,,,,,,,,,,,,,,healthcare,,,,POINT (77.5428833 12.9670358)
SLV Fast Food,fast_food,12.9672919,77.5426111,osm,,,,,,,,fast_food,,,,,,,,,,,,,,,,,,,,,,,,,,,,,,,,,,,,,,,,,,,,,,,,,,,,,,,,,,,,,,,,,,,,,,,,,,,,,,,,,,,,,,,,,,,,,,,,,,,,,,,,,,,,,,,,,,,,,,,,,,,,,,,,,,,,,,,,,,,,,,,,,,,,,,,,,,,,,,,,,,,,,,,restaurant,,,,POINT (77.5426111 12.9672919)
Durga Chats,fast_food,12.9724264,77.5388651,osm,,,,,,,,fast_food,,,,,,,,,,,,,,,,,,,,,,,,,,,,,,,,,,,,,,,,,,,,,,,,,,,,,,,,,,,,,,,,,,,,,,,,,,,,,,,,,,,,,,,,,,,,,,,,,,,,,,,,,,,,,,,,,,,,,,,,,,,,,,,,,,,,,,,,,,,,,,,,,,,,,,,,,,,,,,,,,,,,,,,restaurant,,,,POINT (77.5388651 12.9724264)
Paratha Point,fast_food,12.9672031,77.541844,osm,,,,,,,,fast_food,,,,,,,,,,,,,,,,,,,,,,,,,,,,,,,,,,,,,,,,,,,,,,,,,,,,,,,,,,,,,,,,,,,,,,,,,,,,,,,,,,,,,,,,,,,,,,,,,,,,,,,,,,,,,,,,,,,,,,,,,,,,,,,,,,,,,,,,,,,,,,,,,,,,,,,,,,,,,,,,,,,,,,,restaurant,,,,POINT (77.541844 12.9672031)
LJB Iyengar's Bakery,fast_food,12.9676187,77.541608,osm,,,,,,,,fast_food,,,,,,,,,,,,,,,,,,,,,,,,,,,,,,,,,,,,,,,,,,,,,,,,,,,,,,,,,,,,,,,,,,,,,,,,,,,,,,,,,,,,,,,,,,,,,,,,,,,,,,,,,,,,,,,,,,,,,,,,,,,,,,,,,,,,,,,,,,,,,,,,,,,,,,,,,,,,,,,,,,,,,,,restaurant,,,,POINT (77.541608 12.9676187)
Nature Fresh,cafe,12.9673021,77.5421438,osm,,,,,,,,cafe,,,,,,,,,,,,,,,,,,,,,,,,,,,,,,,,,,,,,,,,,,,,,,,,,,,,,,,,,,,,,,,,,,,,,,,,,,,,,,,,,,,,,,,,,,,,,,,,,,,,,,,,,,,,,,,,,,,,,,,,,,,,,,,,,,,,,,,,,,,,,,,,,,,,,,,,,,,,,,,,,,,,,,,cafe,,,,POINT (77.5421438 12.9673021)
Mamatha Departmental Store,convenience,12.9673129,77.5417077,osm,,,,,,,,,,,,,,,,,,,,convenience,,,,,,,,,,,,,,,,,,,,,,,,,,,,,,,,,,,,,,,,,,,,,,,,,,,,,,,,,,,,,,,,,,,,,,,,,,,,,,,,,,,,,,,,,,,,,,,,,,,,,,,,,,,,,,,,,,,,,,,,,,,,,,,,,,,,,,,,,,,,,,,,,,,,,,,,,,,retail,,,,POINT (77.5417077 12.9673129)
The New Cambridge High School,other,12.9655564,77.5417627,osm,,,,,,,,school,,,,,,,,,,,,,,,,,,,,,,,,,,,,,,,,,,,,,,,,,,,,,,,,,,,,,,,,,,,,,,,,,,,,,,,,,,,,,,,,,,,,,,,,,,,,,,,,,,,,,,,,,,,,,,,,,,,,,,,,,,,,,,,,,,,,,,,,,,,,,,,,,,,,,,,,,,,,,,,,,,,,,,,other,,,,POINT (77.5417627 12.9655564)
Soujanya Clinic,other,12.9681189,77.54325,osm,,,,,,,,hospital,,,,,,,,,,,,,,,,,,,,,,,,,,,,,,,,no,,,,,,,,,,,,,,,,,,,,,,,,,,,,,,,,,,,,,,,,,,,,,,,,,,,,,,,,,,,,,,,,,,,,,,,,,,,,,,,,,,,,,,,,,,,,,,,,,,,,,,,,,,,,,,,,,,,,,,,,,,,,,,,,,,,,,,,other,,,,POINT (77.54325 12.9681189)
CYCD,hotel,12.967339,77.5427777,osm,,,,,,,,,,,,,,,,,,,,,,,,,,,,,,,,,,,,,,,,,hotel,,,,,,,,,,,,,,,,,,,,,,,,,,,,,,,,,,,,,,,,,,,,,,,,,,,,,,,,,,,,,,,,,,,,,,,,,,,,,,,,,,,,,,,,,,,,,,,,,,,,,,,,,,,,,,,,,,,,,,,,,,,,,,,,,,,,,,hospitality,,,,POINT (77.5427777 12.967339)
Kanva Diagnostics Collection Centre,other,12.967291,77.5429164,osm,,,,,,,,hospital,,,,,,,,,,,,,,,,,,,,,,,,,,,,,,,,,,,,,,,,,,,,,,,,,,,,,,,,,,,,,,,,,,,,,,,,,,,,,,,,,,,,,,,,,,,,,,,,,,,,,,,,,,,,,,,,,,,,,,,,,,,,,,,,,,,,,,,,,,,,,,,,,,,,,,,,,,,,,,,,,,,,,,,other,,,,POINT (77.5429164 12.967291)
Vodafone,convenience,12.9671974,77.5428831,osm,,,,,,,,,,,ವೋಡಫೋನ್,,,,,,,,,convenience,,,,,,,,,,,,,,,,,,,,,,,,,,,,,,,,,,,,,,,,,,,,,,,,,,,,,,,,,,,,,,,,,,,,,,,,,,,,,,,,,,,,,,,,,,,,,,,,,,,,,,,,,,,,,,,,,,,,,,,,,,,,,,,,,,,,,,,,,,,,,,,,,,,,,,,,,,,retail,,,,POINT (77.5428831 12.9671974)
Seetha General Store,convenience,12.9673076,77.5425508,osm,,,,,,,,,,,,,,,,,,,,convenience,,,,,,,,,,,,,,,,,,,,,,,,,,,,,,,,,,,,,,,,,,,,,,,,,,,,,,,,,,,,,,,,,,,,,,,,,,,,,,,,,,,,,,,,,,,,,,,,,,,,,,,,,,,,,,,,,,,,,,,,,,,,,,,,,,,,,,,,,,,,,,,,,,,,,,,,,,,retail,,,,POINT (77.5425508 12.9673076)
Indian Oil,fuel,12.9916942,77.5457901,osm,,,,,,,,fuel,,,ಇಂಡಿಯನ್ ಆಯಿಲ್,,,,,Indian Oil,Q1289348,en:Indian Oil Corporation,,,,,,,,,,,,,,,,,,,,,,,,,,,,,,,,,,,,,,,,,,,,,,,,,,,,,,,,,,,,,,,,,,,,,,,,,,,,,,,,,,,,,,,,,,,,,,,,,,,,,,,,,,,,,,,,,,,,,,,,,,,,,,,,,,,,,,,,,,,,,,,,,,,,,,,,,,,,,other,,,,POINT (77.5457901 12.9916942)
Unknown,bank,12.9685151,77.5371276,osm,,,,,,,,bank,,,,,,,,,,,,,,,,,,,,,,,,,,,,,,,,,,,,,,,,,,,,,,,,,,,,,,,,,,,,,,,,,,,,,,,,,,,,,,,,,,,,,,,,,,,,,,,,,,,,,,,,,,,,,,,,,,,,,,,,,,,,,,,,,,,,,,,,,,,,,,,,,,,,,,,,,,,,,,,,,,,,,,,finance,,,,POINT (77.5371276 12.9685151)
Total Superstore,supermarket,12.9827809,77.5592036,osm,Bengaluru,,,,560010,,1st Main Road,,,,,,,http://www.totalsuperstore.com/,,,,,,supermarket,,,,,,,,,,,,,,,,,,,,,,yes,,,,,,,,,,,,,,,,,,,,,,,,,,,,,,,,,,,,,,,,,,,,,,,,,,,,,,,,,,,,,,,,,,,,,,,,,,,,,,,,,,,,,,,,,,,,,,,,,,,,,,,,,,,,,,,,,,,,,,,,,,,,,,,,,,,,,retail,,,,POINT (77.5592036 12.9827809)
Unknown,parking,12.9327721,77.5031212,osm,,,,,,,,parking,,,,,,,,,,,,,,,,,,,,,,,,,,,,,,,,,,,,,,,,,,,,,,,,,,,,,,,,,,,,,,,,,,,,,,,,,,,,,,,,,,,,,,,,,,,,,,,,,,,,,,,,,,,,,,,,,,,,,,,,,,,,,,,,,,,,,,,,,,,,,,,,,,,,,,,,,,,,,,,,,,,,,,,other,,,,POINT (77.5031212 12.9327721)
Sri Mahadeshwara Filling Station,fuel,12.932367,77.5414216,osm,bangalore,,,,560085,,,fuel,,,,,,,,Hindustan Petroleum,Q1619375,,Hindustan Petroleum,,,,,,,,,,,,,,,,,,,,,,,,Hindustan Petroleum,,,,,,,,,,,,,,,,,,,,,,,,,,,,,,,,,,,,,,,,,,,,,,,,,,,,,,,,,,,,,,,,,,,,,,,,,,,,,,,,,,,,,,,,,,,,,,,,,,,,,,,,,,,,,,,,,,,,,,,,,,,,,,,,,,,,other,,,,POINT (77.5414216 12.932367)
Total gas,fuel,12.9865791,77.5403594,osm,,,,,,,,fuel,,,,,,,,Total,Q154037,,Total,,,,,,,,,,,,,,,yes,,,,,,,,,,,,,,,,,,,,,,,,,,,,,,,,,,,,,,,,,,,,,,,,,,,,,,,,,,,,,,,,,,,,,,,,,,,,,,,,,,,,,,,,,,,,,,,,,,,,,,,,,,,,,,,,,,,,,,,,,,,,,,,,,,,,,,,,,,,,,other,,,,POINT (77.5403594 12.9865791)
Canara Bank,bank,12.98568,77.5421189,osm,,,,,560079,,Basaveshwaranagar,bank,,,ಕೆನರಾ ಬ್ಯಾಂಕ್,,,https://www.canarabank.com/,,Canara Bank,Q2003777,en:Canara Bank,,,,,,,,,,,,,,,,,,,yes,Canara Bank,,,,,,Canara bank,Canara Bank,केनरा बैंक,ಕೆನರಾ ಬ್ಯಾಂಕ್,ਕੇਨਰਾ ਬੈਂਕ,کینرا بینک,کینرا بینک,ਕੇਨਰਾ ਬੈਂਕ,केनरा बैंक,ਕੇਨਰਾ ਬੈਂਕ,کینرا بینک,کینرا بینک,,,,,,,,,,,,,,,,,,,,,,,,,,,,,,,,,,,,,,,,,,,,,,,,,,,,,,,,,,,,,,,,,,,,,,,,,,,,,,,,,,,,,,,,,,,,,,,,,,,,,,,,,,,,,,,,,,,,,,,,finance,,,,POINT (77.5421189 12.98568)
Karnataka State Co-op Apex Bank,bank,12.9860568,77.5418754,osm,,,,No 1,560079,,"15th Main, 3rd Stage, Basaveshwaranagar",bank,,,,,,,,,,,,,,,,,,,,,,,,,,,,,no,,,,,,,Karnataka State Co-op Apex Bank,,,,,,,,,,,,,,,,,,,,,,,,,,,,,,,,,,,,,,,,,,,,,,,,,,,,,,,,,,,,,,,,,,,,,,,,,,,,,,,,,,,,,,,,,,,,,,,,,,,,,,,,,,,,,,,,,,,,,,,,,,,,,,,,,,,finance,,,,POINT (77.5418754 12.9860568)
Global Chess Academy India,other,12.962267,77.530001,osm,,,,,,,,school,,,,,+919845872499,,,,,,,,,,,,,,,,,,,,,,,,,,,,,,,,,,,,,,,,,,,Behind BHEL Township vijaynagar,,,,,,,,,,,,,,,,,,,,,,,,,,,,,,,,,,,,,,,,,,,,,,,,,,,,,,,,,,,,,,,,,,,,,,,,,,,,,,,,,,,,,,,,,,,,,,,,,,,,,,,,,,,,,,,,,,,,,,,other,,,,POINT (77.530001 12.962267)
KFC,fast_food,12.9256218,77.5502249,osm,,,,,,,,fast_food,,,ಕೆಎಫ್‌ಸಿ,,,,,KFC,Q524757,en:KFC,,,,,,,chicken,,,,,,,,,,,,,KFC,,,,,,,KFC,केएफसी,,ਕੇਐਫਸੀ,کے ایف سی,کے ایف سی,ਕੇਐਫਸੀ,केएफसी,ਕੇਐਫਸੀ,کے ایف سی,کے ایف سی,,Kentucky Fried Chicken,Kentucky Fried Chicken,केंटुकी फ्राइड चिकन,ਕੈਂਟੁਕੀ ਫ੍ਰਾਈਡ ਚਿਕਨ,کینٹکی فرائیڈ چکن,کینٹکی فرائیڈ چکن,کینٹکی فرائیڈ چکن,yes,,,,,,,,,,,,,,,,,,,,,,,,,,,,,,,,,,,,,,,,,,,,,,,,,,,,,,,,,,,,,,,,,,,,,,,,,,,,,,,,,,,,,,,,,,,,,,,,,,,,,,,,,,,,,,,restaurant,,,,POINT (77.5502249 12.9256218)
Dal Tadka,restaurant,12.9256318,77.5498709,osm,,,,,,,,restaurant,,,ದಾಲ್ ತಡ್ಕ,,,,,,,,,,,,,,,,,,,,,,,,,,,,,,,,,,,,,,,,,,,,,,,,,,,,,,,,,,,,,,,,,,,,,,,,,,,,,,,,,,,,,,,,,,,,,,,,,,,,,,,,,,,,,,,,,,,,,,,,,,,,,,,,,,,,,,,,,,,,,,,,,,,,,,,,,,,,,,,,,,,,restaurant,,,,POINT (77.5498709 12.9256318)
Hotel Dream Land,restaurant,12.9267671,77.4973876,osm,,,,,,,,restaurant,,,ಹೋಟೆಲ್ ಡ್ರೀಮ್ ಲ್ಯಾಂಡ್,,,,,,,,,,,,,,chicken,,,,,,,,,,,,,,,,,,,,,,,,,,,,,,,,,,,,,,,,,,,,,,,,,,,,,,,,,,,,,,,,,,,,,,,,,,,,,,,,,,,,,,,,,,,,,,,,,,,,,,,,,,,,,,,,,,,,,,,,,,,,,,,,,,,,,,,,,,,,,,,,,,,,,,restaurant,,,,POINT (77.4973876 12.9267671)
Udupi Upahar,fast_food,12.9250272,77.4986893,osm,,,,,,,,fast_food,,,,,,,,,,,,,,,,,,,,,,,,,,,,,,,,,,,,,,,,,,,,,,,,,,,,,,,,,only,,,,,,,,,,,,,,,,,,,,,,,,,,,,,,,,,,,,,,,,,,,,,,,,,,,,,,,,,,,,,,,,,,,,,,,,,,,,,,,,,,,,,,,,,,,,,,,,,,,,,,,,,,,,,,restaurant,,,,POINT (77.4986893 12.9250272)
Mount Senora School,other,13.0055371,77.5254587,osm,,,,,,,,school,,,,,,,,,,,,,,,,,,,,,,,,,,,,,,,,,,,,,,,,,,,,,,,,,,,,,,,,,,,,,,,,,,,,,,,,,,,,,,,,,,,,,,,,,,,,,,,,,,,,,,,,,,,,,,,,,,,,,,,,,,,,,,,,,,,,,,,,,,,,,,,,,,,,,,,,,,,,,,,,,,,,,,,other,,,,POINT (77.5254587 13.0055371)
"Vasan Eye Care Hospital, Nagarabhavi",other,12.9746134,77.5129757,osm,,Bengaluru Urban,"No-5, 20 Th Cross, Malagala Under Pass Ring Road",,560091,Karnataka,,hospital,,,ವಿಜಯ ನೇತ್ರಾಲಯ,private,,http://www.vasaneye.in/,,,,,,,,,,,,,,,,,,,,,,,,,,,,,,,,,,,,,,,,,,,,,,,,,,,,Nagarbhavi,,,,,,,,,,,,,,,,,,,,,,,,,,,,,,,,,,,,,,,,,,,,,,,,,,,,,,,,,,,,,,,,,,,,,,,,,,,,,,,,,,,,,,,,,,,,,,,,,,,,,,,,,,,,,other,,,,POINT (77.5129757 12.9746134)
Bangalore Blaze Girls High School,other,12.9582352,77.517911,osm,,,,,,,,school,,,,,,,,,,,,,,,,,,,,,,,,,,,,,,,,,,,,,,,,,,,,,,,,,,,,,,,,,,,,,,,,,,,,,,,,,,,,,,,,,,,,,,,,,,,,,,,,,,,,,,,,,,,,,,,,,,,,,,,,,,,,,,,,,,,,,,,,,,,,,,,,,,,,,,,,,,,,,,,,,,,,,,,other,,,,POINT (77.517911 12.9582352)
Vice Chancellor's Lodge,other,12.9377048,77.50855,osm,,,,,,,,school,,,,,,,,,,,,,,,,,,,,,,,,,,,,,,,,,,,,,,,,,,,,,,,,,,,,,,,,,,,,,,,,,,,,,,,,,,,,,,,,,,,,,,,,,,,,,,,,,,,,,,,,,,,,,,,,,,,,,,,,,,,,,,,,,,,,,,,,,,,,,,,,,,,,,,,,,,,,,,,,,,,,,,,other,,,,POINT (77.50855 12.9377048)
The Club,restaurant,12.9368003,77.5169615,osm,,,,,,,,restaurant,,,ದಿ ಕ್ಲಬ್,,,,,,,,,,,,,,,,,,,,,,,,,,,,,,,,,,,,,,,,,,,,,,,,,,,,,,,,,,,,,,,,,,,,,,,,,,,,,,,,,,,,,,,,,,,,,,,,,,,,,,,,,,,,,,,,,,,,,,,,,,,,,,,,,,,,,,,,,,,,,,,,,,,,,,,,,,,,,,,,,,,,restaurant,,,,POINT (77.5169615 12.9368003)
KFC,fast_food,12.9360631,77.5177447,osm,,,,,,,,fast_food,,,,,,,,KFC,Q524757,en:KFC,,,,,,,chicken,,,,,,,,,,,,,KFC,,,,,,,KFC,केएफसी,,ਕੇਐਫਸੀ,کے ایف سی,کے ایف سی,ਕੇਐਫਸੀ,केएफसी,ਕੇਐਫਸੀ,کے ایف سی,کے ایف سی,,Kentucky Fried Chicken,Kentucky Fried Chicken,केंटुकी फ्राइड चिकन,ਕੈਂਟੁਕੀ ਫ੍ਰਾਈਡ ਚਿਕਨ,کینٹکی فرائیڈ چکن,کینٹکی فرائیڈ چکن,کینٹکی فرائیڈ چکن,yes,yes,,yes,yes,no,no,,,,,,,,,,,,,,,,,,,,,,,,,,,,,,,,,,,,,,,,,,,,,,,,,,,,,,,,,,,,,,,,,,,,,,,,,,,,,,,,,,,,,,,,,,,,,,,,,,,,,,,,,restaurant,,,,POINT (77.5177447 12.9360631)
McDonald's,fast_food,12.9360526,77.5179485,osm,,,,,,,,fast_food,,,,,,,,McDonald's,Q38076,en:McDonald's,,,,,,,burger,,,,,,,,,,,,,,,,,,,,,,,ਮੈਕਡੋਨਲਡ’ਜ਼,,مکڈونلڈز,ਮੈਕਡੋਨਲਡ’ਜ਼,,ਮੈਕਡੋਨਲਡ’ਜ਼,,مکڈونلڈز,,,,,,,,مکڈونلڈز,yes,yes,,yes,yes,no,no,,,,,,,,,,,,,,,,,,,,,,,,,,,,,,,,,,,,,,,,,,,,,,,,,,,,,,,,,,,,,,,,,,,,,,,,,,,,,,,,,,,,,,,,,,,,,,,,,,,,,,,,,restaurant,,,,POINT (77.5179485 12.9360526)
Star Bazaar,supermarket,12.9358801,77.5176749,osm,Bengaluru,,,,,,Bangalore-Mysore Road,,,,,,,https://www.spencers.in/,,Star Bazaar,Q124175958,,,supermarket,,,,,,,,,,,,,,,,,,,,,,yes,,,,,,,,,,,,,,,,,,,,,,,,,,,,,,,,,,,,,,,,,,,,,,,,,,,,,,,,,,,,,,,,,,,,,,,,,,,,,,,,,,,,,,,,,,,,,,,,,,,,,,,,,,,,,,,,,,,,,,,,,,,,,,,,,,,,,retail,,,,POINT (77.5176749 12.9358801)
ICICI Bank,bank,12.9312478,77.5154648,osm,,,,,,,,bank,,,ಐಸಿಐಸಿಐ ಬ್ಯಾಂಕು,,,https://www.icicibank.com,,ICICI Bank,Q1653258,,,,,,,,,,,,,,,,,,,,yes,ICICI Bank,ICICI,,,,,,,,,,,,,,,,,,,,,,,,,,,,,,,,,,,,,,,,,,,,,,,,,,,,,,,,,,,,,,,,,,,,,,,,,,,,,,,,,,,,,,,,,,,,,,,,,,,,,,,,,,,,,,,,,,,,,,,,,,,,,,,,,,,,,,,,finance,,,,POINT (77.5154648 12.9312478)
Rc Hospital,other,12.930936,77.5153776,osm,,Bengaluru Urban,"No. 484/A, Ideal Homes Township, 18th Main Road, Rajarajeshwarinagar",,560098,Karnataka,,hospital,,,,,,,,,,,,,,,,,,,,,,,,,,,,,,,,,,,,,,,,,,,,,,,,,,,,,,,,,,,,,,,,,,,,,,,,,,,,,,,,,,,,,,,,,,,,,,,,,,,,,,,,,,,,,,,,,,,,,,,,,,,,,,,,,,,,,,,,,,,,,,,,,,,,,,,,,,,,,,,,,,,,,,,other,,,,POINT (77.5153776 12.930936)
Trust,pharmacy,12.9309289,77.5154272,osm,,,,,,,,pharmacy,,,,,,,,,,,,,,,,,,,,,,,,,,,,,,,,,,,,,,,,,,,,,,,,,,,,,,,,,,,,,,,yes,,,,,,,,,,,,,,,,,,,,,,,,,,,,,,,,,,,,,,,,,,,,,,,,,,,,,,,,,,,,,,,,,,,,,,,,,,,,,,,,,,,,,,,,,,,,,,,,,,,,,,,,healthcare,,,,POINT (77.5154272 12.9309289)
Veturi Child Health Centre,other,12.9263226,77.5156579,osm,,,,,,,,hospital,,,,,,,,,,,,,,,,,,,,,,,,,,,,,,,,,,,,,,,,,,,,,,,,,,,,,,,,,,,,,,,,,,,,,,,,,,,,,,,,,,,,,,,,,,,,,,,,,,,,,,,,,,,,,,,,,,,,,,,,,,,,,,,,,,,,,,,,,,,,,,,,,,,,,,,,,,,,,,,,,,,,,,,other,,,,POINT (77.5156579 12.9263226)
Bramhi Aahaara,fast_food,12.9217044,77.5204162,osm,,,,,,,,fast_food,,,,,,,,,,,,,,,,,regional,,,,,,,,,,,,,,,,,,,,,,,,,,,,,,,,,,,,,,,,,,,,,,,,,,,,,,,,,,,,,,,,,,,,,,,,,,,,,,,,,,,,,,,,,,,,,,,,,,,,,,,,,,,,,,,,,,,,,,,,,,,,,,,,,,,,,,,,,,,,,,,,,,,,,,restaurant,,,,POINT (77.5204162 12.9217044)
Dragons,restaurant,12.9414203,77.553445,osm,,,,,560050,,,restaurant,,,ಡ್ರಾಗನ್ಸ್,,,,,,,,,,,,,,,,,,,,,,,,,,,,,,,,,,,,,,,,,,,,,,,,,,,,,,,,,,,,,,,,,,,,,,,,,,,,,,,,,,,,,,,,,,,,,,,,,,,,,,,,,,,,,,,,,,,,,,,,,,,,,,,,,,,,,,,,,,,,,,,,,,,,,,,,,,,,,,,,,,,,restaurant,,,,POINT (77.553445 12.9414203)
Bank of India,bank,12.9257438,77.5498097,osm,,,,,,,,bank,,,ಬ್ಯಾಂಕ್ ಅಫ್ ಇಂಡಿಯ,,,,,Bank of India,Q2004439,,Bank of India,,,,,,,,,,,,,,,,,,yes,,,,,,,,,,,,,,,,,,,,,,,,,,,,,,,,,,,,,,,,,,,,,,,,,,,,,,,,,,,,,,,,,,,,,,,,,,,,,,,,,,,,,,,,,,,,,,,,,,,,,,,,,,,,,,,,,,,,,,,,,,,,,,,,,,,,,,,,,,finance,,,,POINT (77.5498097 12.9257438)
State Bank of India,bank,12.9296755,77.5519983,osm,,,,,,,,bank,,,ಭಾರತೀಯ ಸ್ಟೇಟ್ ಬ್ಯಾಂಕ್,,,https://www.sbi.co.in,,State Bank of India,Q1340361,en:State Bank of India,,,,,,,,,,,,,,,,,,,yes,,SBI,,,,,,,,,,,,,,,,,,,,,,,,,,,,,,,,,,,,,,,,,,,,,,,,,,,,,,,,,,,,,,,,,,,,,,,,,,,,,,,,,,,,,,,,,,,,,,,,,,,,,,,,,,,,,,,,,,,,,,,,,,,,,,,,,,,,,,,,finance,,,,POINT (77.5519983 12.9296755)
St Theresa Pharmacy,pharmacy,13.0061311,77.5536439,osm,,,,,,,,pharmacy,,,,,,,,,,,,,,,,,,,,,,,,,,,,,,,,,,,,,,,,,,,,,,,,,,,,,,,,,,,,,,,yes,,,,,,,,,,,,,,,,,,,,,,,,,,,,,,,,,,,,,,,,,,,,,,,,,,,,,,,,,,,,,,,,,,,,,,,,,,,,,,,,,,,,,,,,,,,,,,,,,,,,,,,,healthcare,,,,POINT (77.5536439 13.0061311)
Udhbhava Hospital,other,12.9256842,77.5489346,osm,,Bengaluru Urban,"No:114, 100 Feet Ring Road, 3Road Stage Banashankari",,560085,Karnataka,,hospital,,,ಉದ್ಭವ ಆಸ್ಪತ್ರೆ,,,,,,,,,,,,,,,,,,,,,,,,,,,,,yes,,,,,,,,,,,,,,,,,,,,,,,,,,,,,,,,,,,,,,,,,,,,,,,,,,,,,,,,,,,,,,,,,,,,,,,,,,,,,,,,,,,,,,,,,,,,,,,,,,,,,,,,,,,,,,,,,,,,,,,,,,,,,,,,,,,,,,,other,,,,POINT (77.5489346 12.9256842)
Cafe Coffee Day,cafe,12.9973265,77.5403657,osm,,,,,,,,cafe,,,ಕಫೆ ಕಾಫಿ ಡೇ,,,,,Cafe Coffee Day,Q5017235,,Cafe Coffee Day,,,,,,coffee_shop,,,,,,,,,,,,,,,,,,,,,,,,,,,,,,,,,,,,,,,yes,,,,,,,,,,,,,,,,,,,,,,,,,,,,,,,,,,,,,,,,,,,,,,,,,,,,,,,,,,,,,,,,,,,,,,,,,,,,,,,,,,,,,,,,,,,,,,,,,,,,,,,,,,,,,,,cafe,,,,POINT (77.5403657 12.9973265)
New Shanti Sagar,restaurant,12.988545,77.5377868,osm,,,,,,,,restaurant,,,ನ್ಯೂ ಶಾರದ,,,,,,,,,,,,,,,,,,,,,,,,,,,,,,,,,,,,,,,,,,,,,,,,,,,,,,,,,,,,,,,,,,,,,,,,,,,,,,,,,,,,,,,,,,,,,,,,,,,,,,,,,,,,,,,,,,,,,,,,,,,,,,,,,,,,,,,,,,,,,,,,,,,,,,,,,,,,,,,,,,,,restaurant,,,,POINT (77.5377868 12.988545)
New Sagar Fast Food,fast_food,13.0042469,77.550715,osm,,,,,,,,fast_food,,,,,,,,,,,,,,,,,,,,,,,,,,,,,,,,,,,,,,,,,,,,,,,,,,,,,,,,,,,,,,,,,,,,,,,,,,,,,,,,,,,,,,,,,,,,,,,,,,,,,,,,,,,,,,,,,,,,,,,,,,,,,,,,,,,,,,,,,,,,,,,,,,,,,,,,,,,,,,,,,,,,,,,restaurant,,,,POINT (77.550715 13.0042469)
Canara Bank,bank,12.940921,77.5457658,osm,,,,,560085,,80 feet road girinagar,bank,,,ಕೆನರಾ ಬ್ಯಾಂಕ್,,,https://www.canarabank.com/,,Canara Bank,Q2003777,en:Canara Bank,,,,,,,,,,,,,,,,,,,yes,,,,,,,,,,,ਕੇਨਰਾ ਬੈਂਕ,,کینرا بینک,ਕੇਨਰਾ ਬੈਂਕ,,ਕੇਨਰਾ ਬੈਂਕ,,کینرا بینک,,,,,,,,,,,,,,,,,,,,,,,,,,,,,,,,,,,,,,,,,,,,,,,,,,,,,,,,,,,,,,,,,,,,,,,,,,,,,,,,,,,,,,,,,,,,,,,,,,,,,,,,,,,,,,,,,,,,,,,,finance,,,,POINT (77.5457658 12.940921)
HDFC Bank Girinagar,bank,12.9405681,77.5459187,osm,,,,,560085,,80 feet road girinagar,bank,,,,,,,,,,,,,,,,,,,,,,,,,,,,,yes,,,,,,,,,,,,,,,,,,,,,,,,,,,,,,,,,,,,,,,,,,,,,,,,,,,,,,,,,,,,,,,,,,,,,,,,,,,,,,,,,,,,,,,,,,,,,,,,,,,,,,,,,,,,,,,,,,,,,,,,,,,,,,,,,,,,,,,,,,finance,,,,POINT (77.5459187 12.9405681)
State Bank of India,bank,12.9366883,77.5488033,osm,,,,,,,,bank,,,ಭಾರತೀಯ ಸ್ಟೇಟ್ ಬ್ಯಾಂಕ್,,,,,State Bank of India,Q1340361,,,,,,,,,,,,,,,,,,,,yes,,SBI,,,,,,,,,,,,,,,,,,,,,,,,,,,,,,,,,,,,,,,,,,,,,,,,,,,,,,,,,,,,,,,,,,,,,,,,,,,,,,,,,,,,,,,,,,,,,,,,,,,,,,,,,,,,,,,,,,,,,,,,,,,,,,,,,,,,,,,,finance,,,,POINT (77.5488033 12.9366883)
Shanti Sagar Hotel,fast_food,12.9970293,77.5539717,osm,,,,,,,,fast_food,,,,,,,no,,,,,,,,,,,,,,,,,,,,,,,,,,,,,,,,,,,,,,,,,,,,,,,,,,,,,,,,,,,,,,,,,,,,,,,,,,,,,,,,,,,,,,,,,,,,,,,,,,,,,,,,,,,,,,,,,,,,,,,,,,,,,,,,,,,,,,,,,,,,,,,,,,,,,,,,,,,,,,,,restaurant,,,,POINT (77.5539717 12.9970293)
Balaji Medical Store,pharmacy,13.0078494,77.5473216,osm,,,,,,,,pharmacy,,,,,,,no,,,,,,,,,,,,,,,,,,,,,,,,,,,,,,,,,,,,,,,,,,,,,,,,,,,,,,,,,,,,,,,,,,,,,,,,,,,,,,,,,,,,,,,,,,,,,,,,,,,,,,,,,,,,,,,,,,,,,,,,,,,,,,,,,,,,,,,,,,,,,,,,,,,,,,,,,,,,,,,,healthcare,,,,POINT (77.5473216 13.0078494)
Suprabha Hospital,other,13.0079383,77.5469059,osm,,,,,,,,hospital,,,,,,,yes,,,,,,,,,,,,,,,,,,,,,,,,,,,,,,,,,,,,,,,,,,,,,,,,,,,,,,,,,,,,,,,,,,,,,,,,,,,,,,,,,,,,,,,,,,,,,,,,,,,,,,,,,,,,,,,,,,,,,,,,,,,,,,,,,,,,,,,,,,,,,,,,,,,,,,,,,,,,,,,,other,,,,POINT (77.5469059 13.0079383)
Mahalakshmi Refreshments,cafe,13.0080794,77.5469863,osm,,,,,,,,cafe,,,,,,,,,,,,,,,,,,,,,,,,,,,,,,,,,,,,,,,,,,,,,,,,,,,,,,,,,,,,,,,,,,,,,,,,,,,,,,,,,,,,,,,,,,,,,,,,,,,,,,,,,,,,,,,,,,,,,,,,,,,,,,,,,,,,,,,,,,,,,,,,,,,,,,,,,,,,,,,,,,,,,,,cafe,,,,POINT (77.5469863 13.0080794)
Sri Dhanvantri Ayurved Bhandara,pharmacy,13.0082414,77.5468871,osm,,,,,,,,pharmacy,,,,,,,,,,,,,,,,,,,,,,,,,,,,,,,,,,,,,,,,,,,,,,,,,,,,,,,,,,,,,,,,,,,,,,,,,,,,,,,,,,,,,,,,,,,,,,,,,,,,,,,,,,,,,,,,,,,,,,,,,,,,,,,,,,,,,,,,,,,,,,,,,,,,,,,,,,,,,,,,,,,,,,,healthcare,,,,POINT (77.5468871 13.0082414)
Sangolli Nursing Home,other,13.0083564,77.5469273,osm,,,,,,,,hospital,,,,,,,,,,,,,,,,,,,,,,,,,,,,,,,,,,,,,,,,,,,,,,,,,,,,,,,,,,,,,,,,,,,,,,,,,,,,,,,,,,,,,,,,,,,,,,,,,,,,,,,,,,,,,,,,,,,,,,,,,,,,,,,,,,,,,,,,,,,,,,,,,,,,,,,,,,,,,,,,,,,,,,,other,,,,POINT (77.5469273 13.0083564)
Reliance Fresh,supermarket,13.0085603,77.5433815,osm,,,,,,,,,,,ರಿಲಾಯನ್ಸ್ ಫ್ರೆಶ್,,,,no,Reliance Fresh,Q7311014,,,supermarket,,,,,,,,,,,,,,,,,,,,,,,,,,,,,,,,,,,,,,,,,,,,,,,,,,,,,,,,,,,,,,,,,,,,,,,,,,,,,,,,,,,,,,,,,,,,,,,,,,,,,,,,,,,,,,,,,,,,,,,,,,,,,,,,,,,,,,,,,,,,,,,,,,,,,,,,,,,retail,,,,POINT (77.5433815 13.0085603)
Corporation Bank,bank,13.0087092,77.5433895,osm,,,,,,,,bank,,,ಕಾರ್ಪರೇಷನ್ ಬ್ಯಾಂಕ್,,,https://corpbank.com/,no,Corporation Bank,Q2003387,en:Corporation Bank,,,,,,,,,,,,,,,,,,,,Corporation Bank,,,,,,,,,,,,,,,,,,,,,,,,,,,,,,,,,,,,,,,,,,,,,,,,,,,,,,,,,,,,,,,,,,,,,,,,,,,,,,,,,,,,,,,,,,,,,,,,,,,,,,,,,,,,,,,,,,,,,,,,,,,,,,,,,,,,,,,,,finance,,,,POINT (77.5433895 13.0087092)
Diacon Hospital,other,13.0037682,77.5498337,osm,,Bengaluru Urban,"359 / 360, 19Th Main 1 St Block Rajajinagar Near Indian Bank",,560010,Karnataka,,hospital,,,,,,,yes,,,,,,,hospital,,,,,,,,,,,,,,,,,,,,,,,,,,,,,,,,,,,,,,,,,,,,,,,,,,,,,,,,,,,,,,,,,,,,,,,,,,,,,,,,,,,,,,,,,,,,,,,,,,,,,,,,,,,,,,,,,,,,,,,,,,,,,,,,,,,,,,,,,,,,,,,,,,,,,,,,,other,,,,POINT (77.5498337 13.0037682)
Cafe 363,cafe,13.0034363,77.5499517,osm,Bengaluru,,,363,560010,,19th Main Road,cafe,,,,,,https://www.cafe363.in/,,,,,,,,,,,,,,,,,,,,,,,,,,,,,,,,,,,,,,,,,,,,,,,,,,,,,,,,,,IN,Rajajinagar,,,,,,,,,,,,,,,,,,,,,,,,,,,,,,,,,,,,,,,,,,,,,,,,,,,,,,,,,,,,,,,,,,,,,,,,,,,,,,,,,,,,,,,,,,,,,,,,,,,,,,cafe,,,,POINT (77.5499517 13.0034363)
Cake Palace,bakery,13.0042683,77.5512142,osm,,,,,,,,,,,ಕೇಕ್ ಪ್ಯಾಲೇಸ್,,,,,,,,,bakery,,,,,,,,,,,,,,,,,,,,,,,,,,,,,,,,,,,,,,,,,,,,,,,,,,,,,,,,,,,,,,,,,,,,,,,,,,,,,,,,,,,,,,,,,,,,,,,,,,,,,,,,,,,,,,,,,,,,,,,,,,,,,,,,,,,,,,,,,,,,,,,,,,,,,,,,,,,other,,,,POINT (77.5512142 13.0042683)
Nandhini,restaurant,12.9253564,77.5496136,osm,,,,,,,,restaurant,,,ನಂದಿನಿ,,,,,,,,,,,,,,indian,,,,,,,,,,,,,,,,,,,,,,,,,,,,,,,,,,,,,,,,,,,,,,,,,,,,,,,,,,,,,,,,,,,,,,,,,,,,,,,,,,,,,,,,,,,,,,,,,,,,,,,,,,,,,,,,,,,,,,,,,,,,,,,,,,,,,,,,,,,,,,,,,,,,,,restaurant,,,,POINT (77.5496136 12.9253564)
Pizza Hut,restaurant,12.9251321,77.5507224,osm,,,,,,,,restaurant,,,ಪಿಟ್ಸ ಹಟ್,,,,,Pizza Hut,Q191615,,,,,,,,pizza,,,,,,,,,,,,,,,,,,,,,,,,,,,,,,,,,,,,,,,,,,,,,,,,,,,,,,,,,,,,,,,,,,,,,,,,,,,,,,,,,,,,,,,,,,,,,,,,,,,,,,,,,,,,,,,,,,,,,,,,,,,,,,,,,,,,,,,,,,,,,,,,,,,,,,restaurant,,,,POINT (77.5507224 12.9251321)
Gangasagar Chats,fast_food,12.9872341,77.549974,osm,,,,,,,,fast_food,,,,,,,no,,,,,,,,,,,,,,,,,,,,,,,,,,,,,,,,,,,,,,,,,,,,,,,,,,,,,,,,,,,,,,,,,,,,,,,,,,,,,,,,,,,,,,,,,,,,,,,,,,,,,,,,,,,,,,,,,,,,,,,,,,,,,,,,,,,,,,,,,,,,,,,,,,,,,,,,,,,,,,,,restaurant,,,,POINT (77.549974 12.9872341)
Unknown,cafe,12.9880757,77.5496789,osm,,,,,,,,cafe,,,,,,,no,,,,,,,,,,,,,,,,,,,,,,,,,,,,,,,,,,,,,,,,,,,,,,,,,,,,,,,,,,,,,,,,,,,,,,,,,,,,,,,,,,,,,,,,,,,,,,,,,,,,,,,,,,,,,,,,,,,,,,,,,,,,,,,,,,,,,,,,,,,,,,,,,,,,,,,,,,,,,,,,cafe,,,,POINT (77.5496789 12.9880757)
Little Lilly's English School,other,13.0092391,77.5478152,osm,,,,,,,,school,,,,,,,,,,,,,,,,,,,,,,,,,,,,,,,,,,,,,,,,,,,,,,,,,,,,,,,,,,,,,,,,,,,,,,,,,,,,,,,,,,,,,,,,,,,,,,,,,,,,,,,,,,,,,,,,,,,,,,,,,,,,,,,,,,,,,,,,,,,,,,,,,,,,,,,,,,,,,,,,,,,,,,,other,,,,POINT (77.5478152 13.0092391)
Namratha Hospital,other,13.0047859,77.543073,osm,,,,,,,,hospital,,,ನಮ್ರತ ಆಸ್ಪತ್ರೆ,,,,,,,,,,,,,,,,,,,,,,,,,,,,,,,,,,,,,,,,,,,,,,,,,,,,,,,,,,,,,,,,,,,,,,,,,,,,,,,,,,,,,,,,,,,,,,,,,,,,,,,,,,,,,,,,,,,,,,,,,,,,,,,,,,,,,,,,,,,,,,,,,,,,,,,,,,,,,,,,,,,,other,,,,POINT (77.543073 13.0047859)
Cane Crush,restaurant,13.0039772,77.5509235,osm,,,,,,,,restaurant,,,ಕೇನ್ ಕ್ರಶ್,,,,,,,,,,,,,,,,,,,,,,,,,,,,,,,,,,,,,,,,,,,,,,,,,,,,,,,,,,,,,,,,,,,,,,,,,,,,,,,,,,,,,,,,,,,,,,,,,,,,,,,,,,,,,,,,,,,,,,,,,,,,,,,,,,,,,,,,,,,,,,,,,,,,,,,,,,,,,,,,,,,,restaurant,,,,POINT (77.5509235 13.0039772)
Sri Vani Education Society,other,13.0037708,77.5547591,osm,,,,,,,,school,,,,,,,,,,,,,,,,,,,,,,,,,,,,,,,,,,,,,,,,,,,,,,,,,,,,,,,,,,,,,,,,,,,,,,,,,,,,,,,,,,,,,,,,,,,,,,,,,,,,,,,,,,,,,,,,,,,,,,,,,,,,,,,,,,,,,,,,,,,,,,,,,,,,,,,,,,,,,,,,,,,,,,,other,,,,POINT (77.5547591 13.0037708)
Cake of the day,bakery,12.9232307,77.5547094,osm,,,,,,,,,,,,,,,,,,,,bakery,,,,,,,,,,,,,,,,,,,,,,,,,,,,,,,,,,,,,,,,,,,,,,,,,,,,,,,,,,,,,,,,,,,,,,,,,,,,,,,,,,,,,,,,,,,,,,,,,,,,,,,,,,,,,,,,,,,,,,,,,,,,,,,,,,,,,,,,,,,,,,,,,,,,,,,,,,,other,,,,POINT (77.5547094 12.9232307)
Unknown,other,13.0004716,77.5346306,osm,,,,,,,,school,,,,,,,,,,,,,,,,,,,,,,,,,,,,,,,,,,,,,,,,,,,,,,,,,,,,,,,,,,,,,,,,,,,,,,,,,,,,,,,,,,,,,,,,,,,,,,,,,,,,,,,,,,,,,,,,,,,,,,,,,,,,,,,,,,,,,,,,,,,,,,,,,,,,,,,,,,,,,,,,,,,,,,,other,,,,POINT (77.5346306 13.0004716)
Mane Thindi,fast_food,12.9233352,77.5545915,osm,,,,,,,,fast_food,,,ಮನೆ ತಿಂಡಿ,,,,,,,,,,,,,,,,,,,,,,,,,,,,,,,,,,,,,,,,,,,,,,,,,,,,,,,,,,,,,,,,,,,,,,,,,,,,,,,,,,,,,,,,,,,,,,,,,,,,,,,,,,,,,,,,,,,,,,,,,,,,,,,,,,,,,,,,,,,,,,,,,,,,,,,,,,,,,,,,,,,,restaurant,,,,POINT (77.5545915 12.9233352)
Chung wah,restaurant,12.9251478,77.5507385,osm,,,,,,,,restaurant,,,ಚುಂಗ್ ವ,,,,,,,,,,,,,,chinese,,,,,,,,,,,,,,,,,,,,,,,,,,,,,,,,,,,,,,,,,,,,,,,,,,,,,,,,,,,,,,,,,,,,,,,,,,,,,,,,,,,,,,,,,,,,,,,,,,,,,,,,,,,,,,,,,,,,,,,,,,,,,,,,,,,,,,,,,,,,,,,,,,,,,,restaurant,,,,POINT (77.5507385 12.9251478)
Punya Hospital,other,13.0011459,77.5359798,osm,,,,,,,,hospital,,,,,,,,,,,,,,hospital,,,,,,,,,,,,,,,,,,yes,,,,,,,,,,,,,,,,,,,,,,,,,,,,,,,,,,,,,,,,,,,,,,,,,,,,,,,,,,,,,,,,,,,,,,,,,,,,,,,,,,,,,,,,,,,,,,,,,,,,,,,,,,,,,,,,,,,,,,,,,,,,,,,,,,,,,,,other,,,,POINT (77.5359798 13.0011459)
Gautham College of Nursing,other,13.001119,77.5411129,osm,,,,,,,,school,,,,,,,,,,,,,,,,,,,,,,,,,,,,,,,,,,,,,,,,,,,,,,,,,,,,,,,,,,,,,,,,,,,,,,,,,,,,,,,,,,,,,,,,,,,,,,,,,,,,,,,,,,,,,,,,,,,,,,,,,,,,,,,,,,,,,,,,,,,,,,,,,,,,,,,,,,,,,,,,,,,,,,,other,,,,POINT (77.5411129 13.001119)
Hamsa Sagar,restaurant,13.00091,77.5412684,osm,,,,,,,,restaurant,,,ಹಂಸ ಸಾಗರ್,,,,,,,,,,,,,,,,,,,,,,,,,,,,,,,,,,,,,,,,,,,,,,,,,,,,,,,,,,,,,,,,,,,,,,,,,,,,,,,,,,,,,,,,,,,,,,,,,,,,,,,,,,,,,,,,,,,,,,,,,,,,,,,,,,,,,,,,,,,,,,,,,,,,,,,,,,,,,,,,,,,,restaurant,,,,POINT (77.5412684 13.00091)
Anupama English School,other,13.0000789,77.5409358,osm,,,,,,,,school,,,,,,,,,,,,,,,,,,,,,,,,,,,,,,,,,,,,,,,,,,,,,,,,,,,,,,,,,,,,,,,,,,,,,,,,,,,,,,,,,,,,,,,,,,,,,,,,,,,,,,,,,,,,,,,,,,,,,,,,,,,,,,,,,,,,,,,,,,,,,,,,,,,,,,,,,,,,,,,,,,,,,,,other,,,,POINT (77.5409358 13.0000789)
Swati Deluxe,restaurant,12.997825,77.5499844,osm,Bangalore,,,5,560010,,Modi Hospital Main Road,restaurant,,,ಸ್ವಾತಿ ಡಿಲಕ್ಸ್,,+(91)-80-23595565,,,,,,,,,,,,regional,,,,,,,,,,,"11:30-16:00,18:30-21:00",,,,,,,,,,,,,,,,,,,,,,,,,,,,,,,,,,,,,,yes,23597075,23498074,,,,,,,,,,,,,,,,,,,,,,,,,,,,,,,,,,,,,,,,,,,,,,,,,,,,,,,,,,,,,,,,,,,,,,,,,,,,,,,,,,,,,,,,,,,,,,,,,,,restaurant,,,,POINT (77.5499844 12.997825)
Sri Rama Medicals and General Stores,pharmacy,12.9971233,77.5512976,osm,,,,,,,,pharmacy,,,,,,,,,,,,,,pharmacy,,,,,,,,,,,,,,,,,,,,,,,,,,,,,,,,,,,,,,,,,,,,,,,,,,,,,,,,,,,,,,,,,,,,,,,,,,,,,,,,,,,,,,,,,,,,,,,,,,,,,,,,,,,,,,,,,,,,,,,,,,,,,,,,,,,,,,,,,,,,,,,,,,,,,,,,,healthcare,,,,POINT (77.5512976 12.9971233)
Fortis Hospital,other,13.0022409,77.5490879,osm,,Bengaluru Urban,"111, West Of Chord Road, Mahalakshmipuram, Rajajinagar I Block",,560086,Karnataka,,hospital,,,ಫೋರ್ಟಿಸ್ ಆಸ್ಪತ್ರೆ,,,,,,,,,,,hospital,,,,,,,,,,,,,,,,,,,,,,,,,,,,,,,,,,,"Fortis Hospitals Limited, Rajajinagar",,,,,,,,,,,,,,,,,,,,,,,,,,,,,,,,,,,,,,,,,,,,,,,,,,,,,,,,,,,,,,,,,,,,,,,,,,,,,,,,,,,,,,,,,,,,,,,,,,,,,,,,,,,,,,,,,,,,,,other,,,,POINT (77.5490879 13.0022409)
Gokul Vegetarian,restaurant,12.998275,77.550863,osm,Bangalore,,,399/34,560010,,19th Main (Goorur Ramaswamy Iyengar Road),restaurant,,,ಗೋಕುಲ್ ವೆಜಿಟೆರಿಯನ್,,+91 80 2342 3955,,no,,,,,,,,,,regional,,,,,,,,,,,11:00-22:30,,,,,,,,,,,,,,,,,,,,,Udipi Brahmin's Cafe,,,,,,,,only,,no,yes,no,no,,,,yes,+91 9741116699,,no,yes,yes,yes,,,,,,,,,,,,,,,,,,,,,,,,,,,,,,,,,,,,,,,,,,,,,,,,,,,,,,,,,,,,,,,,,,,,,,,,,,,,,,,,,,,,,,,,,,,,,,,restaurant,,,,POINT (77.550863 12.998275)
Health and Glow,supermarket,12.9963776,77.5514093,osm,Bangalore,,,156,560010,,19th Main (Goorur Ramaswamy Iyengar Road),,,,,,+(91)-80-32466651,,,,,,,supermarket,,,,,,,,,,,,,,,,,,,,,,,,,,,,,,,,,,,,,,,,,,,,,,,,,,,,,,,,,,,,,,,,,,,,,,,,,,,,,,,,,,,,,,,,,,,,,,,,,,,,,,,,,,,,,,,,,,,,,,,,,,,,,,,,,,,,,,,,,,,,,,,,,,,,,,,,,,,retail,,,,POINT (77.5514093 12.9963776)
Citi Hospital,other,12.9956506,77.5510696,osm,Bangalore,Bengaluru Urban,"25/91, Chord Road, Iind Block, Rajajinagar",25/91,560010,Karnataka,Chord Road,hospital,,,,,+(91)-80-23131778,,,,,,,,,,,,,,,,,,,,,,,24/7,,,,,,,,,,,,,,,,,,,,,,,,,,,,,,,,,,,,,,,23131777,23526910,,,,,,,,,,,,,,,,,,,,,,,,,,,,,,,,,,,,,,,,,,,,,,,,,,,,,,,,,,,,,,,,,,,,,,,,,,,,,,,,,,,,,,,,,,,,,,,,,,,other,,,,POINT (77.5510696 12.9956506)
"Vasan Eye Care Hospital, Rajaji Nagar",other,12.9995223,77.5505328,osm,Bengaluru,Bengaluru Urban,"Old 389, New 46, 19th Main, 1st Block, Rajaji Nagar",46,560010,Karnataka,19th Cross Road,hospital,,,,,,,no,,,,,,,hospital,,,,,,,,,,,,,,,,,,,,,,,,,,,,,,,,,,,,,,,,,,,,,,,,,,IN,,,,,,,,,Rajajinagar 1st Block,,,,,,,,,,,,,,,,,,,,,,,,,,,,,,,,,,,,,,,,,,,,,,,,,,,,,,,,,,,,,,,,,,,,,,,,,,,,,,,,,,,,,,,,,,,,,,other,,,,POINT (77.5505328 12.9995223)
Ananya Hospital,other,12.9998205,77.55045,osm,,Bengaluru Urban,"No.389/44, 19th Main, 1st Block, Rajajinagar",,560010,Karnataka,,hospital,,Cardiology;Cosmetology;Dermatology;Diabetology;Emergency Medicine;ENT;Gastroenterology;General Medicine;General Surgery;Internal Medicine;Laparoscopic Surgery;Medical Oncology;Nephrology;Obesity;Obstetricsand Gynaecology,ಅನನ್ಯ ಆಸ್ಪತ್ರೆ,private,,www.ananyahospital.org,,,,,,,,hospital,,,,,,,,,,,,,,,,,,,,,,,,,,,,,,,,,,,,,,,,,,,,,,,,,,,,,,,,,,,,enquiries@ananyahospital.org,080 23527411;09980783835,Allopathic,,,,,,,,,,,,,,,,,,,,,,,,,,,,,,,,,,,,,,,,,,,,,,,,,,,,,,,,,,,,,,,,,,,,,,,,,,,,,,,,,,,,,,,,,,,other,,,,POINT (77.55045 12.9998205)
Sree Nandini Palace Restaurant,restaurant,12.9872807,77.5494174,osm,,,,,,,,restaurant,,,ಶ್ರೀ ನಂದಿನಿ ಪ್ಯಾಲಸ್ ರೆಸ್ಟೋರೆಂಟ್,,,,,,,,,,,,,,,,,,,,,,,,,,,,,,,,,,,,,,,,,,,,,,,,,,,,,,,,,,,,,,,,,,,,,,,,,,,,,,,,,,,,,,,,,,,,,,,,,,,,,,,,,,,,,,,,,,,,,,,,,,,,,,,,,,,,,,,,,,,,,,,,,,,,,,,,,,,,,,,,,,,,restaurant,,,,POINT (77.5494174 12.9872807)
Canara Bank,bank,12.923688,77.5535473,osm,,,,,,,,bank,,,ಕೆನರಾ ಬ್ಯಾಂಕ್,,,https://www.canarabank.com/,,Canara Bank,Q2003777,en:Canara Bank,,,,,,,,,,,,,,,,,,,,Canara Bank,,,,,,,Canara Bank,केनरा बैंक,ಕೆನರಾ ಬ್ಯಾಂಕ್,ਕੇਨਰਾ ਬੈਂਕ,کینرا بینک,کینرا بینک,ਕੇਨਰਾ ਬੈਂਕ,केनरा बैंक,ਕੇਨਰਾ ਬੈਂਕ,کینرا بینک,کینرا بینک,,,,,,,,,,,,,,,,,,,,,,,,,,,,,,,,,,,,,,,,,,,,,,,,,,,,,,,,,,,,,,,,,,,,,,,,,,,,,,,,,,,,,,,,,,,,,,,,,,,,,,,,,,,,,,,,,,,,,,,,finance,,,,POINT (77.5535473 12.923688)
Axis Bank,bank,12.9236725,77.5536141,osm,,,,,,,,bank,,,ಆಕ್ಸಿಸ್ ಬ್ಯಾಂಕ್,,,,,Axis Bank,Q2003549,,ATM,,,,,,,,,,,,,,,,,,,,,,,,,,,,,,,,,,,,,,,,,,,,,,,,,,,,,,,,,,,,,,,,,,,,,,,,,,,,,,,,,,,,,,,,,,,,,,,,,,,,,,,,,,,,,,,,,,,,,,,,,,,,,,,,,,,,,,,,,,,,,,,,,,,,,,,,,,,,finance,,,,POINT (77.5536141 12.9236725)
Salon,convenience,12.923626,77.5538171,osm,,,,,,,,,,,,,,,,,,,,convenience,,,,,,,,,,,,,,,,,,,,,,,,,,,,,,,,,,,,,,,,,,,,,,,,,,,,,,,,,,,,,,,,,,,,,,,,,,,,,,,,,,,,,,,,,,,,,,,,,,,,,,,,,,,,,,,,,,,,,,,,,,,,,,,,,,,,,,,,,,,,,,,,,,,,,,,,,,,retail,,,,POINT (77.5538171 12.923626)
Iyangar Bakery,fast_food,12.9237619,77.5532989,osm,,,,,,,,fast_food,,,,,,,,,,,,,,,,,,,,,,,,,,,,,,,,,,,,,,,,,,,,,,,,,,,,,,,,,,,,,,,,,,,,,,,,,,,,,,,,,,,,,,,,,,,,,,,,,,,,,,,,,,,,,,,,,,,,,,,,,,,,,,,,,,,,,,,,,,,,,,,,,,,,,,,,,,,,,,,,,,,,,,,restaurant,,,,POINT (77.5532989 12.9237619)
Apollo Pharmacy,pharmacy,12.9240181,77.5533888,osm,,,,,,,,pharmacy,,,ಅಪೋಲೋ ಫಾರ್ಮಸಿ,,,,,Apollo Pharmacy,Q62562612,,,,,pharmacy,,,,,,,,,,,,,,,,,,,,,,,,,,,,,,,,,,,,,,,,,,,,,,,,,,,,,,,,,,,,,,,,,,,,,,,,,,,,,,,,,,,,,,,,,,,,,,,,,,,,,,,,,,,,,,,,,,,,,,,,,,,,,,,,,,,,,,,,,,,,,,,,,,,,,,,,,healthcare,,,,POINT (77.5533888 12.9240181)
Spectacles store,convenience,12.9240077,77.5534639,osm,,,,,,,,,,,,,,,,,,,,convenience,,,,,,,,,,,,,,,,,,,,,,,,,,,,,,,,,,,,,,,,,,,,,,,,,,,,,,,,,,,,,,,,,,,,,,,,,,,,,,,,,,,,,,,,,,,,,,,,,,,,,,,,,,,,,,,,,,,,,,,,,,,,,,,,,,,,,,,,,,,,,,,,,,,,,,,,,,,retail,,,,POINT (77.5534639 12.9240077)
State Bank of India,bank,12.978954,77.5493836,osm,,,,,,,,bank,,,ಭಾರತೀಯ ಸ್ಟೇಟ್ ಬ್ಯಾಂಕ್,,,https://www.sbi.co.in,,State Bank of India,Q1340361,en:State Bank of India,,,,,,,,,,,,,,,,,,,,,SBI,,,,,,,,,,,,,,,,,,,,,,,,,,,,,,,,,,,,,,,,,,,,,,,,,,,,,,,,,,,,,,,,,,,,,,,,,,,,,,,,,,,,,,,,,,,,,,,,,,,,,,,,,,,,,,,,,,,,,,,,,,,,,,,,,,,,,,,,finance,,,,POINT (77.5493836 12.978954)
Titan Eye+,convenience,12.9235841,77.5539351,osm,,,,,,,,,,,,,,,,,,,,convenience,,,,,,,,,,,,,,,,,,,,,,,,,,,,,,,,,,,,,,,,,,,,,,,,,,,,,,,,,,,,,,,,,,,,,,,,,,,,,,,,,,,,,,,,,,,,,,,,,,,,,,,,,,,,,,,,,,,,,,,,,,,,,,,,,,,,,,,,,,,,,,,,,,,,,,,,,,,retail,,,,POINT (77.5539351 12.9235841)
Goli Vada Pav,fast_food,12.9240913,77.553374,osm,,,,,,,,fast_food,,,,,,,,Goli Vada Pav,Q5580697,,,,,,,,indian,,,,,,,,,,,,,,,,,,,,,,,,,,,,,,,,Goli Vada Pav No.1,,,,,,,yes,,,,,,,,,,,,,,,,,,,,,,,,,,,,,,,,,,,,,,,,,,,,,,,,,,,,,,,,,,,,,,,,,,,,,,,,,,,,,,,,,,,,,,,,,,,,,,,,,,,,,,,,,,,,,,,restaurant,,,,POINT (77.553374 12.9240913)
Chroma Mega Store,convenience,12.9241697,77.552991,osm,,,,,,,,,,,,,,,,,,,,convenience,,,,,,,,,,,,,,,,,,,,,,,,,,,,,,,,,,,,,,,,,,,,,,,,,,,,,,,,,,,,,,,,,,,,,,,,,,,,,,,,,,,,,,,,,,,,,,,,,,,,,,,,,,,,,,,,,,,,,,,,,,,,,,,,,,,,,,,,,,,,,,,,,,,,,,,,,,,retail,,,,POINT (77.552991 12.9241697)
Shivakrupa Hospital,other,12.973967,77.5479135,osm,,,,,,,,hospital,,,ಶಿವಕೃಪ ಆಸ್ಪತ್ರೆ,,,,,,,,,,,,,,,,,,,,,,,,,,,,,,,,,,,,,,,,,,,,,,,,,,,,,,,,,,,,,,,,,,,,,,,,,,,,,,,,,,,,,,,,,,,,,,,,,,,,,,,,,,,,,,,,,,,,,,,,,,,,,,,,,,,,,,,,,,,,,,,,,,,,,,,,,,,,,,,,,,,,other,,,,POINT (77.5479135 12.973967)
Vasavi Polytechnic College,other,12.9737683,77.5442442,osm,,,,,,,,school,,,,,,,,,,,,,,,,,,,,,,,,,,,,,,,,,,,,,,,,,,,,,,,,,,,,,,,,,,,,,,,,,,,,,,,,,,,,,,,,,,,,,,,,,,,,,,,,,,,,,,,,,,,,,,,,,,,,,,,,,,,,,,,,,,,,,,,,,,,,,,,,,,,,,,,,,,,,,,,,,,,,,,,other,,,,POINT (77.5442442 12.9737683)
Domino's,fast_food,12.9249818,77.5512039,osm,,,,,,,,fast_food,,,,,,,,Domino's,Q839466,en:Domino's Pizza,,,,,,,pizza,,,,,,,,,,,,,,,,,,,,,,,ਡੋਮੀਨੋਜ਼,,ڈومینوز,,,ਡੋਮੀਨੋਜ਼,,ڈومینوز,,,,,,,,,yes,,,,,,,,,,,,,,,,,,,,,ڈومینوز,ڈومینوز,,,,,,,,,,,,,,,,,,,,,,,,,,,,,,,,,,,,,,,,,,,,,,,,,,,,,,,,,,,,,,,,,,,,,,,,,,,,,,,,,,,,,,,,,restaurant,,,,POINT (77.5512039 12.9249818)
Reebok Store,supermarket,12.9246981,77.5508112,osm,,,,,,,,,,,,,,,,,,,,supermarket,,,,,,,,,,,,,,,,,,,,,,,,,,,,,,,,,,,,,,,,,,,,,,,,,,,,,,,,,,,,,,,,,,,,,,,,,,,,,,,,,,,,,,,,,,,,,,,,,,,,,,,,,,,,,,,,,,,,,,,,,,,,,,,,,,,,,,,,,,,,,,,,,,,,,,,,,,,retail,,,,POINT (77.5508112 12.9246981)
Cafe Coffee Day,cafe,12.9258745,77.5501431,osm,,,,,,,,cafe,,,ಕಫೆ ಕಾಫಿ ಡೇ,,,,,Cafe Coffee Day,Q5017235,,,,,,,,coffee_shop,,,,,,,,,,,,,,,,,,,,,,,,,,,,,,,,,,,,,,,yes,,,,,,,,,,,,,,,,,,,,,,,,,,,,,,,,,,,,,,,,,,,,,,,,,,,,,,,,,,,,,,,,,,,,,,,,,,,,,,,,,,,,,,,,,,,,,,,,,,,,,,,,,,,,,,,cafe,,,,POINT (77.5501431 12.9258745)
Beijing Bites,fast_food,12.925817,77.550127,osm,,,,,,,,fast_food,,,ಬೀಜಿಂಗ್ ಬೈಟ್ಸ್,,,,,,,,,,,,,,,,,,,,,,,,,,,,,,,,,,,,,,,,,,,,,,,,,,,,,,,,,,,,,,,,,,,,,,,,,,,,,,,,,,,,,,,,,,,,,,,,,,,,,,,,,,,,,,,,,,,,,,,,,,,,,,,,,,,,,,,,,,,,,,,,,,,,,,,,,,,,,,,,,,,,restaurant,,,,POINT (77.550127 12.925817)
Mast Kalandar,fast_food,12.9260889,77.5504555,osm,,,,,,,,fast_food,,,ಮಸ್ತ್ ಕಲಂದರ್,,,,,,,,,,,,,,,,,,,,,,,,,,,,,,,,,,,,,,,,,,,,,,,,,,,,,,,,,,,,,,,,,,,,,,,,,,,,,,,,,,,,,,,,,,,,,,,,,,,,,,,,,,,,,,,,,,,,,,,,,,,,,,,,,,,,,,,,,,,,,,,,,,,,,,,,,,,,,,,,,,,,restaurant,,,,POINT (77.5504555 12.9260889)
ICICI Bank,bank,12.9706632,77.5368842,osm,,,,,,,,bank,,,ಐಸಿಐಸಿಐ,,,,,ICICI Bank,Q1653258,,,,,,,,,,,,,,,,,,,,,,ICICI,,,,,,,,,,,,,,,,,,,,,,,,,,,,,,,,,,,,,,,,,,,,,,,,,,,,,,,,,,,,,,,,,,,,,,,,,,,,,,,,,,,,,,,,,,,,,,,,,,,,,,,,,,,,,,,,,,,,,,,,,,,,,,,,,,,,,,,,finance,,,,POINT (77.5368842 12.9706632)
Shanti Sagar,restaurant,12.9734181,77.5419268,osm,,,,,,,,restaurant,,,ಶಾಂತಿ ಸಾಗರ್,,,,,,,,,,,,,,,,,,,,,,,,,,,,,,,,,,,,,,,,,,,,,,,,,,,,,,,,,,,,,,,,,,,,,,,,,,,,,,,,,,,,,,,,,,,,,,,,,,,,,,,,,,,,,,,,,,,,,,,,,,,,,,,,,,,,,,,,,,,,,,,,,,,,,,,,,,,,,,,,,,,,restaurant,,,,POINT (77.5419268 12.9734181)
Indraprastha,restaurant,12.9716571,77.537278,osm,,,,,,,,restaurant,,,ಇಂದ್ರಪ್ರಸ್ಥ,,,,limited,,,,,,,,,,,,,,,,,,,,,,,,,,,,,,,,,,,,,,,,,,,,,,,,,,yes,,,,yes,outside,,,,,,,,,,,,,,,,,2024-12-21,no,,,,,,,,,,,,,,,,,,,,,,,,,,,,,,,,,,,,,,,,,,,,,,,,,,,,,,,,,,,,,,,,,,,,,,,,,,,,,,,,,,,,,,,restaurant,,,,POINT (77.537278 12.9716571)
City Union Bank,bank,12.9686453,77.5362586,osm,,,,,,,,bank,,,,,,,,City Union Bank,Q2040264,,,,,,,,,,,,,,,,,,,,,City Union Bank,CUB,,,,,,City Union Bank,सिटी यूनियन बैंक,,,,سٹی یونین بینک,,सिटी यूनियन बैंक,,,سٹی یونین بینک,,,,,,,,,,,,,,,,,,,,,,,,,,,,,,,,,,سیتی یونیون بنک,सिटी युनियन बँक,சிட்டி யூனியன் வங்கி,https://www.cityunionbank.com,سیتی یونیون بنک,सिटी युनियन बँक,சிட்டி யூனியன் வங்கி,ਸੀ ਯੂ ਬੀ,سی یو بی,,,,,,,,,,,,,,,,,,,,,,,,,,,,,,,,,,,,,,,,,,,,,,,,,,,,,,,,,,,,,,,,,,,,,,,,,,,,,,finance,,,,POINT (77.5362586 12.9686453)
Federal Bank,bank,12.9684833,77.5361547,osm,,,,,,,,bank,,,ಫೆಡೆರಲ್ ಬ್ಯಾಂಕ್,,,https://www.federalbank.co.in,,Federal Bank,Q2044983,en:Federal Bank,,,,,,,,,,,,,,,,,,,,Federal Bank,,,,,,,,,,,,,,,,,,,,,,,,,,,,,,,,,,,,,,,,,,,,,,,,,2024-12-21,,,,,,,,,,,,,,,,,,,,,,,,,,,,,,,,,,,,,,,,,,,,,,,,,,,,,,,,,,,,,,,,,,,,,,,,,,,,,,,,,,,,,,,,finance,,,,POINT (77.5361547 12.9684833)
RNS Vidyaniketan School,other,12.9619713,77.5327333,osm,,,,,,,,school,,,,,,,,,,,,,,,,,,,,,,,,,,,,,,,,,,,,,,,,,,,,,,,,,,,,,,,,,,,,,,,,,,,,,,,,,,,,,,,2024-03-27,,,,,,,,,,,,,,,,,,,,,,,,,,,,,,,,,,,,,,,,,,,,,,,,,,,,,,,,,,,,,,,,,,,,,,,,,,,,,,,,,,,,,,,,other,,,,POINT (77.5327333 12.9619713)
Bharat Petrol Pump,fuel,12.9599025,77.5328566,osm,,,,,,,,fuel,,,,,,,,,,,,,,,,,,,,,,,,,,,,,,,,,,,,,,,,,,,,,,,,,,,,,,,,,,,,,,,,,,,,,,,,,,,,,,,2025-05-27,,,,,,,,,,,,,,,,,,,,,,,,,,,,,,,,,,,,,,,,,,,,,,,,,,,,,,,,,,,,,,,,,,,,,,,,,,,,,,,,,,,,,,,,other,,,,POINT (77.5328566 12.9599025)
KVV High School,other,12.9646688,77.5330893,osm,,,,,,,,school,,,,,,,,,,,,,,,,,,,,,,,,,,,,,,,,,,,,,,,,,,,,,,,,,,,,,,,,,,,,,,,,,,,,,,,,,,,,,,,,,,,,,,,,,,,,,,,,,,,,,,,,,,,,,,,,,,,,,,,,,,,,,,,,,,,,,,,,,,,,,,,,,,,,,,,,,,,,,,,,,,,,,,,other,,,,POINT (77.5330893 12.9646688)
Indian Oil Petrol Pump,fuel,12.9397172,77.5238766,osm,,,,,,,,fuel,,,ಇಂಡಿಯನ್ ಆಯಿಲ್,,,,,Indian Oil,Q1289348,en:Indian Oil Corporation,,,,,,,,,,,,,,,,,,,,,,,,,,,,,,,,,,,,,,,,,,,,,,,,,,,,,,,,,,,,,,,,,,,,,,,,,,,,,,,,,,,,,,,,,,,,,,,,,,,,,,,,,,,,,,,,,,,,,,,,,,,,,,,,,,,,,,,,,,,,,,,,,,,,,,,,,,,,,other,,,,POINT (77.5238766 12.9397172)
Shell,fuel,12.947907,77.5327064,osm,,,,,,,,fuel,,,,,,,,Shell,Q110716465,,,,,,,,,,,,,,,,,,,,,,,,,,,,,,,,,,,,,,,,,,,,,,,,,,,,,,,,,,,,,,,,,,,,,,,,,,,,,,,,,,,,,,,,,,,,,,,,,,,,,,,,,,,,,,,,,,,,,,,,,,,,,,,,,,,,,,,,,,,,,,,,,,,,,,,,,,,,,,other,,,,POINT (77.5327064 12.947907)
Axis Bank,bank,12.931206,77.5153867,osm,,,,,,,,bank,,,ಆಕ್ಸಿಸ್ ಬ್ಯಾಂಕ್,,,https://www.axisbank.com,,Axis Bank,Q2003549,en:Axis Bank,,,,,,,,,,,,,,,,,,,,Axis Bank,,,,,,,,,,,,,,,,,,,,,,,,,,,,,,,,,,,,,,,,,,,,,,,,,,,,,,,,,,,,,,,,,,,,,,,,,,,,,,,,,,,,,,,,,,,,,,,,,,,,,,,,,,,,,,,,,,,,,,,,,,,,,,,,,,,,,,,,,finance,,,,POINT (77.5153867 12.931206)
Sathkar Juice Centre,fast_food,12.9245212,77.4981445,osm,,,,,,,,fast_food,,,,,,,,,,,,,,,,,juice,,,,,,,,,,,,,,,,,,,,,,,,,,,,,,,,,,,,,,,,only,,,,,,,,,,,,,,,,,,,,,,,,,,,,,,,,,Juice Centre,,,,,,,,,,,,,,,,,,,,,,,,,,,,,,,,,,,,,,,,,,,,,,,,,,,,,,,,,,,,,,,,,,,,,,,,,,,,,restaurant,,,,POINT (77.4981445 12.9245212)
Ganga Sagar,fast_food,12.9672761,77.5422857,osm,,,,,,,,fast_food,,,,,,,,,,,,,,,,,,,,,,,,,,,,,,,,,,,,,,,,,,,,,,,,,,,,,,,,,,,,,,,,,,,,,,,,,,,,,,,,,,,,,,,,,,,,,,,,,,,,,,,,,,,,,,,,,,,,,,,,,,,,,,,,,,,,,,,,,,,,,,,,,,,,,,,,,,,,,,,,,,,,,,,restaurant,,,,POINT (77.5422857 12.9672761)
St. Johns High School,other,12.9655182,77.541311,osm,,,,,,,,school,,,,,,,limited,,,,,,,,,,,,,,,,,,,,,,,,,,,,,,,,,,,,,,,,,,,,,,,,,,,,,,,,,,,,,,,,,,,,,,,,,,,,,,,,,,,,,,,,,,,,,,,,,,,,,,,,,,,,,,,,,,,,,,,,,,,,,,,,,,,,,,,,,,,,,,,,,,,,,,,,,,,,,,,,other,,,,POINT (77.541311 12.9655182)
Devi Medicals,pharmacy,12.9674654,77.5413752,osm,,,,,,,,pharmacy,,,,,,,no,,,,,,,,,,,,,,,,,,,,,,,,,,,,,,,,,,,,,,,,,,,,,,,,,,,,,,,,,,,,,,,,,,,,,,,,,,,,,,,,,,,,,,,,,,,,,,,,,,,,,,,,,,,,,,,,,,,,,,,,,,,,,,,,,,,,,,,,,,,,,,,,,,,,,,,,,,,,,,,,healthcare,,,,POINT (77.5413752 12.9674654)
MK Ahmed Super Market,supermarket,12.9607559,77.5070056,osm,Bangalore,,,,560072,,Mallathahalli Road,,,,,,,https://www.mkretail.com/,,,,,,supermarket,,,,,,,,,,,,,,,,,,,,,,yes,,,,,,,,,,,,,,,,,,,,,,,,,,,,,,,,,,,,,,,,,,,,,,,,,,,,,,,,,,,,,,,,,,,,,,,,,,,,,,,,,,,,,,,,,,,,,,,,,,,,,,,,,,,,,,,,,,,,,,,,,,,,,,,,,,,,,retail,,,,POINT (77.5070056 12.9607559)
Shoprite,supermarket,12.9606694,77.5122249,osm,,,,,,,Nagarbhavi 80 Feet Road,,,,,,,,,,,,,supermarket,,,,,,,,,,,,,,,,,,,,,,,,,,,,,,,,,,,,,,,,,,,,,,,,,,,,,,,,,,,,,,,,,,,,,,,,,,,,,,,,,,,,,,,,,,,,,,,,,,,,,,,,,,,,,,,,,,,,,,,,,,,,,,,,,,,,,,,,,,,,,,,,,,,,,,,,,,,retail,,,,POINT (77.5122249 12.9606694)
Belliah Milk Booth,convenience,12.9398383,77.5451133,osm,,,,,,,,,,,,,,,,,,,,convenience,,,,,,,,,,,,,,,,,,,,,,,,,,,,,,,,,,,,,,,,,,,,,,,,,,,,,,,,,,,,,,,,,,,,,,,,,,,,,,,,,,,,,,,,,,,,,,,,,,,,,,,,,,,,,,,,,,,,,,,,,,,,,,,,,,,,,,,,,,,,,,,,,,,,,,,,,,,retail,,,,POINT (77.5451133 12.9398383)
MedPlus,pharmacy,12.9339016,77.5414815,osm,,,,,,,,pharmacy,,,,,,,,MedPlus,Q65684234,,,,,pharmacy,,,,,,,,,,,,,,"Mo-Su,PH 08:30-21:00",,,,,,,,,,,,,,,,,,,,,,,,,,,,,,,,,,,,,,,,,,,,,,,,,,,,,,,,,,,,,,,,,,,,,,,,,,,,,,,,,,,,,,,,,,,,,,,,,,,,,,,,,,,,,,,,,,,,,,,,,,,,,,,,,,,,,,,,,,,healthcare,,,,POINT (77.5414815 12.9339016)
Corporation Bank,bank,12.9371253,77.5585054,osm,,,,,,,,bank,,,ಕಾರ್ಪೋರೇಶನ್ ಬ್ಯಾಂಕ್,,,https://corpbank.com/,,Corporation Bank,Q2003387,en:Corporation Bank,,,,,,,,,,,,,,,,,,,yes,Corporation Bank,,,,,,,,,,,,,,,,,,,,,,,,,,,,,,,,,,,,,,,,,,,,,,,,,,,,,,,,,,,,,,,,,,,,,,,,,,,,,,,,,,,,,,,,,,,,,,,,,,,,,,,,,,,,,,,,,,,,,,,,,,,,,,,,,,,,,,,,,finance,,,,POINT (77.5585054 12.9371253)
Nisarga Andhra Style,restaurant,12.9683294,77.5380482,osm,,,,,,,,restaurant,,,ನಿಸರ್ಗ ಆಂಧ್ರಶೈಲಿ,,,,,,,,,,,,,,indian,,,,,,,,,,,,,,,,,,,,,,,,,,,,,,,,,,,,,,,,,,,,,,,,,,,,,,,,,,,,,,,,,,,,,,,,,,,,,,,,,,,,,,,,,,,,,,,,,,,,,,,,,,,,,,,,,,,,,,,,,,,,,,,,,,,,,,,,,,,,,,,,,,,,,,restaurant,,,,POINT (77.5380482 12.9683294)
Reliance Mart,supermarket,12.9659432,77.5347345,osm,,,,,560040,,,,,,,,,,no,,,,,supermarket,,,,,,,,,,,,,,,,,,,,,,,,Vijayanagar TTMC,,,,,,,,,,,,,,,,,,,,,,,,,,,,,,,,,,,,,,,,,,,,,,,,,,,,,,,,,,,,,,,,,,,,,,,,,,,,,,,,,,,,,,,,,,,,,,,,,,,,,,,,,,,,,,,,,,,,,,,,,,,,,,,,,,,retail,,,,POINT (77.5347345 12.9659432)
Gurushree Hitech Multispeciality Hospital,other,12.9593144,77.5265054,osm,,Bengaluru Urban,"No. 1558, Opposite Chandra Layout Bus Stand, Chandra Layout, Vijaynagar",,560048,Karnataka,,hospital,,,,,,,,,,,,,,,,,,,,,,,,,,,,,,,,yes,,,,,,,,,,,,,,,,,,,,,,,,,,,,,,,,,,,,,,,,,,,,,,,,,,,,,,,,,,Gurushree Multi speciality Hospital,,,,,,,,,,,,,,,,,,,,,,,,,,,,,,,,,,,,,,,,,,,,,,,,,,,,,,,,,,,,,,,,,,,,,,,,,,,,,other,,,,POINT (77.5265054 12.9593144)
Deewar Bar & Restaurant,restaurant,12.9583342,77.5259368,osm,,,,,,,,restaurant,,,ದೀವರ್ ಬಾರ್ & ರೆಸ್ಟೊರೆಂಟ್,,,,,,,,,,,,,,indian,,,,,,,,,,,,,,,,,,,,,,,,,,,,,,,,,,,,,,,,,,,,,,,,,,,,,,,,,,,,,,,,,,,,,,,,,,,,,,,,,,,,,,,,,,,,,,,,,,,,,,,,,,,,,,,,,,,,,,,,,,,,,,,,,,,,,,,,,,,,,,,,,,,,,,restaurant,,,,POINT (77.5259368 12.9583342)
Ron-Inn Bar & Restaurant,restaurant,12.9603129,77.513258,osm,,,,,,,,restaurant,,,ರೊ-ಇನ್ ಬಾರ್ & ರೆಸ್ಟೋರೆಂಟ್,,,,,,,,,,,,,,indian,,,,,,,,,,,,,,,,,,,,,,,,,,,,,,,,,,,,,,,,,,,,,,,,,,,,,,,,,,,,,,,,,,,,,,,,,,,,,,,,,,,,,,,,,,,,,,,,,,,,,,,,,,,,,,,,,,,,,,,,,,,,,,,,,,,,,,,,,,,,,,,,,,,,,,restaurant,,,,POINT (77.513258 12.9603129)
Nammura Tindi,fast_food,12.9606716,77.5125104,osm,,,,,,,,fast_food,,,,,,,,,,,,,,,,,regional,,,,,,,,,,,,,,,,,,,,,,,,,,,,,,,,Nammoora Thindi,,,,,,,,only,,,,,,,,,,,,,,,,,,,,,,,,,,,,,,,,,Darshini,,,,,,,,,,,,,,,,,,,,,,,,,,,,,,,,,,,,,,,,,,,,,,,,,,,,,,,,,,,,,,,,,,,,,,,,,,,,,restaurant,,,,POINT (77.5125104 12.9606716)
Petro / Gas  Station,fuel,12.9608906,77.5106429,osm,,,,,,,,fuel,,,,,,,,BP,,,,,,,,,,,,,,,,,,,,,,,,,,,,,,,,,,,,,,,,,,,,,,,,,,,,,,,,,,,,,,,,,,,,,,,,,,,,,,,,,,,,,,,,,,,,,,,,,,,,,,,,,,,,,,,,,,,,,,,,,,,,,,,,,,,,,,,,,,,,,,,,,,,,,,,,,,,,,,,other,,,,POINT (77.5106429 12.9608906)
Petrol Station,fuel,12.9570377,77.5026901,osm,,,,,,,,fuel,,,,,,,,HP,,,,,,,,,,,,,,,,,,,,,,,,,,,,,,,,,,,,,,,,,,,,,,,,,,,,,,,,,,,,,,,,,,,,,,,,,,,,,,,,,,,,,,,,,,,,,,,,,,,,,,,,,,,,,,,,,,,,,,,,,,,,,,,,,,,,,,,,,,,,,,,,,,,,,,,,,,,,,,,other,,,,POINT (77.5026901 12.9570377)
Ayodhya Food Line,fast_food,12.9760637,77.5315131,osm,,,,,,,Nagarbhavi Main Road,fast_food,,,,,,,,,,,,,,,,,,,,,,,,,,,,,,,,,,,,,,,,,,,,,,,,,,,,,,,,,,,,,,,,,,,,,,,,,,,,,,,,,,,,,,,,,,,,,,,,,,,,,,,,,,,,,,,,,,,,,,,,,,,,,,,,,,,,,,,,,,,,,,,,,,,,,,,,,,,,,,,,,,,,,,,restaurant,,,,POINT (77.5315131 12.9760637)
"Shobha Hospital, Bengaluru Urban",other,12.9755854,77.5313495,osm,,Bengaluru Urban,"29 And 30, Nagarbhavi Road, Opp To Prashanthnagar Bus Stop, Vijaynagar",,560040,Karnataka,,hospital,,,ಶೋಭಾ ಆಸ್ಪತ್ರೆ,,,,,,,,,,,,,,,,,,,,,,,,,,,,,no,,,,,,,,,,,,,,,,,,,,,,,,,,,,,,,,,,,,,,,,,,,,,,,,,,,,,,,,,,,,,,,,,,,,,,,,,,,,,,,,,,,,,,,,,,,,,,,,,,,,,,,,,,,,,,,,,,,,,,,,,,,,,,,,,,,,,,,other,,,,POINT (77.5313495 12.9755854)
Allahabad Bank,bank,12.9727782,77.5296785,osm,,,,,,,Nagarbhavi Main Road,bank,,,ಅಲ್ಲಹಾಬಾದ್ ಬ್ಯಾಂಕ್,,,https://www.allahabadbank.in,,Allahabad Bank,Q2018840,en:Allahabad Bank,,,,,,,,,,,,,,,,,,,no,Allahabad Bank,,,,,,,,,,,,,,,,,,,,,,,,,,,,,,,,,,,,,,,,,,,,,,,,,,,,,,,,,,,,,,,,,,,,,,,,,,,,,,,,,,,,,,,,,,,,,,,,,,,,,,,,,,,,,,,,,,,,,,,,,,,,,,,,,,,,,,,,,finance,,,,POINT (77.5296785 12.9727782)
Vasudev Adigas,restaurant,12.9809408,77.5354587,osm,,,,,,,Magadi Road,restaurant,,,ವಾಸುದೇವ್ ಅಡಿಗಾಸ್,,,,,,,,,,,,,,,,,,,,,,,,,,,,,,,,,Housing Board Bus Stop,,,,,,,,,,,,,,,,,,,,,only,,,,,,,,,,,,,,,,,,,,,,,,,,,,,,,,,,,,,,,,,,,,,,,,,,,,,,,,,,,,,,,,,,,,,,,,,,,,,,,,,,,,,,,,,,,,,,,,,,,,,,,,,,,,,,restaurant,,,,POINT (77.5354587 12.9809408)
"Gayathri Hospital, Bengaluru Urban",other,12.9744053,77.5426819,osm,,Bengaluru Urban,"# 91, Magadi Chord Road",,560040,Karnataka,,hospital,,,,private,,http://dpal.kar.nic.in/Kanunu%20padakosha%20PDF%20Files/Recognised%20Hospitals.pdf,no,,,,,,,,,,,,,,,,,,,,,,,,,yes,,,,,,,,,,,,,,,,,,,,,,,,,,,,,,,,,,,,,,,,,,,,,,,,,,,,,,,,,,Gayathri Nursing Home,,,,,,,,,,,,,,,,,,,,,,,,,,,,,,,,,,,,,,,,,,,,,,,,,,,,,,,,,,,,,,,,,,,,,,,,,,,,,other,,,,POINT (77.5426819 12.9744053)
HP Petrol Bunk,fuel,12.9771222,77.5466032,osm,,,,,,,,fuel,,,ಹಿಂದುಸ್ತಾನ್ ಪೆಟ್ರೋಲಿಯಂ,,,,yes,Hindustan Petroleum,Q1619375,,,,,,,,,,,,,,,,,,,,,,,,,,Hindustan Petroleum,,,,,,,,,,,,,,,,,,,,,,,,,,,,,,,,,,,,,,,,,,,,,,,,,,,,,,,,,,,,,,,,,,,,,,,,,,,,,,,,,,,,,,,,,,,,,,,,,,,,,,,,,,,,,,,,,,,,,,,,,,,,,,,,,,,,other,,,,POINT (77.5466032 12.9771222)
Shell Petrol Bunk,fuel,12.9793805,77.5420846,osm,,,,,,,,fuel,,,ಶೆಲ್,,,,yes,Shell,Q110716465,,Shell,,,,,,,,,,,yes,,,,no,,,,,,,,,,,,,,,,,,,,,,,,,,,,,,,,,,,,,,,,,,,,,,,,,,,,,,,,,,,,,,,,,yes,,,,,,,,,,,,,,,,,,,,,,,,,,,,,,,,,,,,,,,,,,,,,,,,,,,,,,,,,,,,,,,,,,,,,,,,,,,,other,,,,POINT (77.5420846 12.9793805)
Mysore Road Bus Station,bus_station,12.9534085,77.5435706,osm,,,,,,,,bus_station,,,ಮೈಸೂರು ರಸ್ತೆ ಬಸ್ ನಿಲ್ದಾಣ,,,,,,,,,,,,,,,,,,,,,,,,,,,,,,,,,,,,,,,,,,,,,,,,,,,,,,,,,,,,,,,,,,,,,,,,,,,,2024-04-05,,,,,,,,,,,,,,,,,,,,,,,,,,,,,,,,,,,,,,,,,,,,,,,,,,,,,,,,,,,,,,,,,,,,,,,,,,,,,,,,,,,,,,,,other,,,,POINT (77.5435706 12.9534085)
Mahila Co-operative Bank,bank,12.9416816,77.5555618,osm,,,,,,,Hanumantha Nagar Main Road,bank,,,,,,,,,,,,,,,,,,,,,,,,,,,,,no,,,,,,,,,,,,,,,,,,,,,,,,,,,,,,,,,,,,,,,,,,,,,,,,,,,,,,,,,,,,,,,,,,,,,,,,,,,,,,,,,,,,,,,,,,,,,,,,,,,,,,,,,,,,,,,,,,,,,,,,,,,,,,,,,,,,,,,,,,finance,,,,POINT (77.5555618 12.9416816)
Gnanabodhini English Pre-Primary School,other,12.9263122,77.4945152,osm,,,,,,,,school,,,ಜ್ಞಾನ ಬೋಧಿನಿ ಶಾಲೆ,,,,,,,,,,,,,,,,,,,,,,,,,,,,,,,,,,,,,,,,,,,,,,,,,,,,,,,,,,,,,,,,,,,,,,,,,,,,,,,,,,,,,,,,,,,,,,,,,,,,,,,,,,,,,,,,,,,,,,,,,,,,,,,,,,,,,,,,,,,,,,,,,,,,,,,,,,,,,,,,,,,,other,,,,POINT (77.4945152 12.9263122)
MEDSOL Hospital,other,12.9309944,77.4929837,osm,,Bengaluru Urban,"3 P (2), 60 Ft Road, Jnanabharathi Layout, 1st Block, (Valgerhalli), Near To Srikki Apartment",,560059,Karnataka,,hospital,,,,,,,,,,,,,,,,,,,,,,,,,,,,,,,,yes,,,,,,,,,,,,,,,,,,,,,,,,,,,,,,,,,,,,,,,,,,,,,,,,,,,,,,,,,,,,,,,,,,,,,,,,,,,,,,,,,,,,,,,,,,,,,,,,,,,,,,,,,,,,,,,,,,,,,,,,,,,,,,,,,,,,,,,other,,,,POINT (77.4929837 12.9309944)
Government Primary Health Centre,other,13.003447,77.504284,osm,,Bangalore,Hegganahalli,,560091,Karnataka,,hospital,,,ಸರ್ಕಾರಿ ಪ್ರಾಥಮಿಕ ಆರೋಗ್ಯ ಕೇಂದ್ರ,,,,,,,,,,,centre,,,,,,,,,,,,,,,,,,no,,,,,,,,,,,,,,,,,,,,,,,,,,Bangalore North,,,,,,,,,,,,,,,,,,,,,,,,,,,,,,,,,,,,,,,,,,,,,,,,,,,,,,,,,,,,,,,,,,,,,,,,,,,,,,,,,,,,,,,,,,,,,,,,,,,,,,,,,,,,,other,,,,POINT (77.504284 13.003447)
Unknown,other,13.0034513,77.5042307,osm,,,,,,,,school,,,,,,,,,,,,,,,,,,,,,,,,,,,,,,,,,,,,,,,,,,,,,,,,,,,,,,,,,,,,,,,,,,,,,,,,,,,,,,,,,,,,,,,,,,,,,,,,,,,,,,,,,,,,,,,,,,,,,,,,,,,,,,,,,,,,,,,,,,,,,,,,,,,,,,,,,,,,,,,,,,,,,,,other,,,,POINT (77.5042307 13.0034513)
Peenya 2nd Stage,bus_station,13.0108586,77.5069287,osm,,,,,,,,bus_station,,,ಪೀಣ್ಯ ೨ನೇ ಹಂತ,,,,,,,,,,,,,,,,,,,,,,,,,,,,,,,,,,,,,,,,,,,,,,,,,,,,,,,,,,,,,,,,,,,,,,,,,,,,,,,,,,,,,,,,,,,,,,,,,,,,,,,,,,,,,,,,,,,,,,,,,,,,,,,,,,,,,,,,,,,,,,,,,,,,,,,,,,,,,,,,,,,,other,,,,POINT (77.5069287 13.0108586)
Cake Palace,bakery,12.9402254,77.5535523,osm,,,,,,,,,,,,,,,,,,,,bakery,,,,,,,,,,,,,,,,,,,,,,,,,,,,,,,,,,,,,,,,,,,,,,,,,,,,,,,,,,,,,,,,,,,,,,,,,,,,,,,,,,,,,,,,,,,,,,,,,,,,,,,,,,,,,,,,,,,,,,,,,,,,,,,,,,,,,,,,,,,,,,,,,,,,,,,,,,,other,,,,POINT (77.5535523 12.9402254)
Kadamba Veg,restaurant,12.9976921,77.5475818,osm,,,,,,,,restaurant,,,ಕದಂಬ ವೆಜ್,,,,,,,,,,,,,,indian,,,,,,,,,,,,,,,,,,,,,,,,,,,,,,,,,,,,,,,,,,,,,,,,,,,,,,,,,,,,,,,,,,,,,,,,,,,,,,,,,,,,,,,,,,,,,,,,,,,,,,,,,,,,,,,,,,,,,,,,,,,,,,,,,,,,,,,,,,,,,,,,,,,,,,restaurant,,,,POINT (77.5475818 12.9976921)
KFC,fast_food,12.9972835,77.5465706,osm,Bangalore,,,729,560086,,Modi Hospital Main Road,fast_food,,,,,080 44844484,https://online.kfc.co.in/,,KFC,Q524757,en:KFC,KFC,,,,,,chicken,,,,,,,,,,,11:00-23:00,,KFC,,,,,,,KFC,केएफसी,,ਕੇਐਫਸੀ,کے ایف سی,کے ایف سی,ਕੇਐਫਸੀ,केएफसी,ਕੇਐਫਸੀ,کے ایف سی,کے ایف سی,,Kentucky Fried Chicken,Kentucky Fried Chicken,केंटुकी फ्राइड चिकन,ਕੈਂਟੁਕੀ ਫ੍ਰਾਈਡ ਚਿਕਨ,کینٹکی فرائیڈ چکن,کینٹکی فرائیڈ چکن,کینٹکی فرائیڈ چکن,yes,,,,,,,,,,yes,,,,,,,,,,,,,,,,,,,,,,,,,,080 42102114,,,,,,,,,,,,,,,,,,,,,,,,,,,,,,,,,,,,,,,,,,,,,,,,,,,,,,,,,,,,,,,,,,,,,,,,,,,restaurant,,,,POINT (77.5465706 12.9972835)
Bank of Baroda,bank,12.9711631,77.5364993,osm,Bangaloreroad_leaved,,,,560040,,Chord Road,bank,,,ಬ್ಯಾಂಕ್ ಆಫ್ ಬರೊಡಾ,,,http://www.bankofbaroda.com,no,Bank of Baroda,Q2003797,en:Bank of Baroda,,,,,,,,,,,,,,,,,,,,Bank of Baroda,BoB,,,,,Opp Vijayanagar Post Office,,,,,,,,,,,,,,,,,,,,,,,,,,,,,,,,,,,,,,,,,,,,,,,,,,,,,,,,,,,,,,,,,,,,,,,,,,,,,,,,,,,,,,,,,,,,,,,,,,,,,,,,,,,,,,,,,,,,,,,,,,,,,,,,,,,finance,,,,POINT (77.5364993 12.9711631)
Baker's Pride,bakery,12.9713043,77.5365288,osm,Bangalore,,,,560040,,Chord Road,,,,,,,,,,,,,bakery,,,,,,,,,,,,,,,,,,,,,,,,"Opp Vijayanagar Post office, Vijayanagar",,,,,,,,,,,,,,,,,,,,,,,,,,,,,,,,,,,,,,,,,,,2024-12-21,,,,,,,,,,,,,,,,,,,,,,,,,,,,,,,,,,,,,,,,,,,,,,,,,,,,,,,,,,,,,,,,,,,,,,,,,,,,,,,,,,,,,,,,other,,,,POINT (77.5365288 12.9713043)
Nisarga Andhra Style,restaurant,12.9886227,77.5378109,osm,,,,,,,,restaurant,,,ನಿಸರ್ಗ ಅಂಧ್ರ ಸ್ಟೈಲ್,,,,,,,,,,,,,,,,,,,,,,,,,,,,,,,,,,,,,,,,,,,,,,,,,,,,,,,,,,,,,,,,,,,,,,,,,,,,,,,,,,,,,,,,,,,,,,,,,,,,,,,,,,,,,,,,,,,,,,,,,,,,,,,,,,,,,,,,,,,,,,,,,,,,,,,,,,,,,,,,,,,,restaurant,,,,POINT (77.5378109 12.9886227)
Domino's,fast_food,12.9612053,77.5271272,osm,,,,,,,,fast_food,,,,,,,,Domino's,Q839466,en:Domino's Pizza,,,,,,,pizza,,,,,,,,,,,,,,,,,,,,,,,ਡੋਮੀਨੋਜ਼,,ڈومینوز,,,ਡੋਮੀਨੋਜ਼,,ڈومینوز,,,,,,,,,yes,,,,,,,,,,,,,,,,,,,,,ڈومینوز,ڈومینوز,,,,,,,,,,,,,,,,,,,,,,,,,,,,,,,,,,,,,,,,,,,,,,,,,,,,,,,,,,,,,,,,,,,,,,,,,,,,,,,,,,,,,,,,,restaurant,,,,POINT (77.5271272 12.9612053)
Cafe Coffee Day,cafe,12.9656038,77.5363115,osm,,,,,,,,cafe,,,ಕಫೆ ಕಾಫಿ ಡೇ,,,,no,Cafe Coffee Day,Q5017235,,,,,,,,coffee_shop,,,,,,,,,,,,,,,,,,,,,,,,,,,,,,,,,,,,,,,yes,,,,,,,,,,,,,,,,,,,,,,,,,,,,,,,,,,,,,,,,,,,,,,,,,,,,,,,,,,,,,,,,,,,,,,,,,,,,,,,,,,,,,,,,,,,,,,,,,,,,,,,,,,,,,,,cafe,,,,POINT (77.5363115 12.9656038)
Bharathy Hospital,other,12.9761294,77.5326369,osm,,Bengaluru Urban,"No.4, Nagarabhavi Main Road,Prashanth Nagar,Near Shopper City Shop",,560079,Karnataka,,hospital,,,ಭಾರತಿ ಆಸ್ಪತ್ರೆ,,,,,,,,,,,,,,,,,,,,,,,,,,,,,,,,,,,,,,,,,,,,,,,,,,,,,,,,,,,,,,,,,,,,,,,,,,,,,,,,,,,,,,,,,,,,,,,,,,,,,,,,,,,,,,,,,,,,,,,,,,,,,,,,,,,,,,,,,,,,,,,,,,,,,,,,,,,,,,,,,,,,other,,,,POINT (77.5326369 12.9761294)
Amarland Departmental,convenience,12.9729823,77.5294961,osm,,,,,,,Nagarbhavi Main Road,,,,,,,,,,,,,convenience,,,,,,,,,,,,,,,,,,,,,,,,,,,,,,,,,,,,,,,,,,,,,,,,,,,,,,,,,,,,,,,,,,,,,,,,,,,,,,,,,,,,,,,,,,,,,,,,,,,,,,,,,,,,,,,,,,,,,,,,,,,,,,,,,,,,,,,,,,,,,,,,,,,,,,,,,,,retail,,,,POINT (77.5294961 12.9729823)
Jalpaan,restaurant,12.9989198,77.552547,osm,bangalore,,,5 & 6,560010,,Dr. Rajkumar Road,restaurant,,,ಜಪ್ಲಾನ್,,+91 9591996822,,no,,,,,,,,,,regional,,,,,,,,,,,"12:00-15:30,19:00-23:00",,,,,,,,,,,,,,,,,,,,,,,,,,,,,,,,,,,,,,yes,080 41701550,,,,,,,,,,,,,,,,,,,,,,,,,,,,,,,,,,,,,,,,,,,,,,,,,,,,,,,,,,,,,,,,,,,,,,,,,,,,,,,,,,,,,,,,,,,,,,,,,,,,restaurant,,,,POINT (77.552547 12.9989198)
Axis Bank,bank,12.9993994,77.5525068,osm,,,,,,,,bank,,,ಆಕ್ಸಿಸ್ ಬ್ಯಾಂಕ್,,,,no,Axis Bank,Q2003549,,Axis Bank,,,,no,,,,,,,,,,,,,,yes,,,,,,,,,,,,,,,,,,,,,,,,,,,,,,,,,,,,,,,,,,,,,,,,,,2023-01-02,,,,,,,,,,,Axis Bank,,,Rajajinagar,,,,,,,,,,,,,,,,,,,,,,,,,,,,,,,,,,,,,,,,,,,,,,,,,,,,,,,,,,,,,,,,,,,,,,,,,,finance,,,,POINT (77.5525068 12.9993994)
"Vijaya Bank, Mudalapalya Branch",convenience,12.9686251,77.5244618,osm,,,,,,,,,,,,,,,,,,,,convenience,,,,,,,,,,,,,,,,,,,,,,,,,,,,,,,,,,,,,,,,,,,,,,,,,,,,,,,,,,,,,,,,,,,,,,,,,,,,,,,,,,,,,,,,,,,,,,,,,,,,,,,,,,,,,,,,,,,,,,,,,,,,,,,,,,,,,,,,,,,,,,,,,,,,,,,,,,,retail,,,,POINT (77.5244618 12.9686251)
Karanth Vihar,bakery,12.9761262,77.5307639,osm,,,,,,,Pattegarara Palya Main Road,,,,,,,,,,,,,bakery,,,,,,,,,,,,,,,,,,,,,,,,,,,,,,,,,,,,,,,,,,,,,,,,,,,,,,,,,,,,,,,,,,,,,,,,,,,,,,,,,,,,,,,,,,,,,,,,,,,,,,,,,,,,,,,,,,,,,,,,,,,,,,,,,,,,,,,,,,,,,,,,,,,,,,,,,,,other,,,,POINT (77.5307639 12.9761262)
Hopcoms Mangalore Store,convenience,12.9729139,77.5285404,osm,,,,,,,Nagarbhavi Main Road,,,,,,,,,,,,,convenience,,,,,,,,,,,,,,,,,,,,,,,,,,,,,,,,,,,,,,,,,,,,,,,,,,,,,,,,,,,,,,,,,,,,,,,,,,,,,,,,,,,,,,,,,,,,,,,,,,,,,,,,,,,,,,,,,,,,,,,,,,,,,,,,,,,,,,,,,,,,,,,,,,,,,,,,,,,retail,,,,POINT (77.5285404 12.9729139)
Karnataka Bank,bank,12.9760451,77.5311984,osm,,,,,,,Nagarbhavi Main Road,bank,,,ಕರ್ನಾಟಕ ಬ್ಯಾಂಕ್,,,,,Karnataka Bank,Q2042632,,,,,,,,,,,,,,,,,,,,,,,,,,,,,,,,,,,,,,,,,,,,,,,,,,,,,,,,,,,,,,,,,,,,,,,,,,,,,,,,,,,,,,,,,,,,,,,,,,,,,,,,,,,,,,,,,,,,,,,,,,,,,,,,,,,,,,,,,,,,,,,,,,,,,,,,,,,,,,finance,,,,POINT (77.5311984 12.9760451)
Shopper City,supermarket,12.9762502,77.5320438,osm,,,,,,,Nagarbhavi Main Road,,,,,,,,,,,,,supermarket,,,,,,,,,,,,,,,,,,,,,,,,,,,,,,,,,,,,,,,,,,,,,,,,,,,,,,,,,,,,,,,,,,,,,,,,,,,,,,,,,,,,,,,,,,,,,,,,,,,,,,,,,,,,,,,,,,,,,,,,,,,,,,,,,,,,,,,,,,,,,,,,,,,,,,,,,,,retail,,,,POINT (77.5320438 12.9762502)
State Bank of India,bank,12.9746886,77.5310295,osm,,,,,,,Nagarbhavi Main Road,bank,,,ಭಾರತೀಯ ಸ್ಟೇಟ್ ಬ್ಯಾಂಕ್,,,https://www.sbi.co.in,,State Bank of India,Q1340361,en:State Bank of India,,,,,,,,,,,,,,,,,,,,,SBI,,,,,,,,,,,,,,,,,,,,,,,,,,,,,,,,,,,,,,,,,,,,,,,,,,,,,,,,,,,,,,,,,,,,,,,,,,,,,,,,,,,,,,,,,,,,,,,,,,,,,,,,,,,,,,,,,,,,,,,,,,,,,,,,,,,,,,,,finance,,,,POINT (77.5310295 12.9746886)
Akshata Nati Style,restaurant,12.972957,77.5397309,osm,,,,,,,,restaurant,,,,,,,,,,,,,,,,,,,,,,,,,,,,,,,,,,,,,,,,,,,,,,,,,,,,,,,,,,,,,,,,,,,,,,,,,,,,,,,,,,,,,,,,,,,,,,,,,,,,,,,,,,,,,,,,,,,,,,,,,,,,,,,,,,,,,,,,,,,,,,,,,,,,,,,,,,,,,,,,,,,,,,,restaurant,,,,POINT (77.5397309 12.972957)
Park View Bar & Restaurant,restaurant,12.9729139,77.5395347,osm,,,,,,,,restaurant,,,,,,,,,,,,,,,,,,,,,,,,,,,,,,,,,,,,,,,,,,,,,,,,,,,,,,,,,,,,,,,,,,,,,,,,,,,,,,,,,,,,,,,,,,,,,,,,,,,,,,,,,,,,,,,,,,,,,,,,,,,,,,,,,,,,,,,,,,,,,,,,,,,,,,,,,,,,,,,,,,,,,,,restaurant,,,,POINT (77.5395347 12.9729139)
Axis Bank,bank,12.96777,77.536697,osm,,,,,,,,bank,,,ಆಕ್ಸಿಸ್ ಬ್ಯಾಂಕ್,,,https://www.axisbank.com,,Axis Bank,Q2003549,en:Axis Bank,,,,,,,,,,,,,,,,,,,,Axis Bank,,,,,,,,,,,,,,,,,,,,,,,,,,,,,,,,,,,,,,,,,,,,,,,,,,,,,,,,,,,,,,,,,,,,,,,,,,,,,,,,,,,,,,,,,,,,,,,,,,,,,,,,,,,,,,,,,,,,,,,,,,,,,,,,,,,,,,,,,finance,,,,POINT (77.536697 12.96777)
M K Ahmed Super Shoppy,supermarket,12.972595,77.5395133,osm,Bangalore,,,,560040,,6th Main Road,,,,,,,https://www.mkretail.com/,,,,,,supermarket,,,,,,,,,,,,,,,,,,,,,,yes,,,,,,,,,,,,,,,,,,,,,,,,,,,,,,,,,,,,,,,,,,,,,,,,,,,,,,,,,,,,,,,,,,,,,,,,,,,,,,,,,,,,,,,,,,,,,,,,,,,,,,,,,,,,,,,,,,,,,,,,,,,,,,,,,,,,,retail,,,,POINT (77.5395133 12.972595)
Amaravati Andhra Style,restaurant,12.9808177,77.535785,osm,,,,,,,Magadi Road,restaurant,,,,,,,,,,,,,,,,,,,,,,,,,,,,,,,,,,,,Near Housing  Board Bus Stop,,,,,,,,,,,,,,,,,,,,,,,,,,,,,,,,,,,,,,,,,,,,,,,,,,,,,,,,,,,,,,,,,,,,,,,,,,,,,,,,,,,,,,,,,,,,,,,,,,,,,,,,,,,,,,,,,,,,,,,,,,,,,,,,,,,restaurant,,,,POINT (77.535785 12.9808177)
Shobha Hospital Medical Store,pharmacy,12.9754858,77.531294,osm,,,,,,,,pharmacy,,,,,,,,,,,,,,,,,,,,,,,,,,,,,,,,,,,,,,,,,,,,,,,,,,,,,,,,,,,,,,,,,,,,,,,,,,,,,,,,,,,,,,,,,,,,,,,,,,,,,,,,,,,,,,,,,,,,,,,,,,,,,,,,,,,,,,,,,,,,,,,,,,,,,,,,,,,,,,,,,,,,,,,healthcare,,,,POINT (77.531294 12.9754858)
MedPlus,pharmacy,12.9729792,77.5290087,osm,,,,,,,,pharmacy,,,ಮೆಡ್‍ಪ್ಲಸ್,,,,,MedPlus,Q65684234,,,,,pharmacy,,,,,,,,,,,,,,,,,,,,,,,,,,,,,,,,,,,,,,,,,,,,,,,,,,,,,,,,,,,,,,,,,,,,,,,,,,,,,,,,,,,,,,,,,,,,,,,,,,,,,,,,,,,,,,,,,,,,,,,,,,,,,,,,,,,,,,,,,,,,,,,,,,,,,,,,,healthcare,,,,POINT (77.5290087 12.9729792)
Canara Juice Center,fast_food,12.9749261,77.5308639,osm,Bangalore,,,,560040,,Nagarabhavi Road,fast_food,,,,,,,,,,,,,,,,,,,,,,,,,,,,,,,,,,,,Near Shobha Hospital,,,,,,,,,,,,,,,,,,,,,,,,,,,,,,,,,,,,,,,,,,,,,,,,,,,,,,,,,,,,,,,,,,,,,,,,,,,,,,,,,,,,,,,,,,,,,,,,,,,,,,,,,,,,,,,,,,,,,,,,,,,,,,,,,,,restaurant,,,,POINT (77.5308639 12.9749261)
McDonald's,fast_food,12.9686831,77.5369098,osm,,,,,,,,fast_food,,,ಮ್ಯಾಕ್‌ಡೊನಾಲ್ಡ್ಸ್,,,,,McDonald's,Q38076,en:McDonald's,,,,,,,burger,,,,,,,,,,,Mo-Su 10:00-23:00,,,,,,,,,,,,ਮੈਕਡੋਨਲਡ’ਜ਼,,مکڈونلڈز,ਮੈਕਡੋਨਲਡ’ਜ਼,,ਮੈਕਡੋਨਲਡ’ਜ਼,,مکڈونلڈز,,,,,,,,مکڈونلڈز,yes,,,,,,,,,,,,,,,,,,,,,,,,,,,,,,,,,,,,,,,,,,,,,,,,,,,,,,,,,,,,,,,,,,,,,,,,,,,,,,,,,,,,,,,,,,,,,,,,,,,,,,,,,,,,,,,restaurant,,,,POINT (77.5369098 12.9686831)
Bunt's Sangha Car Parking,parking,12.9613203,77.5329636,osm,,,,,,,,parking,,,,,,,,,,,,,,,,surface,,,,,,,,,,,,,,,,,,,,,,,,,,,,,,,,,,,,,,,,,,,,,,,,,,,,,,,,,,,,,,,,,,,,,,,,,,,,,,,,,,,,,,,,,,,,,,,,,,,,,,,,,,,,,,,,,,,,,,,,,,,,,,,,,,,,,,,,,,,,,,,,,,,,,,,other,,,,POINT (77.5329636 12.9613203)
Just Bake,bakery,12.9729863,77.5398479,osm,,,,,,,,,,,ಜಸ್ಟ್ ಬೇಕ್,,,,,,,,,bakery,,,,,,,,,,,,,,,,,,,,,,,,,,,,,,,,,,,,,,,,,,,,,,,,,,,,,,,,,,,,,,,,,,,,,,,,,,,,,,,,,,,,,,,,,,,,,,,,,,,,,,,,,,,,,,,,,,,,,,,,,,,,,,,,,,,,,,,,,,,,,,,,,,,,,,,,,,,other,,,,POINT (77.5398479 12.9729863)
Just Bake,bakery,12.9605279,77.5302714,osm,,,,,,,,,,,ಜಸ್ಟ್ ಬೇಕ್,,,,,,,,,bakery,,,,,,,,,,,,,,,,,,,,,,,,,,,,,,,,,,,,,,,,,,,,,,,,,,,,,,,,,,,,,,,,,,,,,,,,,,,,,,,,,,,,,,,,,,,,,,,,,,,,,,,,,,,,,,,,,,,,,,,,,,,,,,,,,,,,,,,,,,,,,,,,,,,,,,,,,,,other,,,,POINT (77.5302714 12.9605279)
Hotel Manjushree,restaurant,12.9590436,77.5248426,osm,,,,,,,,restaurant,,,ಹೋಟೆಲ್ ಮಂಜುಶ್ರೀ,,,,,,,,,,,,,,fish,,,,,,,,,,,,,,,,,,,,,,,,,,,,,,,,,,,,,,,,,,,,,,,,,,,,,,,,,,,,,,,,,,,,,,,,,,,,,,,,,,,,,,,,,,,,,,,,,,,,,,,,,,,,,,,,,,,,,,,,,,,,,,,,,,,,,,,,,,,,,,,,,,,,,,restaurant,,,,POINT (77.5248426 12.9590436)
Cafe Coffe Day,cafe,12.9734094,77.5417665,osm,,,,,,,,cafe,,,ಕಫೆ ಕಾಫಿ ಡೇ,,,,no,,,,,,,,,,,,,,,,,,,,,,,,,,,,,,,,,,,,,,,,,,,,,,,,,,,,,,,,,,,,,,,,,,,,,,,,,,,,,,,,,,,,,,,,,,,,,,,,,,,,,,,,,,,,,,,,,,,,,,,,,,,,,,,,,,,,,,,,,,,,,,,,,,,,,,,,,,,,,,,,cafe,,,,POINT (77.5417665 12.9734094)
LIC of India,bank,12.9738477,77.5440708,osm,,,,,,,,bank,,,ಭಾರತೀಯ ಜೀವವಿಮಾ ನಿಗಮ,,,,,,,,,,,,,,,,,,,,,,,,,,,,,,,,,,,,,,,,,,,,,,,,,,,,,,,,,,,,,,,,,,,,,,,,,,,,,,,,,,,,,,,,,,,,,,,,,,,,,,,,,,,,,,,,,,,,,,,,,,,,,,,,,,,,,,,,,,,,,,,,,,,,,,,,,,,,,,,,,,,,finance,,,,POINT (77.5440708 12.9738477)
1947,restaurant,12.9829855,77.5486383,osm,,,,,,,,restaurant,,,೧೯೪೭,,,,no,,,,,,,,,,,,,,,,,,,,,,,,,,,,,,,,,,,,,,,,,,,,,,,,,,,,,,,,,,,,,,,,,,,,,,,,,,,,,,,,,,,,,,,,,,,,,,,,,,,,,,,,,,,,,,,,,,,,,,,,,,,,,,,,,,,,,,,,,,,,,,,,,,,,,,,,,,,,,,,,restaurant,,,,POINT (77.5486383 12.9829855)
HDFC Bank,bank,12.9254619,77.5499726,osm,,,,,560085,,Outer Ring Road,bank,,,ಎಚ್ ಡಿ ಎಫ್ ಸಿ,,,https://www.hdfcbank.com,,HDFC Bank,Q631047,en:HDFC Bank,,,,,,,,,,,,,,,,,,,yes,,HDFC,,,,,,,,,,,,,,,,,,,,,,,,,,,,,,,,,,,,,,,,,,,,,,,,,,,,,,,,,,,,,,,,,,,,,,,,,,,,,,,,,,,,,,,,,,,,,,,,,,,,,,,,,,,,,,,,,,,,,,,,,,,,,,,,,,,,,,,,finance,,,,POINT (77.5499726 12.9254619)
Al-Bek chiken,fast_food,12.9779674,77.5530323,osm,,,,,,,,fast_food,,,,,,,no,,,,,,,,,,,,,,,,,,,,,,,,,,,,,,,,,,,,,,,,,,,,,,,,,,,,,,,,,,,,,,,,,,,,,,,,,,,,,,,,,,,,,,,,,,,,,,,,,,,,,,,,,,,,,,,,,,,,,,,,,,,,,,,,,,,,,,,,,,,,,,,,,,,,,,,,,,,,,,,,restaurant,,,,POINT (77.5530323 12.9779674)
Unknown,fast_food,12.965712,77.5363,osm,,,,,,,,fast_food,,,,,,,,,,,,,,,,,,,,,,,,,,,,,,,,,,,,,,,,,,,,,,,,,,,,,,,,,,,,,,,,,,,,,,,,,,,,,,,,,,,,,,,,,,,,,,,,,,,,,,,,,,,,,,,,,,,,,,,,,,,,,,,,,,,,,,,,,,,,,,,,,,,,,,,,,,,,,,,,,,,,,,,restaurant,,,,POINT (77.5363 12.965712)
East West Institue of Technology,other,12.9759458,77.4832366,osm,,,,,,,,school,,,,,,,,,,,,,,,,,,,,,,,,,,,,,,,,,,,,,,,,,,,,,,,,,,,,,,,,,,,,,,,,,,,,,,,,,,,,,,,,,,,,,,,,,,,,,,,,,,,,,,,,,,,,,,,,,,,,,,,,,,,,,,,,,,,,,,,,,,,,,,,,,,,,,,,,,,,,,,,,,,,,,,,other,,,,POINT (77.4832366 12.9759458)
Nilgiris,supermarket,13.007947,77.5428561,osm,,,,,,,,,,,ನೀಲ್ಗಿರೀಸ್,,,,,,,,,supermarket,,,,,,,,,,,,,,,,,,,,,,,,,,,,,,,,,,,,,,,,,,,,,,,,,,,,,,,,,,,,,,,,,,,,,,,,,,,,,,,,,,,,,,,,,,,,,,,,,,,,,,,,,,,,,,,,,,,,,,,,,,,,,,,,,,,,,,,,,,,,,,,,,,,,,,,,,,,retail,,,,POINT (77.5428561 13.007947)
HP Petrol,fuel,13.0103477,77.5367403,osm,,,,,,,,fuel,,,ಹಿಂದುಸ್ತಾನ್ ಪೆಟ್ರೋಲಿಯಂ,,,,yes,Hindustan Petroleum,Q1619375,,,,,,,,,,,,,,,,,,,,,,,,,,Hindustan Petroleum,,,,,,,,,,,,,,,,,,,,,,,,,,,,,,,,,,,,,,,,,,,,,,,,,,,,,,,,,,,,,,,,,,,,,,,,,,,,,,,,,,,,,,,,,,,,,,,,,,,,,,,,,,,,,,,,,,,,,,,,,,,,,,,,,,,,other,,,,POINT (77.5367403 13.0103477)
Union Bank of India,bank,12.9342211,77.5345124,osm,,,,,560085,,100 Feet Outer Ring Road,bank,,,ಯೂನಿಯನ್ ಬ್ಯಾಂಕ್,,,https://www.unionbankofindia.co.in/,,,Q2004078,en:Union Bank of India,,,,,,,,,,,,,,,,,,,yes,Union Bank of India,UBI,,,,,PES University,,,,,,,,,,,,,,,,,,,,,,,,,,,,,,,,,,,,,,,,,,,,,,,,,,,,,,,,,,,,,,,,,,,,,,,,,,,,,,,,,,,,,,,,,,,,,,,,,,,,,,,,,,,,,,,,,,,,,,,,,,,,,,,,,,,finance,,,,POINT (77.5345124 12.9342211)
PES Food Court,restaurant,12.9336327,77.5343127,osm,Bengaluru,,,,560085,,100,restaurant,,,,,,,,,,,,,,,,,indian,,,,,,,,,,,,,,,,,,,PES University,,,,,,,,,,,,,,,,,,,,,,,,,,,,,,,,,,,,,,,,,,,,,,,,,,,,,,,,,,,,,,,,,,,,,,,,,,,,,,,,,,,,,,,,,,,,,,,,,,,,,,,,,,,,,,,,,,,,,,,,,,,,,,,,,,,restaurant,,,,POINT (77.5343127 12.9336327)
Cafe Coffe Day Express,cafe,12.9335839,77.5344798,osm,Bengaluru,,,,560085,,Outer ring road,cafe,,,ಕಫೆ ಕಾಫಿ ಡೇ,,,https://www.cafecoffeeday.com/,,,,,,,,,,,indian,,,,,,,,,,,,,,,,,,,PES University,,,,,,,,,,,,,,,,,,,,,,,,,,,,,,,,,,,,,,,,,,,,,,,,,,,,,,,,,,,,,,,,,,,,,,,,,,,,,,,,,,,,,,,,,,,,,,,,,,,,,,,,,,,,,,,,,,,,,,,,,,,,,,,,,,,cafe,,,,POINT (77.5344798 12.9335839)
Toscano,restaurant,13.011218,77.5554078,osm,Bangalore,,,UG16,,,Dr. Rajkumar Road,restaurant,,,,,,,,,,,,,,,,,italian,,,,,,,,,,,,,,,,,,,"Upper Ground Floow, Orion Mall",,,,,,,,,,,,,,,,,,,,,,,,yes,yes,,,,,,,,,,,,,,,,,,,,,,,,,,,,,,,,,,,,,,,,,,,,,,,,,,,,,,,,,,,,,,,,,,,,,,,,,,,,,,,,,,,,,,,,,,,,,,,,,,,,,,,,,,restaurant,,,,POINT (77.5554078 13.011218)
Mainland China,restaurant,13.0107099,77.5554114,osm,Bangalore,,,UG24,,,Dr. Rajkumar Road,restaurant,,,,,,,,,,,,,,,,,chinese,,,,,,,,,,,,,,,,,,,"Upper Gground Floor, Orion Mall",,,,,,,,,,,,,,,,,,,,,,,,,,,,,,,,,,,,,,,,,,,,,,,,,,,,,,,,,,,,,,,,,,,,,,,,,,,,,,,,,,,,,,,,,,,,,,,,,,,,,,,,,,,,,,,,,,,,,,,,,,,,,,,,,,,restaurant,,,,POINT (77.5554114 13.0107099)
KFC,fast_food,13.0109319,77.555398,osm,,,,,,,,fast_food,,,ಕೆಎಫ್‍ಸಿ,,,,,KFC,Q524757,en:KFC,,,,,,,chicken,,,,,,,,,,,,,KFC,,,,,,,KFC,केएफसी,,ਕੇਐਫਸੀ,کے ایف سی,کے ایف سی,ਕੇਐਫਸੀ,केएफसी,ਕੇਐਫਸੀ,کے ایف سی,کے ایف سی,,Kentucky Fried Chicken,Kentucky Fried Chicken,केंटुकी फ्राइड चिकन,ਕੈਂਟੁਕੀ ਫ੍ਰਾਈਡ ਚਿਕਨ,کینٹکی فرائیڈ چکن,کینٹکی فرائیڈ چکن,کینٹکی فرائیڈ چکن,yes,,,,yes,no,,,,,,,,,,,,,,,,,,,,,,,,,,,,,,,,,,,,,,,,,,,,,,,,,,,,,,,,,,,,,,,,,,,,,,,,,,,,,,,,,,,,,,,,,,,,,,,,,,,,,,,,,,restaurant,,,,POINT (77.555398 13.0109319)
Cafe Coffee Day,cafe,12.9286056,77.5453234,osm,,,,,,,,cafe,,,ಕಫೆ ಕಾಫಿ ಡೇ,,,,,Cafe Coffee Day,Q5017235,,,,,,,,coffee_shop,,,,,,,,,,,"Mo-Su,PH 10:00-22:00",,,,,,,,,,,,,,,,,,,,,,,,,,,,yes,,,,,,,,,,,,,,,,,,,,,,,,,,,,,,,,,,,,,,no,,,,,,,,,,,,,,,,,,,,,,,,,,,,,,,,,,,,,,,,,,,,,,,,,,,,,,,,,,,,,,,,,,,,,,,,,cafe,,,,POINT (77.5453234 12.9286056)
Swathi Restaurant,restaurant,12.9608966,77.5075094,osm,,,,,,,,restaurant,,,,,,,,,,,,,,,,,,,,,,,,,,,,,,,,,,,,,,,,,,,,,,,,,,,,,,,,,,,,,,,,,,,,,,,,,,,,,,,,,,,,,,,,,,,,,,,,,,,,,,,,,,,,,,,,,,,,,,,,,,,,,,,,,,,,,,,,,,,,,,,,,,,,,,,,,,,,,,,,,,,,,,,restaurant,,,,POINT (77.5075094 12.9608966)
"Panacea Hospital, Nagarabhavi",other,12.9613237,77.511726,osm,,Bengaluru Urban,"# 611 /612, Nagarabhavi Main Road",,560072,Karnataka,,hospital,,,,private,,http://www.panaceahospital.com/,,,,,,,,,,,,,,,,,,,,,,,,,,,,,,,,,,,,,,,,,,,,,,,,,,,,Nagarbhavi,,,,,,,,,,,,,,,,,,,,,,,,,,,,,,,,,,,,,,,,,,,,,,,,,,,,,,,,,,,,,,,,,,,,,,,,,,,,,,,,,,,,,,,,,,,,,,,,,,,,,,,,,,,,,other,,,,POINT (77.511726 12.9613237)
Jnana Deepthi English Primary and High School,other,12.9438068,77.542,osm,Bangalore,,,56,560085,,6th Main Road,school,,,,,,,,,,,,,,,,,,,,,,,,,,,,,,,,,,,,Near BDA PArk,,,,,,,,,,,,,,,,,,,,,,,,,,,,,,,,,,,,,,,,,,,,,,,,,,,,,,,,,,,Genauigkeit: 35.0m,784.9001029906099,8.75,7,2013-02-26T10:03:51Z,,,,,,,,,,,,,,,,,,,,,,,,,,,,,,,,,,,,,,,,,,,,,,,,,,,,,,,,,,,,,,,,,,,,other,,,,POINT (77.542 12.9438068)
BSVP School,other,12.9731634,77.5410962,osm,,,,,,,,school,,,,,,,,,,,,,,,,,,,,,,,,,,,,,,,,,,,,,,,,,,,,,,,,,,,,,,,,,,,,,,,,,,,,,,,,,,,,,,,,,,,,,,,,,,,,,,,,,,,,,,,,,,,,,,,,,,,,,,,,,,,,,,,,,,,,,,,,,,,,,,,,,,,,,,,,,,,,,,,,,,,,,,,other,,,,POINT (77.5410962 12.9731634)
Davanagere Benne Dose,restaurant,12.991114,77.5407958,osm,,,,,,,,restaurant,,,ದಾವಣಗೆರೆ ಬೆಣ್ಣೆ ದೋಸೆ,,,,no,,,,,,,,,,indian,,,,,,,,,,,,,,,,,,,,,,,,,,,,,,,,,,,,,,,,,,,,,,,,,,,,,,,,,,,,,,,,,,,,,,,,,,,,,,,,,,,,,,,,,,,,,,,,,,,,,,,,,,,,,,,,,,,,,,,,,,,,,,,,,,,,,,,,,,,,,,,,,,,,,,restaurant,,,,POINT (77.5407958 12.991114)
Rekha Residency,hotel,12.988584,77.5474906,osm,,,,,,,,,,,,,,,,,,,,,,,,,,,,,,,,,,,,,,,,,hotel,,,,,,,,,,,,,,,,,,,,,,,,,,,,,,,,,,,,,,,,,,,,,,,,,,,,,,,,,,,,,,,,,,,,,,,,,,,,,,,,,,,,,,,,,,,,,,,,,,,,,,,,,,,,,,,,,,,,,,,,,,,,,,,,,,,,,,hospitality,,,,POINT (77.5474906 12.988584)
Shivas,hotel,12.9857195,77.5520611,osm,,,,,,,,,,,,,,,no,,,,,,,,,,,,,,,,,,,,,,,,,,hotel,,,,,,,,,,,,,,,,,,,,,,,,,,,,,,,,,,,,,,,,,,,,,,,,,,,,,,,,,,,,,,,,,,,,,,,,,,,,,,,,,,,,,,,,,,,,,,,,,,,,,,,,,,,,,,,,,,,,,,,,,,,,,,,,,,,,,,hospitality,,,,POINT (77.5520611 12.9857195)
BP petrol pump,fuel,12.9851341,77.5433278,osm,,,,,,,,fuel,,,,,,,yes,BP,Q152057,,,,,,,,,,,,,,,,,,,,,,,,,,,,,,,,,,,,,,,,,,,,,,,,,,,,,,,,,,,,,,,,,,,,,,,,,,,,,,,,,,,,,,,,,,,,,,,,,,,,,,,,,,,,,,,,,,,,,,,,,,,,,,,,,,,,,,,,,,,,,,,,,,,,,,,,,,,,,,other,,,,POINT (77.5433278 12.9851341)
Suvali,hotel,12.9881972,77.5494003,osm,,,,,,,,,,,,,,,,,,,,,,,,,,,,,,,,,,,,,,,,,hotel,,,,,,,,,,,,,,,,,,,,,,,,,,,,,,,,,,,,,,,,,,,,,,,,,,,,,,,,,,,,,,,,,,,,,,,,,,,,,,,,,,,,,,,,,,,,,,,,,,,,,,,,,,,,,,,,,,,,,,,,,,,,,,,,,,,,,,hospitality,,,,POINT (77.5494003 12.9881972)
Cafe Coffee Day,hotel,12.9959438,77.5548935,osm,,,,,,,,,,,ಕಫೆ ಕಾಫಿ ಡೇ,,,,,,,,,,,,,,,,,,,,,,,,,,,,,,hotel,,,,,,,,,,,,,,,,,,,,,,,,,,,,,,,,,,,,,,,,,,,,,,,,,,,,,,,,,,,,,,,,,,,,,,,,,,,,,,,,,,,,,,,,,,,,,,,,,,,,,,,,,,,,,,,,,,,,,,,,,,,,,,,,,,,,,,hospitality,,,,POINT (77.5548935 12.9959438)
HP,fuel,12.9916432,77.5578265,osm,,,,,,,,fuel,,,ಹಿಂದುಸ್ತಾನ್ ಪೆಟ್ರೋಲಿಯಂ,,,,,Hindustan Petroleum,Q1619375,en:Hindustan Petroleum,,,,,,,,,,,,,,,,,,,,,,,,,Hindustan Petroleum,,,,,,,,,,,,,,,,,,,,,,,,,,,,,,,,,,,,,,,,,,,,,,,,,,,,,,,,,,,,,,,,,yes,,,,,,,,,,,,,,,,,,,,,,,,,,,,,,,,,,,,,,,,,,,,,,,,,,,,,,,,,,,,,,,,,,,other,,,,POINT (77.5578265 12.9916432)
Mallika Residency,hotel,12.9917517,77.5576615,osm,,,,,,,,,,,,,,,,,,,,,,,,,,,,,,,,,,,,,,,,,hotel,,,,,,,,,,,,,,,,,,,,,,,,,,,,,,,,,,,,,,,,,,,,,,,,,,,,,,,,,,,,,,,,,,,,,,,,,,,,,,,,,,,,,,,,,,,,,,,,,,,,,,,,,,,,,,,,,,,,,,,,,,,,,,,,,,,,,,hospitality,,,,POINT (77.5576615 12.9917517)
Indian Oil,fuel,12.9810568,77.5583911,osm,,,,,,,,fuel,,,ಇಂಡಿಯನ್ ಆಯಿಲ್,,,,yes,Indian Oil,Q1289348,en:Indian Oil Corporation,,,,,,,,,,,,,,,,,,,,,,,,,,,,,,,,,,,,,,,,,,,,,,,,,,,,,,,,,,,,,,,,,,,,,,,,,,,,,,,,,,,,,,,,,,,,,,,,,,,,,,,,,,,,,,,,,,,,,,,,,,,,,,,,,,,,,,,,,,,,,,,,,,,,,,,,,,,,,other,,,,POINT (77.5583911 12.9810568)
St Ann's School,other,12.9800113,77.5566101,osm,,,,,,,,school,,,ಸೆಂಟ್ ಆನ್ಸ್ ಶಾಲೆ,,,,no,,,,,,,,,,,,,,,,,,,,,,,,,,,,,,,,,,,,,,,,,,,,,,,,,,,,,,,,,,,,,,,,,,,,,,,,,,,,,,,,,,,,,,,,,,,,,,,,,,,,,,,,,,,,,,,,,,,,,,,,,,,,,,,,,,,,,,,,,,,,,,,,,,,,,,,,,,,,,,,,other,,,,POINT (77.5566101 12.9800113)
St Mira's School,other,12.9776695,77.5553656,osm,,,,,,,,school,,,,,,,,,,,,,,,,,,,,,,,,,,,,,,,,,,,,,,,,,,,,,,,,,,,,,,,,,,,,,,,,,,,,,,,,,,,,,,,,,,,,,,,,,,,,,,,,,,,,,,,,,,,,,,,,,,,,,,,,,,,,,,,,,,,,,,,,,,,,,,,,,,,,,,,,,,,,,,,,,,,,,,,other,,,,POINT (77.5553656 12.9776695)
Shanbhag Hospital,other,12.9856882,77.5435424,osm,,Bengaluru Urban,"#6, Thimmaiah Layout, 1st Main 3rd D Cross, 3rd Stage, 2nd Block",,560079,Karnataka,,hospital,,,,private,,http://snsvo7.seekandsource.com/shanbhag/,yes,,,,,,,,,,,,,,,,,,,,,,,,,,,,,,,,,,,,,,,,,,,,,,,,,,,Basaveshwaranagar,,,,,,,,,,,,,,,,,,,,,,,,,,,,,,,,,,,,,,,,,,,,,,,,,,,,,,,,,,,,,,,,,,,,,,,,,,,,,,,,,,,,,,,,,,,,,,,,,,,,,,,,,,,,,other,,,,POINT (77.5435424 12.9856882)
Kashyap Lodge,hotel,12.987225,77.5397658,osm,,,,,,,,,,,,,,,,,,,,,,,,,,,,,,,,,,,,,,,,,hotel,,,,,,,,,,,,,,,,,,,,,,,,,,,,,,,,,,,,,,,,,,,,,,,,,,,,,,,,,,,,,,,,,,,,,,,,,,,,,,,,,,,,,,,,,,,,,,,,,,,,,,,,,,,,,,,,,,,,,,,,,,,,,,,,,,,,,,hospitality,,,,POINT (77.5397658 12.987225)
Trupti Nursing Home,other,12.9946566,77.5397544,osm,,Bengaluru Urban,"No. 463, 1st Block, 3Road Stage, Dr.Siddaiah Puranika Road, Basaveshwaranagear",,560079,Karnataka,,hospital,,,,,,,,,,,,,,hospital,,,,,,,,,,,,,,,,,,,,,,,,,,,,,,,,,,,,,,,,,,,,,,,,,,,,,,,,,,,,,,,,,,,,,,,,,,,,,,,,,,,,,,,,,,,,,,,,,,,,,,,,,,,,,,,,,,,,,,,,,,,,,,,,,,,,,,,,,,,,,,,,,,,,,,,,,other,,,,POINT (77.5397544 12.9946566)
IBP petrol pump,fuel,12.9855941,77.5252604,osm,,,,,,,,fuel,,,,,,,,,,,,,,,,,,,,,,,,,,,,,,,,,,,,,,,,,,,,,,,,,,,,,,,,,,,,,,,,,,,,,,,,,,,,,,,,,,,,,,,,,,,,,,,,,,,,,,,,,,,,,,,,,,,,,,,,,,,,,,,,,,,,,,,,,,,,,,,,,,,,,,,,,,,,,,,,,,,,,,,other,,,,POINT (77.5252604 12.9855941)
Indo Petrol / Gas Station,fuel,12.9850923,77.5232649,osm,,,,,,,,fuel,,,,,,,,Indane Oil,,,Indane Oil,,,,,,,,,,,,,,,,,,,,,,,,,,,,,,,,,,,,,,,,,,,,,,,,,,,,,,,,,,,,,,,,,,,,,,,,,,,,,,,,,,,,,,,,,,,,,,,,,,,,,,,,,,,,,,,,,,,,,,,,,,,,,,,,,,,,,,,,,,,,,,,,,,,,,,,,,,,,other,,,,POINT (77.5232649 12.9850923)
Indian Oil,fuel,12.9862632,77.5222349,osm,,,,,,,,fuel,,,ಇಂಡಿಯನ್ ಆಯಿಲ್,,,,,Indian Oil,Q1289348,en:Indian Oil Corporation,,,,,,,,,,,,,,,,,,,,,,,,,,,,,,,,,,,,,,,,,,,,,,,,,,,,,,,,,,,,,,,,,,,,,,,,,,,,,,,,,,,,,,,,,,,,,,,,,,,,,,,,,,,,,,,,,,,,,,,,,,,,,,,,,,,,,,,,,,,,,,,,,,,,,,,,,,,,,other,,,,POINT (77.5222349 12.9862632)
Adyar Ananda Bhavan,restaurant,12.9843055,77.5537764,osm,Bangalore,,,,560079,,60th Cross Road,restaurant,,,ಆದ್ಯಾರ್ ಆನಂದ ಭವನ,,+91 80 4212 3599,https://aabsweets.com,no,Adyar Ananda Bhavan,Q15178238,,Adyar Ananda Bhavan,,,,,,regional,,,,,,,,,,,,,,,,,,,,,,,,,,,,,,,,A2B,,,,,,,,only,,,,,no,,,,,,,,,,,,,,,,,,,,,,,,,,,,,,,,,,,,,,,,,,,,,,,,,,,,,,,,,,,,,,,,,,,,,,,,,,,,,,,,,,,,,,,,,,,,,,,,,,,,,,,,,restaurant,,,,POINT (77.5537764 12.9843055)
Just Bake,bakery,12.9836572,77.5487644,osm,,,,,,,,,,,ಜಸ್ಟ್ ಬೇಕ್,,,,,,,,,bakery,,,,,,,,,,,,,,,,,,,,,,,,,,,,,,,,,,,,,,,,,,,,,,,,,,,,,,,,,,,,,,,,,,,,,,,,,,,,,,,,,,,,,,,,,,,,,,,,,,,,,,,,,,,,,,,,,,,,,,,,,,,,,,,,,,,,,,,,,,,,,,,,,,,,,,,,,,,other,,,,POINT (77.5487644 12.9836572)
New Shanti Sagar,restaurant,12.9977544,77.5472561,osm,,,,,,,,restaurant,,,,,,,,,,,,,,,,,indian,,,,,,,,,,,,,,,,,,,,,,,,,,,,,,,,,,,,,,,,,,,,,,,,,,,,,,,,,,,,,,,,,,,,,,,,,,,,,,,,,,,,,,,,,,,,,,,,,,,,,,,,,,,,,,,,,,,,,,,,,,,,,,,,,,,,,,,,,,,,,,,,,,,,,,restaurant,,,,POINT (77.5472561 12.9977544)
Punjab National Bank,bank,12.9985489,77.5430189,osm,,,,,,,,bank,,,ಪಂಜಾಬ ರಾಷ್ಟ್ರೀಯ ಬ್ಯಾಂಕ್,,,https://www.pnbindia.in,,Punjab National Bank,Q2743499,en:Punjab National Bank,,,,,,,,,,,,,,,,,,,yes,Punjab National Bank,PNB,,,,,,,,,,,,,,,,,,,,,,,,,,,,,,,,,,,,,,,,,,,,,,,,,,,,,,,,,,,,,,,,,,,,,,,,,,,,,,,,,,,,,,,,,,,,,,,,,,,,,,,,,,,,,,,,,,,,,,,,,,,,,,,,,,,,,,,,finance,,,,POINT (77.5430189 12.9985489)
Krupa Medical center,other,13.000431,77.5411664,osm,,,,,,,,hospital,,,,,,,,,,,,,,hospital,,,,,,,,,,,,,,,,,,no,,,,,,,,,,,,,,,,,,,,,,,,,,,,,,,,,,,,,,,,,,,,,,,,,,,,,,,,,,,,,,,,,,,,,,,,,,,,,,,,,,,,,,,,,,,,,,,,,,,,,,,,,,,,,,,,,,,,,,,,,,,,,,,,,,,,,,,other,,,,POINT (77.5411664 13.000431)
Sea Route Restaurant,restaurant,12.9973524,77.5476248,osm,Bangalore,,,725,560086,,Modi Hospital Main Road,restaurant,,,,,080 41222292,,,,,,,,,,,,seafood,,,,,,,,,,,"11:30-15:30, 18:30-23:00",,,,,,,,,,,,,,,,,,,,,,,,,,,,,,,,,,,,,,yes,+91 9900166088,,,,,,,,,,,,,,,,,,,,,,,,,,,,,,,,,,1,,,,,,,,,,,,,,,,,,,,,,,,,,,,,,,,,,,,,,,,,,,,,,,,,,,,,,,,,,,,,,,,,,restaurant,,,,POINT (77.5476248 12.9973524)
Relience Fresh,supermarket,12.9381919,77.556125,osm,,,,,,,,,,,,,,,,,,,Relience,supermarket,,,,,,,,,,,,,,,,,,,,,,,,,,,,,,,,,,,,,,,,,,,,,,,,,,,,,,,,,,,,,,,,,,,,,,,,,,,,,,,,,,,,,,,,,,,,,,,,,,,,,,,,,,,,,,,,,,,,,,,,,,,,,,,,,,,,,,,,,,,,,,,,,,,,,,,,,,,retail,,,,POINT (77.556125 12.9381919)
Vinayaka Vidya Samsthe,other,12.9369041,77.5577545,osm,Bangalore,,,,560050,,"1st Main Road, Srinivasa Nagar",school,,,ವಿನಾಯಕ ವಿದ್ಯಾ ಸಂಸ್ಥೆ,,,,,,,,,,,,,,,,,,,,,,,,,,,,,,,,,Vinayaka Vidya Samsthe,,,,,,,,,,,,,,,,,,,,,,,,,,,,,,,,,,,,,,,,,,,,,,,,,,,,,,,,,,,,,,,,,,,,,,,,,,,,,,,,,,,,,,,,,,,,,,,,,,,,,,,,,,,,,,,,,,,,,,,,,,,,,,,,,,,other,,,,POINT (77.5577545 12.9369041)
Shree Vinayaka Juice & Chat Center,fast_food,12.9931607,77.5394749,osm,Bangalore,,,,,,10th Main,fast_food,,,,,,,,,,,,,,,,,indian_chats,,,,,,,,,,,,,,,,,,,"3rd Phase, Basaveshwara Nagar",,,,,,,,,,,,,,,,,,,,,,,,,,,,,,,,,,,,,,,,,,,,,,,,,,,,,,,,,,,,,,,,,,,,,,,,,,,,,,,,,,,,,,,,,,,,,,,,,,,,,,,,,,,,,,,,,,,,,,,,,,,,,,,,,,,restaurant,,,,POINT (77.5394749 12.9931607)
Happy Tooth,other,12.9744193,77.5336479,osm,Bangalore,,,,560040,,Vijayanagar Water Tank Road,hospital,,,,,,,,,,,,,,,,,,,,,,,,,,,,,,,,no,,,,,,,,,,,,,,,,,,,,,,,,,,,,,,,,,,,,,,,,,,,,,,,,,,,,,,,,,,,,,,,,,,,,,,,,,,,,,,,,,,,,,,,,,,,,,,,,,,,,,,,,,,,,,,,,,,,,,,,,,,,,,,,,,,,,,,,other,,,,POINT (77.5336479 12.9744193)
Pinewood High School,other,12.9751013,77.5311252,osm,Bangalore,,,,560040,,Nagarabhavi Road,school,,,,,,,,,,,,,,,,,,,,,,,,,,,,,,,,,,,,"Next to Shobha Hospital, Vijayanagar",,,,,,,,,,,,,,,,,,,,,,,,,,,,,,,,,,,,,,,,,,,,,,,,,,,,,,,,,,,,,,,,,,,,,,,,,,,,,,,,,,,,,,,,,,,,,,,,,,,,,,,,,,,,,,,,,,,,,,,,,,,,,,,,,,,other,,,,POINT (77.5311252 12.9751013)
Cordial High School,other,12.9754931,77.5324927,osm,Bangalore,,,,560040,,11th Cross,school,,,,,,,,,,,,,,,,,,,,,,,,,,,,,,,,,,,,Vijayanagar,,,,,,,,,,,,,,,,,,,,,,,,,,,,,,,,,,,,,,,,,,,,,,,,,,,,,,,,,,,,,,,,,,,,,,,,,,,,,,,,,,,,,,,,,,,,,,,,,,,,,,,,,,,,,,,,,,,,,,,,,,,,,,,,,,,other,,,,POINT (77.5324927 12.9754931)
Rishi Women and Child Clinic,other,12.9745812,77.532699,osm,Bangalore,,,,560040,,Vijayanagar Water Tank Road,hospital,,,,,,,,,,,,,,,,,,,,,,,,,,,,,,,,,,,,Vijayanagar,,,,,,,,,,,,,,,,,,,,,,,,,,,,,,,,,,,,,,,,,,,,,,,,,,,,,,,,,,,,,,,,,,,,,,,,,,,,,,,,,,,,,,,,,,,,,,,,,,,,,,,,,,,,,,,,,,,,,,,,,,,,,,,,,,,other,,,,POINT (77.532699 12.9745812)
Rishi Medicals,pharmacy,12.974626,77.5326702,osm,Bangalore,,,,560040,,Vijayanagar Water Tank Road,pharmacy,,,,,,,,,,,,,,,,,,,,,,,,,,,,,,,,,,,,Vijayanagar,,,,,,,,,,,,,,,,,,,,,,,,,,,,,,,,,,,,,,,,,,,,,,,,,,,,,,,,,,,,,,,,,,,,,,,,,,,,,,,,,,,,,,,,,,,,,,,,,,,,,,,,,,,,,,,,,,,,,,,,,,,,,,,,,,,healthcare,,,,POINT (77.5326702 12.974626)
Frank Ross Pharmacy,pharmacy,12.9709607,77.5370233,osm,Bangalore,,,,560040,,Chord Road,pharmacy,,,,,,,,,,,,,,pharmacy,,,,,,,,,,,,,,,,,,,,,,"Service road, Near Metro Station",,,,,,,,,,,,,,,,,,,,,,,,,,,,,,,,,,,,,,,,,,,,,,,,,,,,,,,,,,,,,,,,,,,,,,,,,,,,,,,,,,,,,,,,,,,,,,,,,,,,,,,,,,,,,,,,,,,,,,,,,,,,,,,,,,,healthcare,,,,POINT (77.5370233 12.9709607)
Saviruchi Fast Food,fast_food,12.9710286,77.536798,osm,Bangalore,,,,560040,,Chord Road,fast_food,,,,,,,,,,,,,,,,,,,,,,,,,,,,,,,,,,,,"Near, Bank of Baroda",,,,,,,,,,,,,,,,,,,,,,,,,,,,,,,,,,,,,,,,,,,,,,,,,,,,,,,,,,,,,,,,,,,,,,,,,,,,,,,,,,,,,,,,,,,,,,,,,,,,,,,,,,,,,,,,,,,,,,,,,,,,,,,,,,,restaurant,,,,POINT (77.536798 12.9710286)
Royal's Coffe House,cafe,12.9709921,77.5368677,osm,Bangalore,,,,560040,,Chord Road,cafe,,,,,,,,,,,,,,,,,,,,,,,,,,,,,,,,,,,,"Near Metro Station, Vijaynagar",,,,,,,,,,,,,,,,,,,,,,,,,,,,,,,,,,,,,,,,,,,,,,,,,,,,,,,,,,,,,,,,,,,,,,,,,,,,,,,,,,,,,,,,,,,,,,,,,,,,,,,,,,,,,,,,,,,,,,,,,,,,,,,,,,,cafe,,,,POINT (77.5368677 12.9709921)
Penta Care Ayurvedic Hospital,other,12.9736894,77.5369482,osm,Bangalore,,,,560040,,Vijayanagar Water Tank Road,hospital,,,,,,,,,,,,,,,,,,,,,,,,,,,,,,,,,,,,Near Ganapathi Temple,,,,,,,,,,,,,,,,,,,,,,,,,,,,,,,,,,,,,,,,,,,,,,,,,,,,,,,,,,,,,,,,,,,,,,,,,,,,,,,,,,,,,,,,,,,,,,,,,,,,,,,,,,,,,,,,,,,,,,,,,,,,,,,,,,,other,,,,POINT (77.5369482 12.9736894)
Shalini Nursing & MAternity Home,other,12.9436624,77.5419997,osm,Bangalore,,,63,560085,,6th Main Road,hospital,,,,,,,,,,,,,,,,,,,,,,,,,,,,,,,,,,,,Near BDA Park,,,,,,,,,,,,,,,,,,,,,,,,,,,,,,,,,,,,,,,,,,,,,,,,,,,,,,,,,,,,,,,,,,,,,,,,,,,,,,,,,,,,,,,,,,,,,,,,,,,,,,,,,,,,,,,,,,,,,,,,,,,,,,,,,,,other,,,,POINT (77.5419997 12.9436624)
Bunny Bakes,bakery,12.9604935,77.5294107,osm,Bangalore,,,,560040,,,,,,,,,,,,,,,bakery,,,,,,,,,,,,,,,,,,,,,,,,"Below Spirit Junction, Chandra Layout, Vijayanagar",,,,,,,,,,,,,,,,,,,,,,,,,,,,,,,,,,,,,,,,,,,,,,,,,,,,,,,,,,,,,,,,,,,,,,,,,,,,,,,,,,,,,,,,,,,,,,,,,,,,,,,,,,,,,,,,,,,,,,,,,,,,,,,,,,,other,,,,POINT (77.5294107 12.9604935)
Goli Vada Paav,fast_food,12.9606776,77.5286519,osm,,,,,,,,fast_food,,,ಗೋಲಿ ವಡ ಪಾವ್,,,,,,,,,,,,,,,,,,,,,,,,,,,,,,,,,,,,,,,,,,,,,,,,,,,,,,,,,,,,,,,,,,,,,,,,,,,,,,,,,,,,,,,,,,,,,,,,,,,,,,,,,,,,,,,,,,,,,,,,,,,,,,,,,,,,,,,,,,,,,,,,,,,,,,,,,,,,,,,,,,,,restaurant,,,,POINT (77.5286519 12.9606776)
Ammi's Biryani,restaurant,12.9607284,77.5284077,osm,Bangalore,,,,560040,,4th Main Road,restaurant,,,ಅಮ್ಮಿ ಬಿರಿಯಾನಿ,,,,,,,,,,,,,,,,,,,,,,,,,,,,,,,,,"Opp HP Petrol Pump, Chandra Layout, Vijayanagar",,,,,,,,,,,,,,,,,,,,,,,,,,,,,,,,,,,,,,,,,,,,,,,,,,,,,,,,,,,,,,,,,,,,,,,,,,,,,,,,,,,,,,,,,,,,,,,,,,,,,,,,,,,,,,,,,,,,,,,,,,,,,,,,,,,restaurant,,,,POINT (77.5284077 12.9607284)
Karnataka Bank,bank,12.9606617,77.5271701,osm,Bangalore,,,,560040,,9th Cross Road,bank,,,ಕರ್ನಾಟಕ ಬ್ಯಾಂಕ್,,+91 80 22955814,http://www.karnatakabank.com/,,Karnataka Bank,Q2042632,,,,,,,,,,,,,,,,,,,,,,,,,,,"Chandra Layout, Vijayanagar",,,,,,,,,,,,,,,,,,,,,,,,,,,,,,,,,,,,,,,,,,,,,,,,,,,,,,,,,,,,,,,,,,,,,,,,,,,,,,,,,,,,,,,,,,,,,,,,,,,,,,,,,,,,,,,,,,,,,,,,,,,,,,,,,,,finance,,,,POINT (77.5271701 12.9606617)
Polar Bear,cafe,12.9602967,77.5302803,osm,Bangalore,,,,560040,,,cafe,,,,,,,,,,,,,,,,,ice_cream,,,,,,,,,,,,,,,,,,,"Near Attiguppe Bus Stop, Chandra Layout",,,,,,,,,,,,,,,,,,,,,,,,,,,,,,,,,,,,,,,,,,,2025-03-14,,,,,,,,,,,,,,,,,,,,,,,,,,,,,,,,,,,,,,,,,,,,,,,,,,,,,,,,,,,,,,,,,,,,,,,,,,,,,,,,,,,,,,,,cafe,,,,POINT (77.5302803 12.9602967)
Total Gas,fuel,12.9669405,77.5470005,osm,Bangalore,,,,,,Hosahalli Main Road,fuel,,,,,,,,Total,Q154037,,,,,,,,,,,,,,,,,,yes,,,,,,,,,Vijayanagar,,,,,,,,,,,,,,,,,,,,,,,,,,,,,,,,,,,,,,,,,,,,,,,,,,,,,,,,,,,,,,,,,,,,,,,,,,,,,,,,,,,,,,,,,,,,,,,,,,,,,,,,,,,,,,,,,,,,,,,,,,,,,,,,,,,other,,,,POINT (77.5470005 12.9669405)
Indian Oil,fuel,12.9673086,77.5461504,osm,Bangalore,,,,560040,,Hosahalli Main Road,fuel,,,ಇಂಡಿಯನ್ ಆಯಿಲ್,,,,,Indian Oil,Q1289348,en:Indian Oil Corporation,,,,,,,,,,,,,,,,,yes,,,,,,,,,Vijayanagar,,,,,,,,,,,,,,,,,,,,,,,,,,,,,,,,,,,,,,,,,,,,,,,,,,,,,,,,,,,,,,,,,,,,,,,,,,,,,,,,,,,,,,,,,,,,,,,,,,,,,,,,,,,,,,,,,,,,,,,,,,,,,,,,,,,other,,,,POINT (77.5461504 12.9673086)
Ganesh Medicals & General Store,pharmacy,12.9634823,77.5523641,osm,Bangalore,,,,,,Hosahalli Main Road,pharmacy,,,,,,,,,,,,,,pharmacy,,,,,,,,,,,,,,,,,,,,,,Goripalya,,,,,,,,,,,,,,,,,,,,,,,,,,,,,,,,,,,,,,,,,,,,,,,,,,,,,,,,,,,,,,,,,,,,,,,,,,,,,,,,,,,,,,,,,,,,,,,,,,,,,,,,,,,,,,,,,,,,,,,,,,,,,,,,,,,healthcare,,,,POINT (77.5523641 12.9634823)
Patanjali Arogya Kendra,pharmacy,12.9737726,77.5360981,osm,Bangalore,,,,560040,,Vijayanagar Water Tank Road,pharmacy,,,ಪತಂಜಲಿ ಆರೋಗ್ಯ ಕೇಂದ್ರ,,,,,,,,,,,,,,,,,,,,,,,,,,,,,,,,,Vijaynagar,,,,,,,,,,,,,,,,,,,,,,,,,,,,,,,,,,,,,,,,,,,,,,,,,,,,,,,,,,,,,,,,,,,,,,,,,,,,,,,,,,,,,,,,,,,,,,,,,,,,,,,,,,,,,,,,,,,,,,,,,,,,,,,,,,,healthcare,,,,POINT (77.5360981 12.9737726)
Kottkkal Arya Vaidya Shala,pharmacy,12.9738549,77.5359264,osm,Bangalore,,,,560040,,Vijayanagar Water Tank Road,pharmacy,,,,,,,,,,,,,,,,,,,,,,,,,,,,"Mo-Sa 09:00-13:00, 16:00-20:30",,Kottakkal Arya Vaidya Sala,,,,,,Vijayanagar,,,,,,,,,,,,,,,,,,,,,,,,,,,,,,,,,,,,,,,,,,,,,,,,,,,,,,,,,,,,,,,,,,,,,,,,,,,,,,,,,,,,,,,,,,,,,,,,,,,,,,,,,,,,,,,,,,,,,,,,,,,,,,,,,,,healthcare,,,,POINT (77.5359264 12.9738549)
Benaka Sweets,bakery,12.9726552,77.5378281,osm,Bangalore,,,,560040,,Chord Road,,,,,,,,,,,,,bakery,,,,,,,,,,,,,,,,,,,,,,,,"Service Road, Near Indraprastha Hotel, Vijayanagar",,,,,,,,,,,,,,,,,,,,,,,,,,,,,,,,,,,,,,,,,,,,,,,,,,,,,,,,,,,,,,,,,,,,,,,,,,,,,,,,,,,,,,,,,,,,,,,,,,,,,,,,,,,,,,,,,,,,,,,,,,,,,,,,,,,other,,,,POINT (77.5378281 12.9726552)
Panchavati,restaurant,12.9728225,77.537934,osm,Bangalore,,,,560040,,Chord Road,restaurant,,,ಪಂಚವತಿ,,,,,,,,,,,,,,Andhra,,,,,,,,,,,,,,,,,,,"Service Road, Near Vijayanagar Bus Stop, Vijayanagar",,,,,,,,,,,,,,,,,,,,,,,,,,,,,,,,,,,,,,,,,,,,,,,,,,,,,,,,,,,,,,,,,,,,,,,,,,,,,,,,,,,,,,,,,,,,,,,,,,,,,,,,,,,,,,,,,,,,,,,,,,,,,,,,,,,restaurant,,,,POINT (77.537934 12.9728225)
Canara Bank,bank,12.9727546,77.5378992,osm,Bangalore,,,,560040,,Chord Road,bank,,,ಕೆನರಾ ಬ್ಯಾಂಕ್,,,https://www.canarabank.com/,,Canara Bank,Q2003777,en:Canara Bank,,,,,,,,,,,,,,,,,,,,Canara Bank,,,,,,"Service Road, near Vijayanagar Bus Stop",Canara Bank,केनरा बैंक,ಕೆನರಾ ಬ್ಯಾಂಕ್,ਕੇਨਰਾ ਬੈਂਕ,کینرا بینک,کینرا بینک,ਕੇਨਰਾ ਬੈਂਕ,केनरा बैंक,ਕੇਨਰਾ ਬੈਂਕ,کینرا بینک,کینرا بینک,,,,,,,,,,,,,,,,,,,,,,,,,,,,,,,,,,,,,,,,,,,,,,,,,,,,,,,,,,,,,,,,,,,,,,,,,,,,,,,,,,,,,,,,,,,,,,,,,,,,,,,,,,,,,,,,,,,,,,,,finance,,,,POINT (77.5378992 12.9727546)
Hotel Karavali,restaurant,12.9728818,77.5400131,osm,Bangalore,,,,560040,,5th Main,restaurant,,,,,,,,,,,,,,,,,regional,,,,,,,,,,,,,,,,,,,Vijayanagar,,,,,,,,,,,,,,,,,,,,,,,,,,,,,,,,,,,,,,,,,,,,,,,,,,,,,,,,,,,,,,,,,,,,,,,,,,,,,,,,,,,,,,,,,,,,,,,,,,,,,,,,,,,,,,,,,,,,,,,,,,,,,,,,,,,restaurant,,,,POINT (77.5400131 12.9728818)
Alemane Cane Juice,cafe,12.9728604,77.5392872,osm,,,,,,,,cafe,,,,,,,,,,,,,,,,,,,,,,,,,,,,,,,,,,,,,,,,,,,,,,,,,,,,,,,,,,,,,,,,,,,,,,,,,,,,,,,,,,,,,,,,,,,,,,,,,,,,,,,,,,,,,,,,,,,,,,,,,,,,,,,,,,,,,,,,,,,,,,,,,,,,,,,,,,,,,,,,,,,,,,,cafe,,,,POINT (77.5392872 12.9728604)
Gokul Veg,restaurant,12.9727493,77.5389814,osm,Bangalore,,,,560040,,Service Road,restaurant,,,,,,,,,,,,,,,,,regional,,,,,,,,,,,,,,,,,,,"Above Food World, Vijayanagar",,,,,,,,,,,,,,,,,,,,,,,,,,,,,,,,,,,,,,,,,,,,,,,,,,,,,,,,,,,,,,,,,,,,,,,,,,,,,,,,,,,,,,,,,,,,,,,,,,,,,,,,,,,,,,,,,,,,,,,,,,,,,,,,,,,restaurant,,,,POINT (77.5389814 12.9727493)
Shreya Poly Clinic,other,12.9729127,77.5394723,osm,Bangalore,,,,560040,,6th Main,hospital,,,,,,,,,,,,,,,,,,,,,,,,,,,,,,,,,,,,"Service Road, Near Park View, Vijayanagar",,,,,,,,,,,,,,,,,,,,,,,,,,,,,,,,,,,,,,,,,,,,,,,,,,,,,,,,,,,,,,,,,,,,,,,,,,,,,,,,,,,,,,,,,,,,,,,,,,,,,,,,,,,,,,,,,,,,,,,,,,,,,,,,,,,other,,,,POINT (77.5394723 12.9729127)
Landmark,convenience,13.0101713,77.5549686,osm,Bangalore,,,G28,,,Dr. Rajkumar Road,,,,,,,,,,,,,convenience,,,,,,,,,,,,,,,,,,,,,,,,"ground Floor, Orion Mall",,,,,,,,,,,,,,,,,,,,,,,,,,,,,,,,,,,,,,,,,,,,,,,,,,,,,,,,,,,,,,,,,,,,,,,,,,,,,,,,,,,,,,,,,,,,,,,,,,,,,,,,,,,,,,,,,,,,,,,,,,,,,,,,,,,retail,,,,POINT (77.5549686 13.0101713)
Fresh and ground,cafe,12.989651,77.5377152,osm,Bangalore,,,,,,1st main Basaveshwaranagar,cafe,,,,,,,,,,,,,,,,,coffee_shop,,,,,,,,,,,,,,,,,,,"Opp Bank of India, Basaveshwara Nagar",,,,,,,,,,,,,,,,,,,,,,,,,,,,,,,,,,,,,,,,,,,,no,,,,,,,,,,,,,,,,,,,,,,,,,,,,,,,,,,,,,,,,,,,,,,,,,,,,,,,,,,,,,,,,,,,,,,,,,,,,,,,,,,,,,,,cafe,,,,POINT (77.5377152 12.989651)
Gold's Gym,gym,12.9923206,77.5384859,osm,Bangalore,,,,560079,,Siddhaiah Puranik Road,,,,ಗೊಲ್ಡ್ಸ್ ಜಿಮ್,,,,,Gold's Gym,Q1536234,,,,,,,,,,,,,,,,,,,,,,,,,,,"Above World of Titan, Basaveshwara Nagar",,,,,,,,,,,,,,,,,,,,,,,,,,,,,,,,,,,,,,,,,,,,,,,,,,,,,,,,,,,,,,,,,,fitness_centre,,,,,,,,,,,,,,,,,,,,,,,,,,,,,,,,,,,,,,,,,,,,,,,,,,,,,,,,,,,,,,,,,other,,,,POINT (77.5384859 12.9923206)
Omkar Refill Station,fuel,12.9702784,77.5246208,osm,Bangalore,,,,,,Nagarabhavi Road,fuel,,,,,,,,,,,Bharat Petroluem,,,,,,,,,,,,,,,,yes,,,,,,,,,Moodapalya Circle,,,,,,,,,,,,,,,,,,,,,,,,,,,,,,,,,,,,,,,,,,,,,,,,,,,,,,,,,,,,,,,,,,,,,,,,,,,,,,,,,,,,,,,,,,,,,,,,,,,,,,,,,,,,,,,,,,,,,,,,,,,,,,,,,,,other,,,,POINT (77.5246208 12.9702784)
Shri Guru Upahara,fast_food,12.9704143,77.5249373,osm,Bangalore,,,,,,Nagarabhavi Road,fast_food,,,,,,,,,,,,,,,,,regional,,,,,,,,,,,,,,,,,,,Moodapalya Circle,,,,,,,,,,,,,,,,,,,,,,,,,,,,,,,,,,,,,,,,,,,,,,,,,,,,,,,,,,,,,,,,,,,,,,,,,,,,,,,,,,,,,,,,,,,,,,,,,,,,,,,,,,,,,,,,,,,,,,,,,,,,,,,,,,,restaurant,,,,POINT (77.5249373 12.9704143)
Hotel Savaji's,restaurant,12.9737304,77.543367,osm,Bangalore,,,,,,Chord Road,restaurant,,,,,,,,,,,,,,,,,,,,,,,,,,,,,,,,,,,,"Above Citi Bank ATM, Vijayanagar",,,,,,,,,,,,,,,,,,,,,,,,,,,,,,,,,,,,,,,,,,,,,,,,,,,,,,,,,,,,,,,,,,,,,,,,,,,,,,,,,,,,,,,,,,,,,,,,,,,,,,,,,,,,,,,,,,,,,,,,,,,,,,,,,,,restaurant,,,,POINT (77.543367 12.9737304)
Tejas Ayurvedic Center,pharmacy,12.9727738,77.5371175,osm,Bangalore,,,,560040,,10th Main Road,pharmacy,,,,,,,,,,,,,,pharmacy,,,,,,,,,,,,,,,,,,,,,,Vijayanagar,,,,,,,,,,,,,,,,,,,,,,,,,,,,,,,,,,,,,,,,,,,,,,,,,,,,,,,,,,,,,,,,,,,,,,,,,,,,,,,,,,,,,,,,,,,,,,,,,,,,,,,,,,,,,,,,,,,,,,,,,,,,,,,,,,,healthcare,,,,POINT (77.5371175 12.9727738)
Arya Sweets & Bakers,bakery,12.9734168,77.541865,osm,Bangalore,,,,560040,,Chord Road,,,,,,,,,,,,,bakery,,,,,,,,,,,,,,,,,,,,,,,,"Near Hotel Shantisagar, Vijayanagar",,,,,,,,,,,,,,,,,,,,,,,,,,,,,,,,,,,,,,,,,,,,,,,,,,,,,,,,,,,,,,,,,,,,,,,,,,,,,,,,,,,,,,,,,,,,,,,,,,,,,,,,,,,,,,,,,,,,,,,,,,,,,,,,,,,other,,,,POINT (77.541865 12.9734168)
Beijing Bites,restaurant,12.9606895,77.5287669,osm,Bangalore,,,,,,4th Main Road,restaurant,,,ಬೀಜಿಂಗ್ ಬೈಟ್ಸ್,,,,,,,,,,,,,,chinese,,,,,,,,,,,,,,,,,,,Chandra Layout,,,,,,,,,,,,,,,,,,,,,,,,,,,,,,,,,,,,,,,,,,,,,,,,,,,,,,,,,,,,,,,,,,,,,,,,,,,,,,,,,,,,,,,,,,,,,,,,,,,,,,,,,,,,,,,,,,,,,,,,,,,,,,,,,,,restaurant,,,,POINT (77.5287669 12.9606895)
Anurag Medical Center,other,12.9612829,77.5271683,osm,Bangalore,,,,,,4th Main Road,hospital,,,,,,,,,,,,,,hospital,,,,,,,,,,,,,,,,,,no,,,,"Below Food World, Chandra Layout",,,,,,,,,,,,,,,,,,,,,,,,,,,,,,,,,,,,,,,,,,,,,,,,,,,,,,,,,,,,,,,,,,,,,,,,,,,,,,,,,,,,,,,,,,,,,,,,,,,,,,,,,,,,,,,,,,,,,,,,,,,,,,,,,,,other,,,,POINT (77.5271683 12.9612829)
Mohan Medicals,pharmacy,12.9609849,77.5269939,osm,Bangalore,,,,,,4th Main Road,pharmacy,,,,,953555104,,,,,,,,,pharmacy,,,,,,,,,,,,,,"09:00-14:00,17:00-22:00",,Mohan Medicals,,,,,,Chandra Layout,,,,,,,,,,,,,,,,,,,,,,,,,,,,,,,,,,,yes,yes,,,,,,,2024-04-10,,,,,,,,,,,,,,,,,,,,,,,,yes,,,,,,,,,,,,,,,,,,,,,,,,,,,,,,,,,,,,,,,,,,,,,,,,,,,,,,,,,,,,,,,,healthcare,,,,POINT (77.5269939 12.9609849)
Behtar Super Market,supermarket,12.9682121,77.5303413,osm,Bangalore,,,,,,Marenhalli Main Road,,,,,,,,,,,,,supermarket,,,,,,,,,,,,,,,,,,,,,,,,"Vinayaka Layout, Vijayanagar",,,,,,,,,,,,,,,,,,,,,,,,,,,,,,,,,,,,,,,,,,,,,,,,,,,,,,,,,,,,,,,,,,,,,,,,,,,,,,,,,,,,,,,,,,,,,,,,,,,,,,,,,,,,,,,,,,,,,,,,,,,,,,,,,,,retail,,,,POINT (77.5303413 12.9682121)
New Prashanth Hotel,restaurant,12.9985477,77.5510414,osm,,,,,,,,restaurant,,,ಪ್ರಶಾಂತ್ ಹೋಟೆಲ್,,,,no,,,,,,,,,,regional,,,,,,,,,,,,,,,,,,,,,,,,,,,,,,,,,,,,,,,,,,,,,,,,,,,,,,,,,,,,,,,,,,,,,,,,,,,,,,,,,,,,,,,Restaurant,,,,,,,,,,,,,,,,,,,,,,,,,,,,,,,,,,,,,,,,,,,,,,,,,,,,,,,,,,,,,,,restaurant,,,,POINT (77.5510414 12.9985477)
Crane Crush,cafe,12.9855811,77.5556847,osm,,,,,,,,cafe,,,,,,,,,,,,,,,,,regional,,,,,,,,,,,,,,,,,,,,,,,,,,,,,,,,,,,,,,,,,,,,,,,,,,,,,,,,,,,,,,,,,,,,,,,,,,,,,,,,,,,,,,,,,,,,,,,,,,,,,,,,,,,,,,,,,,,,,,,,,,,,,,,,,,,,,,,,,,,,,,,,,,,,,,cafe,,,,POINT (77.5556847 12.9855811)
State Bank of India,bank,12.9846268,77.5558117,osm,,,,,,,,bank,,,ಭಾರತೀಯ ಸ್ಟೇಟ್ ಬ್ಯಾಂಕ್,,,,,State Bank of India,Q1340361,en:State Bank of India,,,,,,,,,,,,,,,,,,,yes,,SBI,,,,,,,,,,,,,,,,,,,,,,,,,,,,,,,,,,,,,,,,,,,,,,,,,,,,,,,,,,,,,,,,,,,,,,,,,,,,,,,,,,,,,,,,,,,,,,,,,,,,,,,,,,,,,,,,,,,,,,,,,,,,,,,,,,,,,,,,finance,,,,POINT (77.5558117 12.9846268)
Pragathi Ayurvedic Center,other,12.9843701,77.555666,osm,,,,,,,,hospital,,,,,,,no,,,,,,,,,,,,,,,,,,,,,,,,,,,,,,,,,,,,,,,,,,,,,,,,,,,,,,,,,,,,,,,,,,,,,,,,,,,,,,,,,,,,,,,,,,,,,,,,,,,,,,,,,,,,,,,,,,,,,,,,,,,,,,,,,,,,,,,,,,,,,,,,,,,,,,,,,,,,,,,,other,,,,POINT (77.555666 12.9843701)
State Bank of India,bank,12.9307552,77.5475178,osm,,,,,,,,bank,,,ಭಾರತೀಯ ಸ್ಟೇಟ್ ಬ್ಯಾಂಕ್,,,https://www.sbi.co.in,,,Q1340361,en:State Bank of India,,,,,,,,,,,,,,,,,,Mo-Fr 09:00-16:30,yes,,SBI,,,,,,,,,,,,,,,,,,,,,,,,,,,,,,,,,,,,,,,,,,,,,,,,,,,,,,,,,,,,,,Kathriguppe,,,,,,,,,,,,,,,,,,,,,,,,,,,,,,,,,,,,,,,,,,,,,,,,,,,,,,,,,,,,,,,,,,,,,,,,,,finance,,,,POINT (77.5475178 12.9307552)
Gandharva Sip & Dine;ICICI Bank,bank,12.9580924,77.5341659,osm,,,,1st Floor,,,RPC Layout,bank,,,,,,,,,,,,,,,,,,,,,,,,,,,,,yes,,,,,,,Poornima Complex,,,,,,,,,,,,,,,,,,,,,,,,,,,,,,,,,,,,,,,,,,,,,,,,,,,,,,,,,,,,,,,,,,,,,,,,,,,,,,,,,,,,,,,,,,,,,,,,,,,,,,,,,,,,,,,,,,,,,,,,,,,,,,,,,,,finance,,,,POINT (77.5341659 12.9580924)
State Bank of India,bank,12.9578735,77.5342317,osm,,,,,,,,bank,,,ಭಾರತೀಯ ಸ್ಟೇಟ್ ಬ್ಯಾಂಕ್,,,,,State Bank of India,Q1340361,en:State Bank of India,,,,,,,,,,,,,,,,,,,,,SBI,,,,,,,,,,,,,,,,,,,,,,,,,,,,,,,,,,,,,,,,,,,,,,,,,,,,,,,,,,,,,,RPC Layout Branch,,,,,,,,,,,,,,,,,,,,,,,,,,,,,,,,,,,,,,,,,,,,,,,,,,,,,,,,,,,,,,,,,,,,,,,,,,finance,,,,POINT (77.5342317 12.9578735)
By-two Coffee,cafe,12.9649244,77.5387391,osm,Bangalore,,,,560040,,"5th Main, Vijayanagar",cafe,,,,,9844086711/9880428819,,,,,,,,,,,,South_Indian,,,,,,,,,,,Mo-Su 09:30-21:00,,,,,,,,,,,,,,,,,,,,"Holige, Idli, Dose available",,,,,,,,,,,,,,no,,,,,,,,,,,,,,,,,,no,,,,,,,,,,,,,,,,,,,,,,,,,,,,,,,,,,,,,,,,,,,,,,,,,,,,,,,,,,,,,,,,,,,,,,,,,,,,,,,,,,,,,,,cafe,,,,POINT (77.5387391 12.9649244)
Sharavathi Hospitals (P) Ltd.,other,12.9623406,77.5342853,osm,,Bengaluru Urban,"No.1133/F,30 Ft.Service Road, R.P.C. Layout,Vijaynagar",,560040,Karnataka,,hospital,,,,,,,,,,,,,,hospital,,,,,,,,,,,,,,,,,,,,,,,,,,,,,,,,,,,,,,,,,,,,,,,,,,,,,,,,,,,,,,,,,,,,,,,,,,,,,,,,,,,,,,,,,,,,,,,,,,,,,,,,,,,,,,,,,,,,,,,,,,,,,,,,,,,,,,,,,,,,,,,,,,,,,,,,,other,,,,POINT (77.5342853 12.9623406)
Village Super Market,supermarket,12.961299,77.5265056,osm,,,,,560072,,,,,,,,,,,,,,,supermarket,,,,,,,,,,,,,,,,,,,,,,,,,,,,,,,,,,,,,,,,,,,,,,,,,,,,,,,,,,,,,,,,,,,,,,,,,,,,,,,,,,,,,,,,,,,,,,,,,,,,,,,,,,,,,,,,,,,,,,,,,,,,,,,,,,,,,,,,,,,,,,,,,,,,,,,,,,,retail,,,,POINT (77.5265056 12.961299)
