name,category,latitude,longitude,cluster_label,is_hotspot
ICICI Bank,bank,12.9331091,77.5835191,1,False
State Bank of India,bank,12.9365346,77.627846,0,True
Bharat Petroleum,fuel,12.9365895,77.5804447,1,False
Sukh Sagar,restaurant,12.9333646,77.6230728,0,True
Foodworld,supermarket,12.9328185,77.5830433,1,False
ICICI Bank,bank,12.9353555,77.6148616,0,True
Bharat Petroleum,fuel,12.9356671,77.6144578,0,True
Garuda Mall Parking,parking,12.9703806,77.6094191,2,True
Sukh Sagar,restaurant,12.9741824,77.5753745,3,False
Adyar Ananda Bhavan,restaurant,12.9543746,77.5930172,2,True
Thom's Bakery,bakery,12.9915471,77.614181,5,False
Koshy's,restaurant,12.9756318,77.6014761,2,True
Konārk,restaurant,12.9688102,77.6021434,2,True
Old Madras Baking Company,cafe,12.9697383,77.6003775,2,True
Hard Rock Cafe,restaurant,12.9762256,77.6014809,2,True
Sri Raghavendra,restaurant,12.9778503,77.5722059,3,False
Hotel Hindustan,hotel,12.9762752,77.5767096,3,False
Anand Sagar Punjabi Dhaba,restaurant,12.9760075,77.5763577,3,False
Hotel Anand Regency,hotel,12.9769025,77.5763491,3,False
Mavalli Tiffin Rooms,restaurant,12.9550389,77.5854279,4,False
Hyderbad Biryani House,restaurant,12.9665538,77.6141032,2,True
Canara Bank,bank,13.0169379,77.5645125,-1,False
Thambis's Inetcafé,cafe,13.0194682,77.6332105,-1,False
Hallimane,restaurant,12.9955258,77.5717703,3,False
Sri Krishna Lodge,hotel,12.9932258,77.5717309,3,False
State Bank of India,bank,12.9730205,77.5804826,3,False
Bank of India,bank,12.9738444,77.578582,3,False
Indian Bank,bank,12.973729,77.578957,3,False
Unknown,parking,12.954643,77.5858156,-1,False
Sacred Hearts Girls School,other,12.9694218,77.6033897,2,True
Adiga's,restaurant,13.0055704,77.5713507,3,False
Infinitea,cafe,12.9870759,77.5947417,2,True
Unknown,restaurant,12.9506894,77.5786753,4,False
Unknown,restaurant,12.9505258,77.5785913,4,False
Unknown,restaurant,12.9507057,77.5784906,4,False
Unknown,restaurant,12.9522306,77.5897955,2,True
State Bank of India,bank,12.9990578,77.5695202,3,False
Carmel High School,other,12.9885908,77.5442935,-1,False
Hyderabad House,restaurant,12.932679,77.6135844,0,True
Nandhini Andhra Hotel,restaurant,12.9932643,77.5957899,2,True
Cafe Coffee Day,cafe,13.0045673,77.5710992,3,False
Reliance Fresh,supermarket,13.0042882,77.5710889,3,False
Stella Maris School,other,13.0064539,77.5780313,3,False
Pai Vihar,restaurant,12.9930635,77.5959522,2,True
HOPCOMS,convenience,13.00559,77.570496,3,False
Reliance smart,supermarket,13.0061977,77.5693737,3,False
Bharat Petroleum,fuel,13.0096888,77.5624992,3,False
ICICI Bank,bank,12.996974,77.5678633,3,False
Vishnu Sagar,restaurant,12.9901236,77.5722985,3,False
Corporation Bank,bank,12.9933312,77.57187,3,False
Emirates,restaurant,13.0192135,77.5572955,6,False
Madrasa-e Arabiya,other,12.9430867,77.5994637,2,True
"Bengaluru Hospital, Susruta Medical Aid AndResearch Home Limited",other,12.9376734,77.5802836,1,False
Indian Oil,fuel,12.9571863,77.5862334,2,True
Upahara Darshini,restaurant,12.9330581,77.584422,1,False
Nagarjuna Chimney,restaurant,12.9330431,77.5843044,1,False
The Only Place,restaurant,12.9732444,77.6033899,2,True
Temple of The Senses,cafe,12.9751034,77.6028435,2,True
Indian Coffee House,restaurant,12.9745397,77.6052505,2,True
Bank of India,bank,13.0016893,77.5694475,3,False
B. P. Indian,other,13.0011737,77.5683395,3,False
Udupi Sri Krishnarajathadri,restaurant,13.0041002,77.5713906,3,False
Chung's,restaurant,13.00654,77.5692833,3,False
Reliance Fresh,supermarket,13.0068052,77.5645334,3,False
HDFC Bank,bank,13.0085194,77.5688573,3,False
Vani Vilas,other,13.0092653,77.5621798,3,False
UCO Bank,bank,13.0055316,77.56985,3,False
SVC Bank,bank,13.0019378,77.5665159,3,False
Pushyamee,pharmacy,13.0006252,77.5652425,3,False
Kotak Mahindra Bank,bank,13.0011328,77.5691982,3,False
Baker's Hut,bakery,13.0002063,77.5697663,3,False
Syndicate Bank,bank,13.0084832,77.5692697,3,False
Kabini Canteen,restaurant,13.0162478,77.5648911,-1,False
State Bank of India,bank,13.0183173,77.5645529,-1,False
Manipal Northside Hospital,other,13.0011275,77.5639285,3,False
Manipal North Side Pharmacy,pharmacy,13.0009721,77.5640265,3,False
Shiro,restaurant,12.971852,77.5964092,2,True
Sandhya Sagar,restaurant,12.9600242,77.6015444,2,True
Utsav,restaurant,12.9601639,77.5945806,2,True
Rasa,restaurant,12.994359,77.5711764,3,False
Unknown,restaurant,13.0068412,77.5789439,3,False
Miller's 46,restaurant,12.991491,77.5941489,2,True
Mint Masala,restaurant,13.0069868,77.5788699,3,False
Juice Junction,cafe,12.9720317,77.6009309,2,True
State Bank of India,bank,12.9819402,77.5955017,2,True
Bowring Stall,cafe,12.9751155,77.6014152,2,True
Kotak Mahindra Bank,bank,12.9762175,77.5993135,2,True
Canara Bank,bank,12.9885568,77.5923112,2,True
Shezan Restaurant,restaurant,12.9871688,77.5946714,2,True
HDFC Bank,bank,12.9888226,77.592415,2,True
Ramana's,restaurant,12.9887039,77.5939333,2,True
St. Sara's School,other,12.946945,77.6175314,0,True
Unknown,parking,12.9744265,77.5909682,2,True
Bharat Petroleum,fuel,12.9758396,77.5985677,2,True
Canara Bank,bank,12.9681567,77.5876645,2,True
State Bank of India,bank,12.9681499,77.5880527,2,True
Nisarga,restaurant,12.9704007,77.5874248,2,True
State Bank of India,bank,13.0074751,77.5793045,3,False
Cafe Coffee Day,cafe,12.9717817,77.5942306,2,True
Dhanlaxmi Bank,bank,12.9751175,77.5976204,2,True
Yes Bank,bank,12.9756522,77.597345,2,True
Corporation Bank,bank,12.9723026,77.5863596,2,True
Deccan school,other,12.9921674,77.5683888,3,False
Anganavadi,other,12.991587,77.5684205,3,False
Government School,other,12.9496275,77.6139658,-1,False
Methodist church school,other,12.9497624,77.6143357,-1,False
Adithya public school,other,12.9499206,77.6151518,-1,False
Government Primary Health Centre,other,12.9503234,77.6162619,-1,False
The Capitol,hotel,12.9822391,77.594459,2,True
Nagasena Vidyalaya,other,13.0140892,77.5760778,-1,False
State Bank of India,bank,13.0139649,77.57891,-1,False
Unknown,parking,12.9744568,77.5956588,2,True
Canteen,restaurant,12.9803653,77.5950694,2,True
Keshava Medical & General Stores,pharmacy,13.0059079,77.578507,3,False
Punjab National Bank,bank,13.0077699,77.5794951,3,False
Cafe Coffee Day,cafe,13.0076197,77.5793977,3,False
Bank of Baroda,bank,13.0071676,77.5790958,3,False
Karnataka Bank,bank,13.0080052,77.5796762,3,False
Syndicate Bank,bank,13.0080972,77.5797261,3,False
Advanced Animation Academy,other,13.0089647,77.580665,3,False
Parkview Hotel,restaurant,12.9758502,77.5891031,-1,False
Chatpat,restaurant,12.9671651,77.580199,3,False
Cane Crush,cafe,12.9697027,77.5796625,3,False
Sri Vinayaka Juice & Chats Center,cafe,12.9742892,77.5778952,3,False
Hotel Madhuvan,restaurant,12.9703805,77.5800395,3,False
Hotel Empire,restaurant,12.9798386,77.6027906,2,True
Sanman Veg,restaurant,12.9847344,77.5971261,2,True
Sweet Chariot,cafe,12.9857313,77.595832,2,True
Canara Bank,bank,12.98693,77.5951971,2,True
S. S. Pharma,pharmacy,12.9965785,77.6045552,5,False
Family Super Market,supermarket,12.9967968,77.6045046,5,False
Indian Bank,bank,12.9993627,77.6008367,-1,False
More,supermarket,12.9998077,77.5996733,-1,False
Arafa Stores,supermarket,12.9969644,77.6041292,5,False
"Namdhari Fresh, Frazer Town",supermarket,13.0009809,77.6138953,5,False
Cafe Coffee Day,cafe,12.9356995,77.6145787,0,True
Sana Di Ge,restaurant,12.9853914,77.5795059,3,False
Pure & Natural,cafe,13.0075715,77.5793658,3,False
New Shanthi Sagar,restaurant,13.0068783,77.5790907,3,False
Saisudha Medical,pharmacy,13.0129089,77.5742856,-1,False
Nikki's Pub & Restaurant,restaurant,13.0144093,77.5736842,-1,False
Sri Balaji Stores,supermarket,13.014268,77.5737154,-1,False
Coffee Day,cafe,12.9736525,77.5801953,3,False
ICICI Bank,bank,12.9706824,77.599609,2,True
Bank of India,bank,12.9708631,77.6010396,2,True
Amruth Vegetarian Restaurant,restaurant,12.9711937,77.6007788,2,True
Hotel Vinitha,restaurant,12.982738,77.6030551,2,True
Hare Krishna Pure Veg Restaurant,restaurant,12.9772698,77.570304,3,False
Balaji Restaurant,restaurant,12.9772479,77.5704213,3,False
Fresh Cane,cafe,12.9734503,77.5751186,3,False
A Masala House,restaurant,12.9893411,77.5929583,2,True
Ramakrishna Nursing Home and Hospital,other,12.9364329,77.583477,1,False
Mini Bazaar,supermarket,13.0068553,77.6241647,5,False
Naasih Montessori Public School,other,13.0016772,77.6138117,5,False
Amruth Medicals,pharmacy,13.0050896,77.623376,5,False
Apollo Pharmacy,pharmacy,13.0052518,77.6233121,5,False
Ebony,restaurant,12.9753625,77.6051643,2,True
Unknown,parking,13.0097345,77.5515655,6,False
HDFC Bank,bank,12.9356089,77.6151797,0,True
More,supermarket,12.9409932,77.544655,7,False
Unknown,bank,12.9394898,77.5451718,7,False
Udupi Upahar,restaurant,12.9387161,77.5534116,7,False
Radhakrishna Pharmacy,pharmacy,12.9408942,77.5456204,7,False
Sri Balaji Medicals and General Stores,pharmacy,12.9403595,77.5458556,7,False
IBP Petrol Station,fuel,12.9380085,77.5496081,7,False
Srinagar Bus Station,bus_station,12.9444378,77.5546637,7,False
Ganesh Bhavan,restaurant,12.9437007,77.5649097,1,False
Sri Vinayaka Poly Clinic,other,12.939058,77.5510802,7,False
The Infantry Hotel,hotel,12.980445,77.604525,2,True
Mallya Audikesh Diagnostics Center,other,12.9815051,77.6011944,2,True
Hotel Maurya,hotel,12.980921,77.576491,3,False
Mallige Medical Centre,other,12.985247,77.5803846,3,False
Hotel Swathi,hotel,12.989096,77.572253,3,False
Saraswati Vidya Mandir,other,12.9340338,77.5874849,1,False
Community English High School,other,12.9387689,77.5841184,1,False
Nalapad's Hotel Bangalore International,hotel,12.9850452,77.579248,3,False
Sudha Lodge,hotel,12.9727609,77.5701982,3,False
Radha Krishna Delux Lodge,hotel,12.9717886,77.5705791,3,False
Ullas Refreshment,restaurant,12.9745381,77.6096029,2,True
Devine Hospital,other,13.0038999,77.6039313,-1,False
Vijay Medicals,pharmacy,13.0044271,77.6037741,-1,False
Elements,restaurant,13.0015628,77.5993592,-1,False
Hungry Panda,restaurant,12.934729,77.6125976,0,True
Hotel Mahaveer,hotel,12.974344,77.5712299,3,False
Canara Bank,bank,12.9443687,77.573044,1,False
Lalbagh Nursing Home,other,12.9452313,77.5861734,-1,False
Highgates Hotel,restaurant,12.9753754,77.6028942,2,True
Hotel Ganga Sagar,hotel,12.944337,77.620028,0,True
Gangothri Restaurant,restaurant,12.9377655,77.6267552,0,True
Pizza Hut,restaurant,12.9398542,77.6251855,0,True
Axis Bank,bank,12.9809052,77.5754392,3,False
Hotel Janardhana,restaurant,12.9856254,77.5788885,3,False
Gandhi Nagar High School,other,12.9910826,77.5789046,3,False
Government Maternity Hospital,other,12.9988604,77.5817424,3,False
Indian Oil,fuel,12.9916942,77.5457901,-1,False
Kabab Studio,restaurant,12.9853569,77.5792692,3,False
Foody's,restaurant,12.9578638,77.5932147,2,True
Olive Beach,restaurant,12.966942,77.60796,2,True
Ubhaya Vedanta Pravarthana Sabha,other,13.0008128,77.5701799,3,False
Unknown,parking,13.0189663,77.5706728,-1,False
Unknown,parking,13.0134359,77.5692344,3,False
Parking for High Voltage Engineering,parking,13.0144226,77.571374,-1,False
Unknown,parking,13.0162227,77.5705882,-1,False
Unknown,parking,13.0169754,77.5704768,-1,False
Unknown,parking,13.0169802,77.5703905,-1,False
Unknown,parking,13.0154714,77.5710469,-1,False
Unknown,parking,13.0177195,77.5712755,-1,False
Unknown,parking,13.0168433,77.5717684,-1,False
Unknown,parking,13.0188203,77.5686314,-1,False
Unknown,parking,13.0173333,77.5684375,-1,False
Unknown,parking,13.016567,77.5704427,-1,False
Unknown,parking,13.0168022,77.570411,-1,False
Unknown,parking,13.0149893,77.5699705,-1,False
Unknown,parking,13.0187044,77.5702515,-1,False
Unknown,parking,13.0154589,77.5697457,-1,False
Unknown,parking,13.0155317,77.5704635,-1,False
Unknown,parking,13.0157314,77.569106,-1,False
Parking- Mathematics Department,parking,13.0187524,77.5690713,-1,False
Unknown,parking,13.0169528,77.5693215,-1,False
Barista,cafe,12.9349444,77.6293498,0,True
Maple's,hotel,12.9353574,77.6293981,0,True
Shree Sagar CTR,restaurant,12.9982568,77.5694946,3,False
Unknown,fuel,12.9950213,77.5964919,2,True
Bun World,bakery,13.0075028,77.5635659,3,False
Unknown,convenience,13.0077909,77.564002,3,False
Sri Ganesh Medicals,pharmacy,13.0077106,77.5640402,3,False
Nirmala Rani High School,other,13.0092904,77.5614979,3,False
Unknown,convenience,13.0078203,77.5639866,3,False
Unknown,other,13.0043642,77.5652959,3,False
Unknown,convenience,13.0069619,77.5644724,3,False
MedPlus,pharmacy,13.0067295,77.5642274,3,False
Homely Organic,supermarket,13.0043093,77.5653307,3,False
Unknown,convenience,13.0038729,77.5653254,3,False
Unknown,convenience,12.9986733,77.5692346,3,False
Food Camp,restaurant,13.0009296,77.5723686,3,False
Sri Sai Dosa Center,restaurant,13.0010829,77.5721394,3,False
Iyengar's Bakery,bakery,13.0011038,77.5723003,3,False
Hotel Ramada,hotel,12.984215,77.6005578,2,True
Eden Park,restaurant,12.9831559,77.5987115,2,True
Cafe Coffee Day,cafe,12.9344118,77.6109865,0,True
India Coffee House,cafe,12.9823242,77.594716,2,True
Fortune Park JP Celestial Hotel,hotel,12.980883,77.575992,3,False
Coast to Coast Sea food restaurant,restaurant,12.9370423,77.6245906,0,True
Tamrind Restaurant,restaurant,12.9342471,77.6234716,0,True
Kubey Seafood Restaurant,restaurant,12.9370998,77.6245424,0,True
Health and Glow,pharmacy,12.9701421,77.6314807,2,True
Total Superstore,supermarket,12.9827809,77.5592036,6,False
U D Residency,restaurant,12.9363255,77.5767626,1,False
NGMA Cafe,cafe,12.9897809,77.5880062,2,True
Sweet Chariot,cafe,12.9359939,77.6151031,0,True
Terminus,hotel,12.9342871,77.6161496,0,True
Latte Tude,cafe,12.9334642,77.6151016,0,True
Lucky da dhaba,restaurant,12.9365445,77.6142714,0,True
Lazeej,restaurant,12.9338202,77.6193658,0,True
Shakti Medical,pharmacy,12.9360494,77.6149821,0,True
Meghna Biryani,restaurant,12.9345967,77.6162526,0,True
Zheng,restaurant,12.9336119,77.6152238,0,True
Golmal Paratha,restaurant,12.9338304,77.6194655,0,True
Costa,cafe,12.9345246,77.6162996,0,True
Aalishan,restaurant,12.9365369,77.614409,0,True
Ping,restaurant,12.9336331,77.622557,0,True
Health And Glow,pharmacy,12.9351354,77.6134273,0,True
Daawat,restaurant,12.9359336,77.6146718,0,True
Atithya,restaurant,12.9362549,77.6145138,0,True
Apollo Pharmacy,pharmacy,12.9363466,77.6146761,0,True
Tunday Kabab,restaurant,12.9338227,77.6193019,0,True
Udupi Upahaara,restaurant,12.9358653,77.6149483,0,True
Friends,cafe,12.9354363,77.6147873,0,True
Cuppa,cafe,12.9333951,77.6155122,0,True
Coorg,restaurant,12.9363343,77.6151183,0,True
KC Das,restaurant,12.9337973,77.6189966,0,True
Adyar Ananda Bhavan,restaurant,12.9358031,77.6147343,0,True
Zingron,restaurant,12.9363805,77.6151025,0,True
Beijing Bites,restaurant,12.9334311,77.6217925,0,True
Blue Petal Business Hotel,hotel,12.9335142,77.6151725,0,True
Lazeez Express,restaurant,12.9341001,77.6164042,0,True
Ammi's Biryani,restaurant,12.936529,77.6146211,0,True
Tandoor Hut,restaurant,12.9338857,77.6194174,0,True
Gem Plaza,mall,12.9803877,77.6046163,2,True
Two-Wheeler Parking,parking,12.9655848,77.584288,2,True
SDS Tuberculosis Research Centre and Rajiv Gandhi Institute of Chest diseases,other,12.9367955,77.5907094,2,True
HDFC Bank,bank,12.9365,77.582432,1,False
Maiya Multispecialty Hospital,other,12.942614,77.5854533,1,False
Cafe Coffee Day,cafe,12.9433387,77.5850711,1,False
Ramdev Medicals,pharmacy,12.9354499,77.5925943,2,True
Wellness Forever,pharmacy,12.9358054,77.5927686,2,True
Delicacy Chinese Restaurant,restaurant,12.9999497,77.6229731,5,False
The Cash Pharmacy,pharmacy,12.9683152,77.6004368,2,True
Corporation Bank,bank,12.932818,77.5842985,1,False
Sai Shakti,restaurant,12.999295,77.5680608,3,False
Residency Pharmacy,pharmacy,12.9668907,77.5986274,2,True
Indian Oil,fuel,12.9420282,77.5802856,1,False
Narayana Netralaya,other,12.9671401,77.6094485,2,True
Sree Mittai,bakery,12.9354419,77.6141569,0,True
Maharaja Complex Multi Storey Parking,parking,12.9733973,77.5781068,3,False
Swathi Deluxe,restaurant,12.9766211,77.5725503,3,False
China Pearl,restaurant,12.9361984,77.6214666,0,True
Pizza Hut,restaurant,12.934525,77.610909,0,True
Sahib Singh Sultan,restaurant,12.935016,77.611357,0,True
Gramin,restaurant,12.934504,77.613547,0,True
Om,restaurant,12.934323,77.613299,0,True
Sri Udupi Swaadista,restaurant,13.0055106,77.5787567,3,False
Maha Bazaar,supermarket,13.0049266,77.5787343,3,False
State Bank of India,bank,13.002535,77.578333,3,False
Canara Bank,bank,13.0022031,77.5783102,3,False
Rajesh Hotel,restaurant,13.0046183,77.5784554,3,False
More,supermarket,12.9341298,77.6109889,0,True
Standard Chartered,bank,12.9333844,77.6132413,0,True
Axis Bank,bank,12.9355699,77.6142407,0,True
Maharaja Restaurant,restaurant,12.934295,77.6300787,0,True
Axis Bank,bank,12.9338627,77.6304381,0,True
State Bank of India,bank,12.9353385,77.6138382,0,True
More Supermarket,supermarket,12.9423147,77.6150065,0,True
Canara Bank,bank,12.9344222,77.6240149,0,True
Fiorano Ristorante,restaurant,12.9331413,77.6228508,0,True
Kotak Mahindra Bank,bank,12.9336643,77.6231619,0,True
IDBI Bank,bank,12.9338891,77.6232852,0,True
Nilgiris,convenience,12.935716,77.6218199,0,True
Bethany High School Koramangala,other,12.9404971,77.6207624,0,True
Apollo Pharmacy,pharmacy,12.9373048,77.6244506,0,True
HP Petrol Pump,fuel,12.933506,77.6303939,0,True
Karur Vysya Bank,bank,12.936103,77.6251968,0,True
Dhanalakshmi Bank,bank,12.9358758,77.6259621,0,True
Dragons,restaurant,12.9414203,77.553445,7,False
SSM Public School,other,12.9328395,77.5638317,-1,False
Corporation Bank,bank,12.9442215,77.5725983,1,False
Food world,supermarket,12.9444504,77.5722351,1,False
St Theresa Pharmacy,pharmacy,13.0061311,77.5536439,6,False
Sowbhagya Traders,supermarket,12.9352032,77.6228947,0,True
Nandhana Grand,restaurant,12.9362976,77.6213531,0,True
Forum bakery,convenience,12.9418577,77.6159961,0,True
Syndicate Bank,bank,12.9372141,77.568841,1,False
Sagar Pharmacy,pharmacy,12.9370493,77.5686801,1,False
Srinivasa Nursing Home,other,12.9423039,77.6174893,0,True
Dim Sum,restaurant,12.9422358,77.6178071,0,True
Apollo Pharmacy,pharmacy,12.9423666,77.6174611,0,True
Kaggi's Bakery,bakery,12.9417187,77.5601963,-1,False
Shiv sagar,restaurant,12.9440288,77.5727582,1,False
Cafe Coffee Day,cafe,12.944502,77.5728401,1,False
Adyar Anand Bhavan,restaurant,12.9444313,77.5729353,1,False
Lassi Park,cafe,12.9330961,77.5823147,1,False
Kamala Nehru Patashala (Emmanual English School),other,12.9339482,77.5664867,-1,False
Sri Lakshmi Venkateshwara Provision Stores,convenience,12.9333966,77.5660039,-1,False
Kangila Clinic,other,12.9336501,77.5660602,-1,False
Rakesh Medicals,pharmacy,12.9336091,77.5661398,-1,False
Subramanya Medicals,pharmacy,12.9334734,77.5661076,-1,False
T R Medicals,pharmacy,12.9327937,77.5677437,-1,False
Adigas,restaurant,12.943764,77.6071874,-1,False
Adaa Restaurant,restaurant,12.934104,77.6164798,0,True
Willy Vanilli,restaurant,12.9368528,77.6203487,0,True
Chung wah,restaurant,12.9366057,77.6205137,0,True
Safal Supermarket,supermarket,12.9364151,77.6144033,0,True
Sathyas Biriyani,restaurant,12.9363015,77.6151475,0,True
Red fort restaurant,restaurant,12.9360411,77.6148636,0,True
Bhojohori manna,restaurant,12.9373691,77.6243143,0,True
Krishna Cafe,restaurant,12.9368986,77.6198954,0,True
Imperial Hotel,restaurant,12.9364077,77.6250803,0,True
heritage of Bengal,restaurant,12.9373234,77.624368,0,True
Anand Sweets and Restaurant,restaurant,12.9369809,77.6197694,0,True
Ocean restaurant,restaurant,12.9368711,77.6248696,0,True
N.E Diner,restaurant,12.9348451,77.6128809,0,True
Thanco Fresh Fruitz Ice-Creams,restaurant,12.9350385,77.6130633,0,True
Mangoa Coastal cuisine,restaurant,12.935577,77.6130901,0,True
Baby's day out,convenience,12.9353286,77.6128207,0,True
Flambe,restaurant,12.9371352,77.619779,0,True
Aangan restaurant,restaurant,12.9365549,77.6165979,0,True
Nandini Shoppe,convenience,12.9364451,77.6170968,0,True
Canara Bank,bank,12.940921,77.5457658,7,False
HDFC Bank Girinagar,bank,12.9405681,77.5459187,7,False
State Bank of India,bank,12.9366883,77.5488033,7,False
Naati oota,restaurant,12.936869,77.6247225,0,True
Sizzlers and more,restaurant,12.9368481,77.6198784,0,True
4 Seasons Suites,hotel,12.9372193,77.619574,0,True
China Bowl restaurant,restaurant,12.936937,77.6202003,0,True
Malabar cafe,restaurant,12.9368899,77.6197711,0,True
Desi Tadka,restaurant,12.9369893,77.6201144,0,True
Chinese Cottage,restaurant,12.9368847,77.6246206,0,True
Iyengar bakers,bakery,12.9351019,77.6230488,0,True
Chalo Punjab,restaurant,12.9377944,77.6266966,0,True
Namdhari's fresh,supermarket,12.9382962,77.626001,0,True
Ambrosia restaurant,restaurant,12.9361835,77.6258638,0,True
OM Stationery and xerox,convenience,12.9364455,77.6255862,0,True
Kwality Walls,restaurant,12.9380577,77.6261445,0,True
"Vasan Eye Care Hospital, Koramangala",other,12.9402371,77.6253403,0,True
Brown Tree Super,supermarket,12.937363,77.626659,0,True
Seventh Day Adventist Hospital,other,12.995625,77.6113272,5,False
Fathima's Girls High School,other,12.9968818,77.6109656,5,False
Third Wave Coffee Roasters,cafe,12.9961239,77.6132737,5,False
Nandini Restaurant,restaurant,12.9959044,77.6130336,5,False
Udupi Shanthi Sagar,restaurant,12.9958364,77.6131543,5,False
Ponnuswamy Restaurant,restaurant,12.9961448,77.6112526,5,False
Reliance Fresh,supermarket,12.9970256,77.611258,5,False
Al-Siddique Kabab Center,restaurant,12.9931105,77.6089191,5,False
Siddique Kabab Center,restaurant,12.9934162,77.608356,5,False
Santosh Institute of Nursing & Research,other,12.9916626,77.6024335,2,True
St. Francis Xavier's High School,other,12.9933042,77.6131994,5,False
St. Joseph's Convent Girls High School,other,12.992426,77.6135802,5,False
Holy Angel's High School,other,12.9938162,77.6144766,5,False
RTC Girls High School,other,12.9926871,77.6141548,5,False
ICICI Bank,bank,12.9947968,77.6152664,5,False
Komala Refreshment,restaurant,12.9960742,77.6170891,5,False
Srinivasa Nursing Home,other,12.9965077,77.6220456,5,False
Vijaya Bank,bank,12.9963828,77.6202753,5,False
Axis Bank,bank,12.9969092,77.6198773,5,False
Babys Planet,convenience,12.9362945,77.6149366,0,True
Kairali Restaurant,restaurant,12.9352294,77.6076048,0,True
Little Italy,restaurant,12.9343755,77.6090481,0,True
Karavali Fine Dine,restaurant,12.935785,77.6076261,0,True
Sultan of Spice,restaurant,12.9335261,77.6152234,0,True
Reliance Footprint,convenience,12.9364168,77.6164628,0,True
Ammis Biriyani,restaurant,12.933536,77.6155026,0,True
Chung Wah Restaurant,restaurant,12.9352797,77.6157628,0,True
Mama mia,restaurant,12.9338001,77.619424,0,True
Boca Grande,restaurant,12.9416947,77.621508,0,True
Federal Bank,bank,12.9420162,77.6219426,0,True
Hopcoms,convenience,12.9365946,77.6176725,0,True
Samipa Bakery,bakery,12.9369341,77.5691786,1,False
Sri Kumaran Children's Home,other,12.9333166,77.5726226,-1,False
SSM Primary School,other,12.9356689,77.5699296,-1,False
Apollo Pharmacy,pharmacy,12.9323571,77.5676123,-1,False
Kumaran Children's High School,other,12.9329402,77.5717482,-1,False
Sri Sai Vijay Mess,restaurant,12.9366298,77.6132797,0,True
Hot Chips,convenience,12.9370062,77.6120888,0,True
Cake Yard,bakery,12.9358593,77.6150138,0,True
Oriental Bank of Commerce,bank,12.9366085,77.6181363,0,True
Oye Amritsar,restaurant,12.9364753,77.621053,0,True
Hot Chips,convenience,12.9362348,77.6210315,0,True
Pizzeria Romano,restaurant,12.9367367,77.6206239,0,True
Casa De Bengaluru,hotel,12.9363256,77.6222355,0,True
Krishna Pharma,pharmacy,12.941581,77.617208,0,True
Cookie Man,bakery,12.9347444,77.6110003,0,True
Corporation Bank,bank,12.9377559,77.6239822,0,True
Pristine Health care,other,12.9382768,77.6186753,0,True
Kiwi kiss,restaurant,12.9388779,77.61893,0,True
State Bank of India,bank,12.9386399,77.6188173,0,True
Booster Juice,cafe,12.93893,77.6189888,0,True
Balaji Medical Store,pharmacy,13.0078494,77.5473216,6,False
Suprabha Hospital,other,13.0079383,77.5469059,6,False
Mahalakshmi Refreshments,cafe,13.0080794,77.5469863,6,False
Sri Dhanvantri Ayurved Bhandara,pharmacy,13.0082414,77.5468871,6,False
Sangolli Nursing Home,other,13.0083564,77.5469273,6,False
Ande ka funda,restaurant,12.9332663,77.6153051,0,True
Diacon Hospital,other,13.0037682,77.5498337,6,False
Cafe 363,cafe,13.0034363,77.5499517,6,False
Cake Palace,bakery,13.0042683,77.5512142,6,False
Unknown,cafe,12.9880757,77.5496789,6,False
Little Lilly's English School,other,13.0092391,77.5478152,6,False
Cane Crush,restaurant,13.0039772,77.5509235,6,False
Sri Vani Education Society,other,13.0037708,77.5547591,6,False
Unity Small Finance Bank,bank,12.9322872,77.6320394,0,True
Unknown,hotel,12.9409092,77.6278297,0,True
Holy Child Convent School,other,12.9373897,77.56002,7,False
SLV Bakery,bakery,12.9348901,77.560782,-1,False
Himalaya Health care - druggists,pharmacy,12.9377532,77.6266479,0,True
Arathi medicals,pharmacy,12.9353953,77.6233434,0,True
Cube Multi-cuisine Restaurant,restaurant,12.938682,77.6299136,0,True
Polynation,restaurant,12.9375545,77.6281177,0,True
Shilton Royale,hotel,12.938785,77.6300973,0,True
HDFC Bank,bank,12.9386872,77.6304956,0,True
Taste of Bihar,restaurant,12.9376735,77.6264373,0,True
CHef Inn Residency,hotel,12.9383855,77.6310907,0,True
Nevaditha school,other,12.9453673,77.5672085,1,False
SSVM GP Branch,other,12.9444263,77.5651593,1,False
Allahabad Bank,bank,12.940021,77.5651693,1,False
Mini Punjabi Dhaba,restaurant,12.9403137,77.5645095,1,False
Ganesh FruitJuice Centre,restaurant,12.9393831,77.5641393,1,False
Shekar Hospital,other,12.9458714,77.5675192,1,False
BASE,other,12.9455787,77.5679644,1,False
Bull Temple Filling Station,fuel,12.9462008,77.5679859,1,False
Cane-o-La,restaurant,12.9449194,77.5680581,1,False
SLV Delite,restaurant,12.9480672,77.5682863,1,False
HSBC,bank,12.9473887,77.568194,1,False
ICICI Bank,bank,12.950339,77.5673443,1,False
Ruby Tuesday,restaurant,12.9746853,77.605772,2,True
Purple Haze,restaurant,12.9729633,77.6086054,2,True
Paris Panini,restaurant,12.974763,77.6051072,2,True
Pizza Hut,restaurant,12.9954523,77.6138486,5,False
Beijing Bites,restaurant,12.9973063,77.6138674,5,False
Albert Bakery,bakery,12.9966022,77.614216,5,False
Empire,restaurant,12.9999459,77.6158737,5,False
Maiyya's Pharmacy,pharmacy,12.9425654,77.5854098,1,False
Reliance Fresh,supermarket,12.932994,77.5852313,1,False
Subz,restaurant,12.9329962,77.5850947,1,False
Union Bank of India,bank,12.9918131,77.6116694,5,False
Unknown,restaurant,12.9822735,77.6078285,2,True
Cool Joint,restaurant,12.9825453,77.6104302,2,True
Corp Bank,bank,12.9826498,77.6104195,2,True
Sumith Provision & Condiments,convenience,12.9372827,77.6245142,0,True
Bosch (DH) Parking,parking,12.9366224,77.6134497,0,True
DHL couriers,convenience,12.9356619,77.619186,0,True
Olio,restaurant,12.9365507,77.6204895,0,True
Crystal Stationeries,convenience,12.9374604,77.6242714,0,True
Coffee Lounge,cafe,12.9367494,77.6200067,0,True
Kota Kachori,restaurant,12.9346333,77.6124687,0,True
Sports Planet,convenience,12.9361926,77.6147442,0,True
Inn,hotel,12.9330194,77.6105953,0,True
Shiva Sagar,restaurant,12.9339607,77.6104356,0,True
Prasad Eye Hospital,other,12.9351929,77.6086817,0,True
NIMHANS Screening block,other,12.9387115,77.5937737,2,True
NIMHANS OPD,other,12.9388056,77.5942994,2,True
State Bank of India,bank,12.9395395,77.5959949,2,True
Jade Empress,restaurant,12.9459429,77.5956857,2,True
Keys Hotel,restaurant,12.9459575,77.5951685,2,True
Manjunath Hospital,other,12.9483598,77.5940621,2,True
Karthik Hospital,other,12.9484356,77.5942592,2,True
Bhagini Hotel,restaurant,12.9494002,77.5926204,2,True
Libra,hotel,12.9353977,77.6090855,0,True
Swati Deluxe,restaurant,12.997825,77.5499844,6,False
Sri Rama Medicals and General Stores,pharmacy,12.9971233,77.5512976,6,False
Fortis Hospital,other,13.0022409,77.5490879,6,False
Gokul Vegetarian,restaurant,12.998275,77.550863,6,False
Health and Glow,supermarket,12.9963776,77.5514093,6,False
Citi Hospital,other,12.9956506,77.5510696,6,False
"Vasan Eye Care Hospital, Rajaji Nagar",other,12.9995223,77.5505328,6,False
Ananya Hospital,other,12.9998205,77.55045,6,False
Religare Medicals,pharmacy,13.0002224,77.5688175,3,False
State Bank of India,bank,12.9950177,77.5716418,3,False
Baptist,other,12.9970915,77.5719766,3,False
Sree Nandini Palace Restaurant,restaurant,12.9872807,77.5494174,6,False
State Bank of India,bank,12.978954,77.5493836,-1,False
Shivakrupa Hospital,other,12.973967,77.5479135,-1,False
Vasavi Polytechnic College,other,12.9737683,77.5442442,-1,False
Unknown,pharmacy,12.9322462,77.5894525,-1,False
Paramount Restaurant,restaurant,12.971167,77.605779,2,True
Hotel Mayflower,hotel,12.9478373,77.5970782,2,True
Airlines,restaurant,12.9727309,77.5997185,2,True
Ankur Nursery School,other,12.9719967,77.6278036,2,True
Rice Bowl,restaurant,12.9748249,77.5994328,2,True
Kamat,restaurant,12.964223,77.5866456,2,True
Bharat Seva Dal,other,12.9873383,77.5805314,3,False
Canara Bank,bank,12.9869904,77.5786112,3,False
ICICI Bank,bank,12.9876512,77.5799188,3,False
Richie-Rich,restaurant,12.9868232,77.5800176,3,False
Shivananda Stores,convenience,12.9867564,77.5795592,3,False
Chutney Chang,restaurant,12.9331034,77.585029,1,False
Cafe Coffee Day,cafe,12.9885341,77.5770137,3,False
Bharat Petroleum,fuel,12.9883033,77.5774436,3,False
Canara Bank,bank,12.9909647,77.5748146,3,False
Kamat Minerva,restaurant,12.9554704,77.5801737,4,False
"Sri Maruthi hospital, Sheshadripuram",other,12.9926441,77.5742046,3,False
Park-n-Eat,restaurant,12.9877001,77.5782687,3,False
Unknown,fuel,12.9596642,77.5829322,2,True
Śrī Uḍupi,restaurant,12.9781823,77.5797234,3,False
Golden Residency,hotel,12.9780729,77.579383,3,False
Hotel Kanthi Comforts,hotel,12.9775086,77.5793777,3,False
Chung's,restaurant,12.9891068,77.5938601,2,True
V T Paradise,restaurant,12.9655419,77.5898511,2,True
Hotel Geo,hotel,12.9656255,77.5895554,2,True
Belliah Milk Booth,convenience,12.9398383,77.5451133,7,False
Bank of Baroda,bank,12.9668886,77.5993311,2,True
Mavalli Tiffin Rooms,restaurant,12.9721761,77.6009542,2,True
Corporation Bank,bank,12.9417658,77.6158811,0,True
Simpli Namdhari's,supermarket,12.9395349,77.5853734,1,False
Nexus Mall Parking,parking,12.9348541,77.6110076,0,True
Amrutesh Darshini,restaurant,12.934392,77.5895053,-1,False
TGI Fridays,restaurant,12.9732119,77.6217398,2,True
State Bank of India,bank,12.9345803,77.5893442,-1,False
Sree Rama Vidyalaya,other,12.938312,77.5843066,1,False
Sudha Parimala Medical Store,pharmacy,12.9345466,77.5895421,-1,False
Nisarga,restaurant,12.9830301,77.5943718,2,True
Pai Vihar,restaurant,12.9658764,77.5860284,2,True
Corporation Bank,bank,12.9371253,77.5585054,7,False
Unknown,pharmacy,12.933396,77.5626216,-1,False
Unknown,pharmacy,12.9352471,77.5607927,-1,False
Andhra Bank,bank,12.9357213,77.5609969,-1,False
Sri Vishvesha Agencies,fuel,12.941632,77.5641945,1,False
Canara Bank,bank,12.9416578,77.5644359,1,False
Great Indian Thali,restaurant,12.9365165,77.6274121,0,True
Palm Grove,restaurant,12.9715903,77.6084985,2,True
Sangam,restaurant,12.9718928,77.6065672,2,True
Prakash Cafe & Lodge,hotel,12.9604081,77.5709546,1,False
HP Petrol Bunk,fuel,12.9771222,77.5466032,-1,False
Lavish Medical,pharmacy,12.9410107,77.6176795,0,True
Hotel Empire,restaurant,12.9348525,77.6157906,0,True
Khawa Karpo,restaurant,12.9340146,77.6163371,0,True
Sagar Fast Food,restaurant,12.9417545,77.6215457,0,True
S.L.V Hotel,restaurant,12.9577755,77.5694742,1,False
Anjandri Petrol / Gas Station,fuel,12.9571508,77.5624395,1,False
Villa Lavelle,hotel,12.9684323,77.5964096,2,True
Unknown,other,12.9598806,77.5640252,1,False
BBUL Jain Vidyalaya,other,12.9540088,77.5724909,1,False
Bank of Maharashtra,bank,12.9484672,77.5716218,1,False
Nandini,restaurant,12.9552387,77.5790523,4,False
HDFC Bank,bank,12.9551211,77.5663064,1,False
State Bank of India,bank,12.9493264,77.5679362,1,False
Reliance Digital Electronic Store,supermarket,12.954621,77.5672723,1,False
Mahila Co-operative Bank,bank,12.9416816,77.5555618,7,False
Karnatka Rajya Kaigarika Sahakari Bank,bank,12.9500847,77.5679508,1,False
Cake Palace,bakery,12.9402254,77.5535523,7,False
Ramakrishna Lodge,hotel,12.9717723,77.5729725,3,False
Syndicate Bank,bank,12.9469992,77.5641506,1,False
Shree Krishna Auto Gas,fuel,12.9672844,77.57,-1,False
Canara Bank,bank,12.95954,77.5685551,1,False
Kadamba Veg,restaurant,12.9976921,77.5475818,6,False
Mādappa Mes,restaurant,12.9800497,77.5771102,3,False
SRS Bus Station,bus_station,12.9803795,77.5760204,3,False
VRL Bus Station,bus_station,12.9803246,77.5754733,3,False
F & B,restaurant,12.9713119,77.5997267,2,True
Jalpaan,restaurant,12.9989198,77.552547,6,False
Axis Bank,bank,12.9993994,77.5525068,6,False
Hotel Janatha,restaurant,12.9991432,77.5710944,3,False
The Guha,restaurant,12.9334671,77.5833269,1,False
Sreeraj lassi bar,cafe,12.9828042,77.6105271,2,True
Manokamana Cermanic,mall,12.942312,77.60802,-1,False
Toscano,restaurant,12.9717891,77.5962374,2,True
Cafe Noir,restaurant,12.9719381,77.5958753,2,True
Reliance Smartpoint,supermarket,12.960466,77.6017789,2,True
Namdharis,supermarket,12.9596191,77.6026157,2,True
Richmond Supermarket,supermarket,12.9622638,77.6040957,2,True
Y! Cafe,restaurant,12.958286,77.605196,2,True
IDFC First Bank,bank,12.9616161,77.5986353,2,True
Pizza Hut,restaurant,12.9624402,77.5990359,2,True
Harima,restaurant,12.9676211,77.6001785,2,True
Coffee All Day,cafe,12.9733898,77.6072915,2,True
Neelam Stores,convenience,12.9583088,77.6022126,2,True
Confident Propos,hotel,12.9560897,77.6055497,-1,False
HDFC Bank,bank,12.9655446,77.601164,2,True
Cafe Da Costa,bakery,13.0039163,77.6245782,5,False
Priyanka Pharma,pharmacy,13.0055429,77.6252364,5,False
Basha Department Store,supermarket,13.0013558,77.6235851,5,False
Indian Oil,fuel,12.9966824,77.6193965,5,False
Rogue Elephant,restaurant,12.9865706,77.6194475,-1,False
French Loaf,cafe,12.9758023,77.6165936,2,True
Benjerong,restaurant,12.9758154,77.616548,2,True
Ente Kerelam,restaurant,12.9758363,77.6165158,2,True
Manjunatha Provisions,convenience,12.999291,77.5671481,3,False
Ganesha Provisions,convenience,12.9992858,77.5670032,3,False
Safal,supermarket,12.9991395,77.5678347,3,False
Apple Pharma,pharmacy,12.9997824,77.5681888,3,False
Mysore Mini Shopee,convenience,13.0039638,77.6155248,5,False
Indian Bank,bank,12.9444288,77.5724461,1,False
Kottakkal Arya Vaidya Sala,other,12.9411061,77.5850591,1,False
Andhra Bank,bank,12.9410968,77.5853528,1,False
NMH Bakery,bakery,12.9543124,77.5786901,4,False
Kasturi Medicals,pharmacy,12.9535215,77.5780606,4,False
Sree Charan Bank,bank,12.9457543,77.5724936,1,False
Toscano,restaurant,12.9750597,77.602857,2,True
Three Quarter Chinese,restaurant,12.974503,77.6054637,2,True
Hotel Tourist,hotel,12.9813835,77.5753478,3,False
Nilgiri's,supermarket,12.9724588,77.6260331,2,True
Ruchi Restaurant,restaurant,12.9725555,77.6266554,2,True
Chutney Chang,restaurant,12.9737798,77.6028823,2,True
Empire,restaurant,12.9754042,77.6027775,2,True
Hotel City Centaur International,hotel,12.9750295,77.5703109,3,False
Sri Krishna Lodge,hotel,12.9744293,77.5706029,3,False
Sri Thirumala Lodge,hotel,12.9738994,77.5706296,3,False
LIC of India,bank,12.9738477,77.5440708,-1,False
1947,restaurant,12.9829855,77.5486383,6,False
St Aloysius Pre Unniversity College,other,12.994291,77.6196026,5,False
Alibaba Cafe & Restaurant,restaurant,13.0005858,77.6148025,5,False
ING,bank,12.9700251,77.5799594,3,False
ICICI Bank,bank,12.9732008,77.5789268,3,False
Unknown,parking,12.976555,77.5774051,3,False
Unknown,fuel,12.9841172,77.5600221,6,False
Shree Lodge,hotel,12.975607,77.5751762,3,False
Cloud Nine Hospital,other,13.0078742,77.5625316,3,False
Indian Bank,bank,13.0050766,77.5806041,3,False
Coastal Express,restaurant,12.9867912,77.5794891,3,False
"Nayak Hospital, Gayathri Nagar",other,12.9993857,77.5606403,-1,False
Hotel Samrat Residency,hotel,12.9894357,77.5729477,3,False
Kamat,restaurant,12.9491655,77.5798273,4,False
Bharat Petroleum,fuel,12.9479149,77.5794869,4,False
St. Joseph's Indian Composite PU College,other,12.9689388,77.5950441,2,True
JP Cordial,hotel,12.979285,77.5748279,3,False
Rajaprakash,hotel,12.9789865,77.574935,3,False
Ksheera Sagar,hotel,12.9805241,77.5750066,3,False
Hotel Kapila,hotel,12.979643,77.5751455,3,False
Rajadhani restaurant,restaurant,12.9788091,77.5750078,3,False
Nando's,restaurant,13.0116018,77.5553246,6,False
Toscano,restaurant,13.011218,77.5554078,6,False
Mainland China,restaurant,13.0107099,77.5554114,6,False
Chianti,restaurant,12.933447,77.6219099,0,True
Matteo's Coffee,cafe,12.9743507,77.6070733,2,True
Hae Kum Gang,restaurant,12.9679393,77.6074294,2,True
Sree Charan Bank,bank,13.0044109,77.5668934,3,False
New Pushyamee,pharmacy,13.0037706,77.5653221,3,False
Empire Restaurant,restaurant,13.0145004,77.635717,-1,False
Bakey and Joy,bakery,13.0144977,77.6357519,-1,False
Unknown,bakery,12.9665602,77.5892256,2,True
Rekha Residency,hotel,12.988584,77.5474906,6,False
Shivas,hotel,12.9857195,77.5520611,6,False
Hotel Blue Diamond,hotel,12.9870577,77.572403,3,False
Nandini palace,restaurant,12.9985485,77.5840303,-1,False
Best of Bengal,restaurant,12.9955047,77.6081944,5,False
Suvali,hotel,12.9881972,77.5494003,6,False
Cafe Coffee Day,hotel,12.9959438,77.5548935,6,False
HP,fuel,12.9916432,77.5578265,6,False
Mallika Residency,hotel,12.9917517,77.5576615,6,False
Indian Oil,fuel,12.9810568,77.5583911,6,False
St Ann's School,other,12.9800113,77.5566101,6,False
St Mira's School,other,12.9776695,77.5553656,-1,False
Jain Bhavan,restaurant,12.9461645,77.5734435,1,False
Kamat Yatrinivas,restaurant,12.9758817,77.5786471,3,False
Unknown,parking,12.971389,77.5944082,2,True
HDFC Bank,bank,12.9347958,77.6298075,0,True
Magnus Diagnostic Lab,other,12.9349187,77.6305022,0,True
Trustx,pharmacy,12.9356219,77.631044,0,True
Pharma Plus,pharmacy,12.935306,77.6306217,0,True
Supriya Stores,convenience,12.9355043,77.6314571,0,True
Food Mall,convenience,12.9334024,77.6298023,0,True
Adyar Ananda Bhavan,restaurant,12.9843055,77.5537764,6,False
Just Bake,bakery,12.9836572,77.5487644,6,False
New Shanti Sagar,restaurant,12.9977544,77.5472561,6,False
Janhavi Medicals,pharmacy,13.0045164,77.5785881,3,False
Sea Route Restaurant,restaurant,12.9973524,77.5476248,6,False
Sattvam,restaurant,13.0057592,77.5804279,3,False
ICICI Bank,bank,13.0012808,77.5783329,3,False
HDFC Bank,bank,13.001239,77.5783221,3,False
Karnataka Bank,bank,13.0002354,77.5781558,3,False
Unknown,parking,12.9909704,77.571384,3,False
Sweet Chariot,cafe,12.9684869,77.6008019,2,True
Relience Fresh,supermarket,12.9381919,77.556125,7,False
Vinayaka Vidya Samsthe,other,12.9369041,77.5577545,7,False
Coconut Grove,restaurant,12.9752848,77.6043238,2,True
Hotel Vintage Residency,hotel,12.9633735,77.5898343,2,True
Malleswaram 18th Cross,bus_station,13.0098511,77.5691769,3,False
Unknown,parking,12.9374015,77.6283868,0,True
Lakshmamma Petrol / Gas Station,fuel,13.0213985,77.6005015,-1,False
Bharat Petroleum,fuel,12.9765112,77.5799146,3,False
Srinivasa Petrol / Gas Station,fuel,13.0030286,77.6349993,5,False
Vijees Auto Gas,fuel,12.9873459,77.5723926,3,False
Unknown,bank,12.9921952,77.5754609,3,False
Total Gas,fuel,12.9669405,77.5470005,-1,False
Indian Oil,fuel,12.9673086,77.5461504,-1,False
Ganesh Medicals & General Store,pharmacy,12.9634823,77.5523641,-1,False
Lake N Bake,bakery,12.9811096,77.6102253,2,True
Landmark,convenience,13.0101713,77.5549686,6,False
You Mee,restaurant,13.0118346,77.5553934,6,False
Vinegar,restaurant,13.0114881,77.5553553,6,False
Star Bazar,supermarket,13.0114494,77.555384,6,False
Hotel Grand Bee,hotel,13.0200701,77.5544961,-1,False
Hotel Safina,hotel,12.9796492,77.6070313,2,True
Cafe Coffe Day,cafe,12.9818276,77.6092079,2,True
Shiv Sagar,restaurant,12.9819355,77.6082221,2,True
Gandharva Upahāra,restaurant,12.9787017,77.5742352,3,False
Rajath Lodge,hotel,12.9786599,77.5740904,3,False
Vaidya Ratnam Ayurvedic Center,pharmacy,12.9785893,77.5736371,3,False
Sajjan Lodge,hotel,12.9772171,77.5766278,3,False
New Baldwin School,other,12.9322822,77.5981308,-1,False
New Prashanth Hotel,restaurant,12.9985477,77.5510414,6,False
United Medical lab,other,13.0007683,77.6132902,5,False
State Bank of India,bank,13.0022734,77.6177342,5,False
The Basil,hotel,12.9937001,77.571322,3,False
Crane Crush,cafe,12.9855811,77.5556847,6,False
State Bank of India,bank,12.9846268,77.5558117,6,False
Pragathi Ayurvedic Center,other,12.9843701,77.555666,6,False
Woody's,restaurant,12.9655171,77.5949458,2,True
Sandhya Lodge,hotel,12.9797725,77.5747917,3,False
Government School,other,12.9669946,77.591066,2,True
Hotel Grand Inn,hotel,12.9770921,77.5795669,3,False
Shezan,restaurant,12.9736811,77.5987096,2,True
High Court Canteen,restaurant,12.9790476,77.5935254,2,True
Hotel Check Inn,hotel,13.0209593,77.5844241,-1,False
Canara Bank,bank,12.9943529,77.5946809,2,True
Canara Bank,bank,13.0019713,77.5723357,3,False
Maiyas,restaurant,13.0020277,77.5707457,3,False
Starbucks,cafe,12.9351849,77.6135299,0,True
Ground Up Coffee,cafe,12.9378458,77.5852753,1,False
Cuppa,cafe,12.9409838,77.5850433,1,False
Black Pearl,restaurant,12.9344918,77.6160061,0,True
The Monarch Luxor Hotel,hotel,12.9801755,77.6049823,2,True
HDFC Bank,bank,12.9652714,77.5985205,2,True
Woody's,restaurant,12.9818715,77.6094935,2,True
Dena Bank,bank,12.9573933,77.582077,4,False
Karnataka Supermarket,supermarket,12.9644187,77.6062299,2,True
Khan Saheb,restaurant,12.9714443,77.6350673,2,True
Empire Hotel,restaurant,13.0169921,77.5914678,-1,False
Coral Tree by Goldfinch,hotel,13.0174207,77.5916073,-1,False
Kudla,restaurant,13.0174262,77.5916716,-1,False
Adiga's,restaurant,13.0168458,77.591398,-1,False
Church Street Social,restaurant,12.9757617,77.6026084,2,True
Unknown,bakery,12.9653566,77.5897586,2,True
Daysie,restaurant,12.9722421,77.6184419,2,True
EXIM (Export-Import Bank of India),bank,12.9723534,77.6186861,2,True
Karnataka Bank,bank,12.9540038,77.5801262,4,False
State Bank of India,bank,12.9606096,77.5835432,2,True
State Bank of India,bank,12.9579091,77.5823797,4,False
Syndicate Bank,bank,12.9503526,77.579806,4,False
Black Pepper Lounge,restaurant,12.9363204,77.6222034,0,True
Mark & Spencer,supermarket,12.9386176,77.6288681,0,True
Chamundeshwari Coffee,cafe,12.9659456,77.5924964,2,True
Apollo Pharmacy,pharmacy,12.9664142,77.5925401,2,True
Manjula Medicals,pharmacy,12.9668083,77.592647,2,True
Surya Bakery,bakery,12.9624238,77.5942112,2,True
KKN coaching classes,other,12.9387638,77.5511668,7,False
Big Bazaar,supermarket,12.9734434,77.6216713,2,True
Carnival De Goa,restaurant,12.9750047,77.6200027,2,True
Ayda,restaurant,12.9742729,77.607273,2,True
Chevron Orchards Hotel,hotel,13.0108784,77.5788998,3,False
Cafe Coffee Day,cafe,13.0053577,77.5810409,3,False
Sri Devi Café,restaurant,12.9977551,77.6205782,5,False
Hotel Sanman,restaurant,12.98415,77.5781517,3,False
O. G. Variar and Sons Bakery,bakery,12.9914598,77.5546233,6,False
California Burritos,restaurant,12.9341751,77.6170762,0,True
Corporation Bank,bank,12.9818224,77.610245,2,True
Sreeraj Lassi Bar,cafe,12.9844175,77.6033409,2,True
Punjab National Bank,bank,12.9672272,77.5871401,2,True
Unknown,parking,12.9657388,77.5884001,2,True
Unknown,parking,12.9654427,77.5875548,2,True
Unknown,parking,12.9658185,77.5879442,2,True
Unknown,parking,12.9651767,77.5884754,2,True
Unknown,parking,12.9667476,77.5881407,2,True
Unknown,parking,12.965693,77.5872423,2,True
Unknown,parking,12.9659324,77.5883414,2,True
Cafe Coffee Day,cafe,12.9757451,77.6046148,2,True
Signature Inn,hotel,12.9731115,77.5701532,3,False
Sri Mukambika,bakery,12.9962972,77.5719247,3,False
D'Lish,restaurant,12.9765959,77.5706263,3,False
Adhishakthi,restaurant,12.9729868,77.5700133,3,False
Citibank,bank,12.9736204,77.6155256,2,True
Nilgiri's,supermarket,12.9728628,77.6074393,2,True
Bank of Baroda,bank,12.9976504,77.6095995,5,False
IndusInd Bank,bank,12.9947176,77.6153985,5,False
Axis Bank,bank,12.9974931,77.6103558,5,False
Union Bank of India,bank,12.9982941,77.608715,5,False
State Bank of India,bank,13.0002582,77.6112114,5,False
Richies Rahhams Families International,restaurant,13.000752,77.6131248,5,False
Kotak Mahindra Bank,bank,12.9940387,77.6156783,5,False
Starbucks,cafe,12.9745629,77.6073138,2,True
Kavya Sagar,restaurant,12.9582479,77.6146254,-1,False
Punjab & Sind Bank,bank,12.9757846,77.6361056,2,True
Imperial Restaurant,restaurant,12.9755127,77.6360648,2,True
Annapoorani,restaurant,12.97475,77.635825,2,True
Netradama Eye Hospital,other,12.9734836,77.6357281,2,True
Healing Touch Pharma,pharmacy,12.9742234,77.6359937,2,True
Coffee Club,cafe,13.0189413,77.5708021,-1,False
Swathi,restaurant,12.9891614,77.5722338,3,False
Meghana Foods,restaurant,12.9728223,77.6091815,2,True
UCO Bank,bank,12.981424,77.6353009,-1,False
Allahabad Bank,bank,12.9783537,77.635859,2,True
Aegis Autogas,fuel,12.9460933,77.5950233,2,True
Apollo Pharmacy,pharmacy,12.9976064,77.5512613,6,False
Hotel Annakuteera vegetarian,restaurant,12.962822,77.5764714,-1,False
Axis Bank,bank,12.9852058,77.5564437,6,False
New Sagar Fast Food & Party Hall,restaurant,12.9899339,77.5526805,6,False
State Bank of India,bank,12.9874289,77.5541838,6,False
Safal Fresh,supermarket,12.9403442,77.6024598,-1,False
Sree Venkateshwara Speciality Hospital,other,12.9425246,77.6025303,-1,False
Sri Manjunatha Medical & General Stores,pharmacy,12.9606852,77.5715513,1,False
Aditya Hotel,restaurant,13.0019334,77.5784395,3,False
F A Tea stall,cafe,13.0183459,77.5572174,6,False
Five Star Veg,restaurant,13.0069934,77.5693219,3,False
Leela Hospital and Diagnostic Center,other,13.0002667,77.5694894,3,False
Dr. Rajkumar Blood Bank,other,12.968031,77.5878222,2,True
Leela medicals,pharmacy,13.0003234,77.5693738,3,False
Five Star Chicken,restaurant,13.0070927,77.5693166,3,False
Mohan Bhandar,convenience,13.0018587,77.5711353,3,False
Punjab National Bank,bank,12.967159,77.5891728,2,True
Unknown,parking,13.0172116,77.570018,-1,False
Cafe Coffee Day,cafe,12.9898332,77.5561709,6,False
Standard Medicals,pharmacy,12.9896302,77.5560208,6,False
Sairam Medicals and General Stores,pharmacy,12.9891599,77.5559116,6,False
Syndicate Bank,bank,12.9890694,77.5558999,6,False
Sri Raghavendra Condiments,convenience,12.9893394,77.5559942,6,False
Sri Charan stores,convenience,12.9890644,77.5559708,6,False
Sri Manjunath Stores,convenience,12.9890052,77.5559614,6,False
Sri Prasamshi Medical Stores,pharmacy,12.9904639,77.5569256,6,False
Unknown,convenience,12.9436693,77.62521,0,True
Smoke House Deli,restaurant,12.9715104,77.5983259,2,True
Eye Level Learning Center,other,12.9419581,77.6227858,0,True
SLV Stores,supermarket,12.9482932,77.6213652,0,True
Unknown,restaurant,12.9320659,77.6182289,0,True
Food Basics,supermarket,12.9319665,77.6179178,0,True
Juice Maker,cafe,12.9417768,77.6215095,0,True
Dyu Art Cafe,cafe,12.9371896,77.6176798,0,True
Juicy,cafe,12.9360891,77.6159498,0,True
Momoz,restaurant,12.9359584,77.6162475,0,True
Chai Point,cafe,12.9346905,77.6159203,0,True
California Pizza Kitchen,restaurant,12.9344396,77.6160195,0,True
South Indian Bank,bank,12.935925,77.6061828,0,True
ICICI Bank,bank,13.0035234,77.6166155,5,False
Indiradarshini,cafe,13.0036378,77.6166655,5,False
Unknown,cafe,12.9629426,77.5875693,2,True
Bhavani Tiffin Center,restaurant,12.9862102,77.5741379,3,False
Swathi Medical Store,pharmacy,12.9780448,77.6332441,2,True
Padmavathi Bakers,bakery,12.9780446,77.6339349,2,True
Cafe Coffee Day,cafe,13.0207677,77.5929009,-1,False
Namdhari Fresh,supermarket,13.0207547,77.5929974,-1,False
Andhra Bank,bank,13.0207547,77.5930859,-1,False
Unknown,parking,12.9632721,77.5856887,2,True
V B Bakery,bakery,12.9516486,77.5770722,4,False
Mango Hotels,hotel,12.9344183,77.626046,0,True
St. Martha's Canteen,restaurant,12.9701247,77.5866611,2,True
KGID Canteen,restaurant,12.981906,77.5956848,2,True
Sahana hotel,hotel,12.9474456,77.5987375,2,True
Krishna Nursing Home,other,12.9474222,77.5986921,2,True
Shree Sai Baba Condiments,convenience,12.9480956,77.5999568,2,True
L S Iyengar Bakery,bakery,12.9482984,77.6000248,2,True
Padmavathi Medicals,pharmacy,12.9483481,77.6000553,2,True
Sanjana Medicals,pharmacy,12.948665,77.6001706,2,True
"Shifa Hospital, Bengaluru Urban",other,12.9900105,77.5988107,2,True
Kumbakonam Traditional Coffee,cafe,12.9739292,77.6232945,2,True
Atithis,restaurant,13.0017604,77.5783235,3,False
Reliance Fresh,supermarket,12.9366381,77.5752413,1,False
Abu Dhabi Commercial Bank,bank,12.9751161,77.6040333,2,True
State Bank of India,bank,12.9758241,77.6043486,2,True
Canara Bank,bank,12.975421,77.6045772,2,True
UCO Bank,bank,12.9755804,77.6053256,2,True
Cafe Coffee Day,cafe,12.9754589,77.6067378,2,True
Bheema's,restaurant,12.9751858,77.6035875,2,True
Mainland China,restaurant,12.9752374,77.6034215,2,True
Oh! Calcutta,restaurant,12.975223,77.6035195,2,True
Hooked,restaurant,12.9755584,77.6031289,2,True
Matsya,restaurant,12.9755444,77.6031965,2,True
Bundle Company,restaurant,12.9756151,77.6029253,2,True
Sri Lakshmi Comforts,hotel,12.9759033,77.6022279,2,True
Union Bank of India,bank,12.9761842,77.602631,2,True
Karavalli,restaurant,12.9720694,77.6089097,2,True
Udupi Park,restaurant,12.9728503,77.6091975,2,True
State Bank of India,bank,12.9730522,77.6085652,2,True
Nagarjuna,restaurant,12.97323,77.609195,2,True
The Grill House,restaurant,12.9749935,77.6199471,2,True
Syndicate Bank,bank,12.9775007,77.5883584,-1,False
State Bank of India,bank,12.9782832,77.5879912,-1,False
HCG Cancer Hospital,other,12.9603157,77.5930493,2,True
Jayalakshmi Bakery,bakery,12.9609168,77.5879444,2,True
Adyar Ananda Bhavan,restaurant,12.997771,77.571072,3,False
Axis Bank,bank,12.9733286,77.6167758,2,True
Chai Point,cafe,12.9731918,77.6167348,2,True
Corporation Bank,bank,12.9733953,77.6169631,2,True
State Bank of India,bank,12.9733651,77.6164843,2,True
Caesars,restaurant,12.9733842,77.6163899,2,True
Tamil Nadu Marcantile Bank,bank,12.9734064,77.6163313,2,True
Rao's Corner,convenience,13.0038136,77.6295207,5,False
Car Parking,parking,12.9717014,77.6181421,2,True
Shanti Sagar,restaurant,12.9735894,77.5783998,3,False
Ichin Restaurant,restaurant,12.937762,77.6271125,0,True
EXIM Bank;Export-Import Bank of India,bank,12.9721008,77.6184589,2,True
Canara Bank,bank,12.9723831,77.6184938,2,True
Sri Manjunatha Condiments,cafe,12.9876025,77.5736105,3,False
State Bank of India,bank,12.9741304,77.6095504,2,True
Chung Wah,restaurant,12.9740669,77.6092489,2,True
Donne Biryani House,restaurant,12.9732979,77.6093585,2,True
Pay and Park,parking,12.97357,77.6097223,2,True
Visitors Car Parking,parking,12.9732807,77.6140413,2,True
DCB Bank,bank,12.9739333,77.6123872,2,True
State Bank of India,bank,12.9731313,77.6080088,2,True
Kotak Mahindra Bank,bank,12.9729256,77.6160971,2,True
HDFC Bank,bank,12.9730752,77.6155935,2,True
Deutsche Bank,bank,12.9731241,77.6136623,2,True
Standard Chartered,bank,12.9732234,77.6137669,2,True
Kotak Mahindra Bank,bank,12.9733488,77.6136783,2,True
Standard Chartered,bank,12.9728784,77.6138634,2,True
Punjab National Bank,bank,12.972813,77.6138715,2,True
Indian Bank,bank,12.972881,77.6139332,2,True
Empire,restaurant,12.9672647,77.6090629,2,True
IndusInd Bank,bank,12.9735781,77.6135363,2,True
Tandoor,restaurant,12.9736722,77.6131796,2,True
IndusInd Bank,bank,12.973633,77.6131796,2,True
Punjab National Bank,bank,12.9736382,77.6131447,2,True
Unknown,parking,12.936898,77.5810241,1,False
Coastal Delight,restaurant,12.9783646,77.6362045,2,True
Sri Vasavi Super Market,convenience,12.9726022,77.6346269,2,True
Karnataka Bakery,convenience,12.9730537,77.6351916,2,True
Nagasree Bakery,convenience,12.9728923,77.6347705,2,True
HDFC Bank,bank,12.9730644,77.6155317,2,True
Allahabad Bank,bank,12.9751927,77.614784,2,True
Syndicate Bank,bank,12.9751587,77.6148698,2,True
Paparazzi,restaurant,12.9748952,77.6153654,2,True
Pinxx,cafe,12.9748429,77.6153686,2,True
ICICI Bank,bank,12.9677866,77.6002508,2,True
Indian Overseas Bank,bank,12.9668801,77.599278,2,True
Balaji Pharma,pharmacy,12.9674186,77.5997528,2,True
Chetak Pharmacy,pharmacy,12.9678054,77.6002865,2,True
Cafe Coffee Day,cafe,12.9736889,77.6112977,2,True
Unknown,convenience,13.0033773,77.6295176,5,False
Unknown,convenience,13.003513,77.6295457,5,False
R. P. Kamat's,restaurant,12.9759239,77.5749981,3,False
Sukh Sagar,restaurant,12.9766765,77.5777178,3,False
Shree Yummy's Palace,restaurant,13.0076007,77.5710725,3,False
Saravana Store,convenience,13.0015949,77.6301221,5,False
Iyengars Bakery,bakery,13.0016135,77.6302145,5,False
Nisha Supermart,supermarket,13.0019536,77.6319019,5,False
Sri Murugan,convenience,13.0016726,77.6305078,5,False
Shiva Medicals,pharmacy,13.0016906,77.630597,5,False
The Medicals,pharmacy,13.0020057,77.6321604,5,False
Just Bake,bakery,13.00168,77.6317427,5,False
South Indian Bank,bank,13.0017248,77.632187,5,False
Reliance Fresh,supermarket,13.0014363,77.630759,5,False
Health Care Global,other,12.9584755,77.5919279,2,True
Karur Vysya Bank,bank,13.0055578,77.5711662,3,False
South Indian Bank,bank,13.0055552,77.5708738,3,False
Khan Saheb Grills and Rolls,restaurant,12.9826791,77.61051,2,True
Nature's Basket,supermarket,12.9337036,77.6229616,0,True
Iris Business Hotel,hotel,12.9707119,77.6072217,2,True
Axis Bank,bank,12.9324956,77.631848,0,True
Hotel Dil Coorg,restaurant,12.9779131,77.6328957,2,True
Safa Super Bazar,convenience,12.9728596,77.6347745,2,True
Al Bek,restaurant,12.9942736,77.5715823,3,False
Asha Sweets,bakery,12.9995198,77.5711521,3,False
Shristi Sagar,restaurant,13.0076756,77.5640516,3,False
Medreich,pharmacy,13.00281,77.6336462,5,False
SodaBottleOpenerWala,restaurant,12.9706578,77.5975349,2,True
Dasaprakash,restaurant,12.9765168,77.6029754,2,True
Nature's Basket,supermarket,13.0056797,77.5806627,3,False
Srs English Nursery School,other,12.9482223,77.5990903,2,True
Unknown,convenience,12.9461467,77.6289446,0,True
TMS Provision Stores,convenience,12.9455457,77.6289451,0,True
Fresh Bakery Cake,bakery,12.9450827,77.6289375,0,True
Public Distribution Shop,convenience,12.9451555,77.6289394,0,True
State Bank of India,bank,12.9985096,77.5700901,3,False
Bangalore Medical,pharmacy,12.9640156,77.5510964,-1,False
Khawja Hotel,restaurant,12.9625119,77.5486586,-1,False
Shell,fuel,12.9569629,77.5491868,-1,False
star hospital ,pharmacy,12.9641843,77.5502624,-1,False
Canara Bank,bank,13.0014995,77.6308859,5,False
Sri Murugan,convenience,13.0016891,77.6297661,5,False
Jay Medicals,pharmacy,13.0014659,77.6306068,5,False
NFS,convenience,13.0022213,77.6295524,5,False
Unknown,convenience,13.0030529,77.6294349,5,False
Pavan Pharma,pharmacy,13.0014222,77.6291289,5,False
Chandra Medicals,pharmacy,13.0013994,77.6288185,5,False
Shanti Sagar,restaurant,12.987086,77.6189974,-1,False
Kashif Medical,pharmacy,12.9633542,77.5487215,-1,False
Bharat Petroleum,fuel,12.9602862,77.5570381,-1,False
Mysore Medical,pharmacy,12.9640984,77.5506116,-1,False
Bakery,bakery,12.9635115,77.5519675,-1,False
Old Gudahalli,bus_station,12.9609947,77.5508936,-1,False
Bismillah Tea Hotel,cafe,12.9608368,77.5485824,-1,False
Ayub Bakery,bakery,12.9640886,77.5503466,-1,False
Manjunatha Bakery,bakery,12.9632664,77.5488141,-1,False
Unity Hospital,pharmacy,12.9626651,77.5482596,-1,False
Unknown,pharmacy,12.9618971,77.552098,-1,False
Unknown,cafe,12.962222,77.5505208,-1,False
Bismillah Tea Hotel,cafe,12.9615054,77.5504015,-1,False
Shifa Medical,pharmacy,12.9642578,77.5489199,-1,False
Unknown,pharmacy,12.9621356,77.5493894,-1,False
Khalil Tea Hotel,cafe,12.9641082,77.5504793,-1,False
Bombay tea hotel,cafe,12.9632318,77.5500256,-1,False
Global Medical,pharmacy,12.9634155,77.5520086,-1,False
Ayenger Bakery,bakery,12.9608471,77.5490504,-1,False
Government School,other,12.9615699,77.5804526,2,True
Bismillah Tea Hotel,cafe,12.9661241,77.5521383,-1,False
Unknown,pharmacy,12.9608525,77.5490077,-1,False
Bismillah Tea Hotel,cafe,12.9638664,77.5510308,-1,False
Unknown,pharmacy,12.9653807,77.5941925,2,True
Pakvan,restaurant,13.0033921,77.5783685,3,False
HDFC Bank,bank,13.0041697,77.5822694,3,False
Meera Delicacy,restaurant,12.9476142,77.5797544,4,False
Godwin English School,other,12.9665259,77.5670902,-1,False
Suryawanshi,restaurant,12.9702478,77.6357689,2,True
Unknown,restaurant,12.9875355,77.6190745,-1,False
Lake View Supermarket,supermarket,12.9875472,77.6189672,-1,False
Moritz Nano Restaurant,restaurant,12.9875826,77.6188927,-1,False
Nanak,restaurant,12.967557,77.6061228,2,True
Axis Bank,bank,13.00579,77.5932698,-1,False
Prasad Icecream Parlour,cafe,12.9392188,77.5600997,7,False
Cafe Thulp,cafe,12.9908261,77.6193188,5,False
ICICI Bank,bank,12.9378029,77.5755637,1,False
IDBI Bank,bank,12.9404668,77.5757675,1,False
Cake Yard,bakery,12.9398043,77.5755209,1,False
Oye Lassi,cafe,13.0053566,77.5712414,3,False
Maha Bazar,supermarket,13.0148535,77.6336331,-1,False
Dianova Diabetes Center and Hospital,other,13.0147612,77.6335463,-1,False
Udupi Upachaar Veg,restaurant,13.0054082,77.5691051,3,False
Select Bakery and Stores,bakery,12.9783775,77.63577,2,True
Titan,convenience,12.9784182,77.6354528,2,True
Ameena Medical centre,other,12.9777082,77.6323407,2,True
Reliance,other,12.9581905,77.6169398,-1,False
Sundeep Medical Shop,pharmacy,12.9676134,77.6061839,2,True
Brigade Dreams,restaurant,12.9685412,77.606131,2,True
Model Medical Stores,pharmacy,12.9687933,77.6063684,2,True
Chariot,restaurant,12.9718911,77.6066836,2,True
Dunkin',fast_food,12.9720568,77.6067921,2,True
Green Apple,pharmacy,12.9814081,77.6012679,2,True
Shree Guru Ganesh Pharma,pharmacy,12.9719937,77.635835,2,True
Laban Palace,restaurant,12.9729346,77.6357245,2,True
The Homeo Centre,pharmacy,12.9729985,77.6357302,2,True
Srinidhi Sagar Foodline,restaurant,12.9733837,77.6360035,2,True
Rayaru's Kitchen,restaurant,12.9728794,77.6357245,2,True
Byte,restaurant,12.9731905,77.6359606,2,True
SLV Sagar Pharma,pharmacy,12.9737814,77.6359277,2,True
Bank of Baroda,bank,12.9812314,77.6017194,2,True
Amanath Co-op Bank Ltd,bank,12.9825997,77.6028514,2,True
Hotel Metropole,restaurant,12.9806364,77.602787,2,True
Chai Point,cafe,13.0085444,77.5695202,3,False
Nilgiri Supermarket,supermarket,13.0025965,77.5981195,-1,False
Pahala Rasagola shop,cafe,12.9355231,77.6189666,0,True
Stylotel,hotel,12.9671986,77.6066888,2,True
Twist of Tadka,restaurant,12.9678797,77.6066222,2,True
ICICI Bank,bank,12.9728321,77.6111241,2,True
State Bank of India,bank,12.9655392,77.6028344,2,True
State Bank of India,bank,12.965985,77.6043811,2,True
Green Apple,pharmacy,12.9683737,77.5948809,2,True
Indian Overseas Bank,bank,12.9802643,77.6022173,2,True
CSB Bank,bank,12.9740049,77.5794628,3,False
Bank of Baroda,bank,12.9740685,77.5792924,3,False
Karnataka State Co-operative Apex Bank Ltd,bank,12.9824437,77.6021511,2,True
Indian Overseas Bank,bank,12.9800143,77.6023523,2,True
Swathi Deluxe,restaurant,12.9541378,77.5920058,2,True
Maria's Goan Kitchen,restaurant,12.9364231,77.6151528,0,True
Vardhaman Paradise,hotel,12.9641301,77.570664,-1,False
Dr Raos Maternity Hospital,other,12.9850421,77.5460481,6,False
Unknown,pharmacy,12.9567335,77.5513304,-1,False
Sagar Chandramma Hospitals,other,12.9485535,77.5748248,1,False
Pavitra Medicals,pharmacy,12.9455735,77.5712921,1,False
Anand Bhavan,restaurant,12.954324,77.5850242,4,False
BN Sreekantiah And Sons,convenience,12.9450336,77.5715059,1,False
Timepass Dinner,restaurant,12.9453667,77.5709983,1,False
South Inn,restaurant,12.9944952,77.6159529,5,False
Basavangudi Medical Centre,pharmacy,12.9453043,77.5798656,-1,False
Iyengar Bakery,bakery,12.9520113,77.5806257,4,False
Fruit xtracts,cafe,12.9665145,77.6065215,2,True
Corporation Bank,bank,12.9729745,77.5808399,3,False
HDFC Bank,bank,13.0018629,77.5988299,-1,False
Reliance Fresh,supermarket,12.9973946,77.5485023,6,False
Sarayu Fine Dine,restaurant,12.9992855,77.5495195,6,False
New Akshaya Mini Bazaar,supermarket,13.0016723,77.5506179,6,False
Simply Organics,supermarket,12.9939186,77.5513274,6,False
Universal Pharma,pharmacy,12.9988718,77.5498125,6,False
ಕೋಮಲ ರಿಫ್ರೆಷ್‌ಮೆಂಟ್ಸ್,restaurant,12.996332,77.6170443,5,False
Reliance Smart Bazaar,supermarket,13.0122683,77.5534545,6,False
ಮ್ಯಾಂಗಲೋರ್ ಪರ್ಲ್,restaurant,12.9944824,77.6153605,5,False
Upsouth,restaurant,12.9371939,77.6198328,0,True
Swadist,restaurant,12.9365073,77.6197375,0,True
Apollo Cradle,other,12.9368104,77.6206345,0,True
Shiva Kumaraswamy Building,other,12.9717049,77.5493718,-1,False
CCD,cafe,12.969833,77.5775083,3,False
Food World,supermarket,13.0214967,77.5924037,-1,False
Royal Afghan,restaurant,12.9939183,77.5854854,-1,False
Wolfish,restaurant,12.9743668,77.6071761,2,True
Cafe Coffee Day,cafe,13.0012948,77.6324696,5,False
Presto,restaurant,12.9371526,77.5728792,1,False
Halli Thindi,restaurant,12.9435256,77.5655166,1,False
Baisakhi Vegetarian Restaurant,restaurant,12.9462613,77.5703662,1,False
Cookie Man,bakery,12.9703117,77.6094111,2,True
Szechuan Dragon Chinese Restaurant,restaurant,12.9446256,77.569918,1,False
Koli Mane,restaurant,12.9326403,77.5656287,-1,False
Dr. Suresh's Dia Care,pharmacy,12.9898377,77.5550568,6,False
Amrutha Medicals,pharmacy,12.9861471,77.5598537,6,False
Health Shopee by Manjushree Medicals,pharmacy,12.9988814,77.5552883,6,False
Mainland China,restaurant,12.9739174,77.5702629,3,False
Nandhi Medical And General Stores,pharmacy,12.9882463,77.5584271,6,False
Mumbai Spice,restaurant,13.0002869,77.5718472,3,False
Asha Sweet Center,restaurant,13.0007561,77.5723691,3,False
Chandu's Deluxe,restaurant,12.9992108,77.5722756,3,False
Sri Venkateshwara Hotel,restaurant,13.0026752,77.5720532,3,False
New Fishland,restaurant,12.9972964,77.5718337,3,False
Srushti Coffee,restaurant,13.00764,77.5640167,3,False
Chetty's Corner,restaurant,13.0067326,77.5642658,3,False
Hotel Ayodhya Upahar,restaurant,13.0018939,77.5784746,3,False
Brahmins Thatte Idli,restaurant,13.008246,77.563189,3,False
Chung Wah,restaurant,13.0044531,77.5783579,3,False
1947 Restaurant,restaurant,13.0056571,77.5690976,3,False
Sarvodaya Hospital,other,12.9390944,77.5619057,-1,False
Indianova Healthcare Pvt Ltd,other,12.9703581,77.63022,2,True
Siddaiah Multi Speciality Clinic And Lab,pharmacy,13.0023897,77.629504,5,False
Srinidhi Sagar,restaurant,12.960753,77.575626,-1,False
Nisarga Garden Restaurant,restaurant,12.9418834,77.5707551,1,False
Hotel New Karavali,restaurant,12.9402569,77.5533988,7,False
Puliyogare Point,restaurant,12.9406714,77.5703714,1,False
Cafe Mondo,restaurant,12.9394749,77.5776672,1,False
Hotel New Atithya,restaurant,12.9473154,77.5690141,1,False
New Prashanth Hotel,restaurant,12.9446421,77.5719424,1,False
SLV Corner,restaurant,12.9483651,77.5685364,1,False
Thindi Katte,restaurant,12.9379147,77.5748672,1,False
Cool corner,restaurant,12.947549,77.5739319,1,False
New Shanthi Sagar,restaurant,12.9387861,77.5799087,1,False
Maha Lakshmi Tiffin Room,restaurant,12.9470578,77.5714933,1,False
Ice Thunder,restaurant,12.9448665,77.5715764,1,False
Imperial Plaza,restaurant,12.937747,77.5758056,1,False
Cafe Coffee Day,cafe,12.947133,77.5694107,1,False
Thanco's Natural Ice Cream,restaurant,12.9471057,77.5716965,1,False
Dr Solankis Eye Hospital,other,12.9951627,77.5738144,3,False
Sri Sanjeevini Cold Laser Therapy,other,13.0053923,77.5713352,3,False
Keshava Medicals And General Stores,pharmacy,13.0057354,77.5763934,3,False
Sri Ganesh Medicals And Surgicals,pharmacy,13.0081894,77.5638484,3,False
Shri Siddhanth Pharma,pharmacy,12.9702378,77.6356539,2,True
Spar,supermarket,12.991691,77.5707302,3,False
Rolls Corner,restaurant,12.9391651,77.5637852,1,False
Sea Rock,restaurant,12.9329124,77.5684358,-1,False
Oval bar,restaurant,12.991754,77.5711303,3,False
Harshi Super Sandwich,restaurant,12.9385441,77.5699295,1,False
Vybhava,restaurant,12.9365742,77.5739529,1,False
The Other Crescent,restaurant,12.937044,77.5753259,1,False
Hotel Sanman,restaurant,12.9373404,77.579911,1,False
Amandé Patisserie,restaurant,12.9363723,77.5682018,1,False
Bakery World,restaurant,12.9488056,77.5743239,1,False
East West Academy,other,12.9834865,77.5515572,6,False
Aramane Hotel,restaurant,13.0044548,77.5493716,6,False
Navarang Kabab Corner,restaurant,12.9908258,77.5578843,6,False
Kolkata Biryani And Rolls,restaurant,12.9845159,77.5478044,6,False
Medic Star Hospital,other,12.9876871,77.6093097,2,True
Hsis Gosha Hospital,other,12.9856985,77.6058578,2,True
White Horse,restaurant,13.0078812,77.5569436,6,False
Santosh Hospital,other,12.9959413,77.6082575,5,False
Hotel Fish Palace,restaurant,13.0081283,77.5545993,6,False
Hospital,other,12.9914123,77.6117329,5,False
Dwinks Gastropub,restaurant,12.999247,77.5495939,6,False
Kudla beach,restaurant,12.9903931,77.5584441,6,False
Bengaluru Coffee House,restaurant,12.9349664,77.5469781,7,False
Mayura andra style restaurant,restaurant,12.9758048,77.5526524,-1,False
H B S Hospital,other,12.9891941,77.6037864,2,True
Sagar Caterers and Hotel,restaurant,12.9967355,77.5543173,6,False
St. Martha's Heart Centre,other,12.9705436,77.5834769,3,False
Shree Nandana Palace,restaurant,12.9891546,77.5500014,6,False
J S Homoeo House,pharmacy,12.982224,77.6029281,2,True
V L Nathan & Co,pharmacy,12.9855813,77.6071086,2,True
Nathans Vet Pharma Centre,pharmacy,12.9762816,77.5991019,2,True
Mahaveer Ayur & Homoeo,pharmacy,12.9813318,77.6041058,2,True
Gururaja Pharmacy,pharmacy,12.9781121,77.5739587,3,False
Balaji Vaidyasala,pharmacy,12.9813797,77.6029956,2,True
T. K. Diagnostic Centre,pharmacy,12.9843238,77.5984752,2,True
elbitdiagnostics,pharmacy,12.9833669,77.5966639,2,True
Al Shifa Unani & Ayurvedic Dawa Khana,pharmacy,12.9873157,77.6059871,2,True
Medinova,pharmacy,12.9816041,77.6011061,2,True
New Sri Banashankari Donne Biriyani Corner,restaurant,12.9416198,77.5573584,7,False
Sundeep Medicals,pharmacy,12.9674206,77.6058454,2,True
Coffee Bytes,restaurant,12.9415734,77.5578002,7,False
Hitesh Medicals & General Stor,pharmacy,12.9713618,77.6062443,2,True
Bangalore Fetal Medicine Centre,pharmacy,12.9658632,77.5998808,2,True
Trust Pharmacy,pharmacy,12.9919478,77.5708501,3,False
Desai Nursing Home,other,12.9863736,77.5793154,3,False
State Bank of India,bank,12.9917126,77.5708843,3,False
Pushyamee Medicals,pharmacy,13.0008545,77.5631699,3,False
Hotel Moon Light,restaurant,12.9966939,77.5687228,3,False
Gururaja Pharma,pharmacy,12.9858304,77.5708651,3,False
Brindhavan pharma,pharmacy,12.9853462,77.5708101,3,False
Rajhadhani Thali Restaurant,restaurant,12.9918756,77.5701543,3,False
Pizza stop,restaurant,13.0081862,77.5709853,3,False
Unknown,pharmacy,13.0024248,77.571574,3,False
Megha Medicals,pharmacy,13.0023294,77.5719173,3,False
High Ultra Lounge,restaurant,13.012299,77.5559803,6,False
Iyer Mess,restaurant,12.9987069,77.5699054,3,False
Sri Ganesh Medicals,pharmacy,13.0078415,77.5617719,3,False
Fortis Hospital,other,12.9881648,77.5548179,6,False
Nandhi Medicals,pharmacy,12.9883267,77.5549712,6,False
Sri Venkateshwara Medical & General Store,pharmacy,12.9898567,77.5542305,6,False
Amrutha Medicals,pharmacy,12.9862636,77.5575477,6,False
Sri Ranga Medicals,pharmacy,13.014751,77.5490654,6,False
Prasad Medicals,pharmacy,12.9906244,77.5633161,6,False
Fj Merrit Hydrotherapy And Wellness,other,12.9344224,77.6299785,0,True
""" NRS Medical & Dental Specialists Centre""",other,12.9378359,77.5573329,7,False
Chiranjeevi Hospital & Maternity Home,other,12.9386994,77.5518394,7,False
"Vinayaka Hospital, Hanumantha Nagar",other,12.9373748,77.5494778,7,False
Sri Ganesh Pharma,pharmacy,12.9559132,77.5561779,-1,False
Diavista Diabetes & Multispeciality Hospital,other,12.9354293,77.5477956,7,False
Meenakshi Hospital,other,12.9420715,77.553698,7,False
Medi-Tech Multi Speciality Hospital,other,12.9408667,77.5603657,-1,False
Fair Deal Pharma (Medkart),pharmacy,12.9671955,77.5736828,3,False
Kusuma Hospital,other,12.9420124,77.5506918,7,False
Bharath Medicals,pharmacy,13.0082692,77.5441674,6,False
Sri Durga Medicals,pharmacy,13.0120076,77.629801,-1,False
Shakti Medicals & Generals,pharmacy,12.9383428,77.5598834,7,False
Apollo Pharmacy,pharmacy,12.9383175,77.5549076,7,False
Central Lab,pharmacy,12.9644242,77.5968789,2,True
Isha Diagnostics,pharmacy,13.0058891,77.571338,3,False
Kanva Diagnostics,pharmacy,12.9869612,77.5602264,6,False
Rajkumar Diagnostics,pharmacy,13.0192775,77.5968129,-1,False
Nisarga Ayurvedic Medicine Research Centre,pharmacy,12.9469375,77.5981349,2,True
Mahaveer medicals,pharmacy,12.9360789,77.5601504,7,False
Antarastriya,restaurant,12.9982337,77.570518,3,False
Prashanth Pharma,pharmacy,12.9348997,77.573964,1,False
Matru Sagar,restaurant,12.94167,77.5564774,7,False
Sridhar Medicals,pharmacy,12.9877039,77.5530939,6,False
Health Shopee by Manjushree Medicals,pharmacy,12.9985585,77.5476618,6,False
Halli Dhaba,restaurant,12.9334596,77.5463009,7,False
Paakashala,restaurant,13.0071899,77.5682268,3,False
Sri Swaraj Medicals,pharmacy,12.9385698,77.5531314,7,False
Big Straw Boba Bistro,restaurant,13.0050001,77.5654236,3,False
Sri Srinivasa Medicals,pharmacy,13.0216774,77.5927881,-1,False
Rao's Biryani Center,restaurant,12.9447368,77.5537072,7,False
Sri Raghavendra Store,restaurant,13.0007571,77.563817,3,False
Venkateshwara Medicals,pharmacy,13.0053426,77.5542101,6,False
Nandhi Medicals,pharmacy,12.9887964,77.5555474,6,False
Satvik Grand,restaurant,12.9985408,77.5695317,3,False
Ayushman Ayurvedic therapy centre,other,12.9946163,77.6023871,-1,False
Suchi ruchi veg,restaurant,13.0012483,77.5723483,3,False
Megha Medicals,pharmacy,13.0026859,77.5738983,3,False
Janhavi Medicals Malleshwaram,pharmacy,13.0019448,77.5716235,3,False
K C G Pharma And Generals,pharmacy,13.0020076,77.5713914,3,False
Ambur Biriyani Center,restaurant,12.9409856,77.6085956,-1,False
A1 Biryani Restaurant,restaurant,12.9961953,77.5715924,3,False
Medall Clumax Diagnostics,pharmacy,13.005882,77.5761593,3,False
Sri Sathya Sai Food Corner,restaurant,12.943229,77.6091984,-1,False
Diabetacare,pharmacy,12.9398696,77.6257338,0,True
Holige Mane,restaurant,13.0011281,77.5724061,3,False
Taj Food Point,restaurant,12.939969,77.6091099,0,True
Pathocon Diagnostics,pharmacy,13.0064642,77.5488867,6,False
Hruday's D- 3,restaurant,12.9438907,77.6073926,-1,False
UP south,restaurant,12.9917339,77.5706166,3,False
D3 multi cusine,restaurant,12.9424172,77.6079042,-1,False
Unknown,restaurant,12.944786,77.5717922,1,False
U.D Roti Ghar &Cake ghar,restaurant,12.9447626,77.5717734,1,False
Soho Bar & Grill,restaurant,12.9446144,77.5729301,1,False
Arogya Kendra,other,12.9735891,77.5443283,-1,False
The Family Doctor Malleswaram,other,13.0029689,77.5526666,6,False
Shri Ganesh Upahar,restaurant,12.9414978,77.6087872,-1,False
Maxwell Pharma,pharmacy,12.9340694,77.625222,0,True
Gokul Veg,restaurant,12.9444068,77.5709394,1,False
Hotel Nalapaka,restaurant,12.9985137,77.5523235,6,False
Roots Advanced Hair Transplant Center,pharmacy,13.0022281,77.5739218,3,False
Presto,restaurant,12.9378405,77.574857,1,False
iLounge Cafe,restaurant,12.9415138,77.6083283,-1,False
Kaya Skin Bar,pharmacy,12.9917005,77.5706529,3,False
Sri Balaji Medicals,pharmacy,12.9495697,77.6182599,-1,False
Cutis Academy of Cutaneous Sciences,other,12.9768117,77.5449094,-1,False
Kamath Bugle Rock,restaurant,12.9396288,77.5667866,1,False
The Rogue Elephant,restaurant,12.9415832,77.5770807,1,False
Unknown,pharmacy,12.9681071,77.570295,-1,False
Acura Speciality Hospital,other,12.9353208,77.6205504,0,True
Udupi Sri Krishna Bhavan,restaurant,12.9458476,77.5710517,1,False
Kabab Magic,restaurant,12.9403117,77.5798319,1,False
Jailaxmi Medical Store,pharmacy,13.0210205,77.5586533,-1,False
Leanin Tree Art Cafe,restaurant,12.9377243,77.5794545,1,False
New Modern Hotel,restaurant,12.9543124,77.5786901,4,False
Hungerez,restaurant,12.9444202,77.5729266,1,False
The Grand Taj,restaurant,12.9814422,77.6030131,2,True
Grand Village,restaurant,12.9444107,77.5721169,1,False
K. V.,restaurant,12.983648,77.6090046,2,True
Szechuan Dragon Chinese Restaurant,restaurant,12.9401607,77.5643716,1,False
Hotel Dwarka,restaurant,12.9376671,77.5676462,1,False
Pramukh Family Restaurant - Prassidhi Enterprises,restaurant,12.9440883,77.5725864,1,False
Vidyarthi Bhavan,restaurant,12.9450065,77.5714721,1,False
Gandharva Family Restaurant,restaurant,12.9375122,77.5759985,1,False
Shree Nandini Palace,restaurant,12.9898003,77.5500343,6,False
Tiger Trail,restaurant,12.9839499,77.5985328,2,True
Koli Mane,restaurant,12.9328003,77.5688005,-1,False
South Thindies,restaurant,12.938888,77.5755794,1,False
Hilal Restaurant,restaurant,12.9857716,77.6020901,2,True
Adyar Ananda Bhavan,restaurant,12.9445488,77.57272,1,False
Ambika Veg Restaurant,restaurant,12.9878305,77.5558493,6,False
Impering,restaurant,12.9821477,77.6032233,2,True
The Homoeo World,other,12.9947201,77.5715879,3,False
viking,restaurant,13.006544,77.5647739,3,False
Shawarma king,restaurant,12.9997652,77.6173181,5,False
Dialogues Cafe,cafe,12.9353486,77.6249595,0,True
Vijay Diagnostic Centre,other,12.9458746,77.5877756,-1,False
Bank of Baroda,bank,12.998169,77.5496373,6,False
Canteen,restaurant,12.9712159,77.6038085,2,True
Empire,restaurant,12.9330908,77.5814924,1,False
Canara Bank,bank,12.9737462,77.6193171,2,True
Java City Jayanagar,cafe,12.9349175,77.5829015,1,False
Axis Bank,bank,12.993015,77.5459803,6,False
Indian High School,other,12.9938105,77.5458656,6,False
Onesta,restaurant,12.9977967,77.5474478,6,False
Chung's Chinese Corner,restaurant,12.9973118,77.5469972,6,False
Tamara Hospital & IVF Centre,other,13.0044499,77.5530755,6,False
Yemkay Supermarket,supermarket,12.9417055,77.5560577,7,False
Sweet Chariot,supermarket,12.984947,77.5540532,6,False
Madeena Supermarket,supermarket,12.9948336,77.6107384,5,False
Food Mart Super Market,supermarket,13.004258,77.6135288,5,False
Star Bazaar,supermarket,12.9367017,77.6104595,0,True
Village Super Market,supermarket,12.9995759,77.6230526,5,False
TAP Paradise Hotel,hotel,12.9725982,77.5794076,3,False
Apollo Pharmacy,pharmacy,13.0027302,77.6348876,5,False
The Chocolate Room,cafe,12.936323,77.6148832,0,True
Reliance Fresh,supermarket,12.9736279,77.5446202,-1,False
Total Gas Station,fuel,12.9740504,77.5500149,-1,False
ICICI Bank,bank,12.9777454,77.5451705,-1,False
Utsav Veg,restaurant,12.9740785,77.5498168,-1,False
Axis Bank,bank,12.9780452,77.5443195,-1,False
South Ruchi veg,restaurant,12.97755,77.5455277,-1,False
Unknown,cafe,12.9660378,77.6023232,2,True
Unknown,cafe,12.9572546,77.6074721,-1,False
ICICI Bank,bank,13.0056414,77.5689362,3,False
HDFC Bank,bank,13.0056769,77.5691145,3,False
Priya Tiffin Room,cafe,12.9889585,77.555959,6,False
"Manasa Hospital, Vijayanagar",other,12.9709463,77.5451059,-1,False
MedPlus,pharmacy,12.9702038,77.5462546,-1,False
Chai Point,cafe,12.9820341,77.609063,2,True
Woodys,restaurant,12.9824503,77.6102305,2,True
Rosewood International Hotel,hotel,12.9529166,77.5450511,-1,False
MedPlus,pharmacy,12.9341008,77.6272181,0,True
Annapurna benne dosa,restaurant,12.949078,77.5978259,2,True
Abc Resto,restaurant,12.9459795,77.5885235,2,True
Ramana Rao's clinic,other,13.0130826,77.5761449,-1,False
Starbucks,cafe,13.009057,77.5803021,3,False
Axis Bank,bank,13.0056782,77.5806895,3,False
Government Maternity Home,other,12.9983402,77.6200927,5,False
Hotel Tap Comfort,hotel,12.9701227,77.5794148,3,False
Toscano,restaurant,12.9370636,77.5851757,1,False
Thomsons,bakery,12.9980438,77.6205601,5,False
UG Regal - Budget Hotel,hotel,12.9730281,77.5692897,3,False
Unknown,hotel,12.9735897,77.5767585,3,False
Empire Plaza,restaurant,12.9978602,77.5519674,6,False
Nisarga Family Resturant,restaurant,12.9984348,77.5530658,6,False
Cafe Coffee Day,cafe,12.9874054,77.5944696,2,True
STC Canteen,restaurant,12.9754483,77.5699255,3,False
The Tower Of Pizza,restaurant,12.9331913,77.6230591,0,True
Al-Bek,restaurant,12.9966984,77.5613324,-1,False
Janatha Co-Operative Bank,bank,12.9981587,77.5465007,6,False
Cauvery Orthopaedic Centre,other,12.9984887,77.5504219,6,False
SS Pharma & Surgicals,pharmacy,13.0017154,77.5507797,6,False
Punjab National Bank,bank,13.0017261,77.5508671,6,False
Hotel Vande Matharam,hotel,13.0105439,77.5504232,6,False
Sheetal Residency,hotel,12.9805787,77.571467,3,False
Yes Bank,bank,12.987281,77.5949854,2,True
Kumon Education Center,other,13.0042862,77.5488857,6,False
Apoorva Iyengar Bakery,bakery,12.9920129,77.5753645,3,False
"Nethradhama Superspeciality Eye Hospital, Rajajinagar",other,12.997613,77.5509423,6,False
Karama restaurant,restaurant,12.9348261,77.6158067,0,True
Allahabad Bank,bank,12.9733363,77.5799372,3,False
Allahabad Bank,bank,12.9427251,77.5712748,1,False
Allahabad Bank,bank,12.9848107,77.601649,2,True
NIMHANS - Ashwini Block,other,12.9397588,77.59445,2,True
Hotel Empark,hotel,12.9456273,77.5952951,2,True
Canara Coffee,hotel,12.984291,77.5543158,6,False
Suntruppati,hotel,12.9798988,77.5759082,3,False
Anand Sagar,hotel,12.9391683,77.5715609,1,False
IndusInd Bank,bank,12.9466546,77.567626,1,False
Red Latern,restaurant,12.9890974,77.5936081,2,True
Unknown,pharmacy,12.9899208,77.5944935,2,True
National Institute of Mental Health and Neuro Sciences,other,12.9400669,77.5931597,2,True
NBRC(National Brain Research Center),other,12.9404277,77.5988406,2,True
De Street Cafe,cafe,12.9356426,77.6087092,0,True
Fab Hotel Legacy Brigade Road,hotel,12.9690356,77.6066442,2,True
Primecare Pharmacy,pharmacy,13.0054971,77.6161129,5,False
Mayur Comfor Lodge,hotel,12.9777748,77.574757,3,False
Royal Regency Lodge,hotel,12.978436,77.5753365,3,False
Pushpamala lodge,hotel,12.9776892,77.5747972,3,False
Royal Lodge,hotel,12.9782866,77.5753838,3,False
Manjusri Paradise Lodge,hotel,12.9777193,77.5748871,3,False
Anjappar Chettinad Restuarant Koramangala,hotel,12.9321765,77.623039,0,True
Cilantro,restaurant,12.9360665,77.6314327,0,True
Taj Hotel,restaurant,12.9853101,77.6069879,2,True
Adyar Ananda Bhavan,restaurant,12.9761326,77.577703,3,False
Adyar Ananda Bhavan,restaurant,12.9742651,77.5753347,3,False
Hyatt,hotel,12.9736357,77.6218548,2,True
Bharat Petroleum,fuel,12.9434017,77.5771336,1,False
Indian Bank,bank,12.9759486,77.6253838,2,True
Udupi Vaibhav,restaurant,12.9759801,77.6252681,2,True
Cambridge Hospital,other,12.9716236,77.6273835,2,True
Suneel Pharma,pharmacy,12.9753996,77.6223913,2,True
Biryani palace,restaurant,12.9469705,77.5944165,2,True
Hotel Dreams inn,hotel,12.9454272,77.5950799,2,True
AR Tea Sagar,cafe,12.9453765,77.59506,2,True
A1 biryani,restaurant,12.9439985,77.5946425,2,True
Ambur Dum Biryani,restaurant,12.956397,77.5921935,2,True
Sea Pearl,restaurant,12.9594205,77.5937772,2,True
Palace Bakery and Sweets,bakery,12.9430419,77.5945987,2,True
Dreams inn,hotel,12.9455189,77.5951301,2,True
AMM Residency,hotel,12.949295,77.5931079,2,True
Cambridge School,other,12.9588237,77.5936181,2,True
Snack dine meet,restaurant,12.9707396,77.6070806,2,True
Brigade Prince,restaurant,12.9689652,77.6064394,2,True
The Grill house,restaurant,12.9690922,77.6061839,2,True
Shangri-la Plaza,restaurant,12.9728948,77.6070991,2,True
Floral bakery,bakery,12.9446921,77.5968791,2,True
Bakery Nimhans,bakery,12.9392324,77.5949154,2,True
Respigen healthcare,other,12.9555357,77.5918347,2,True
Alfa fried and Grill,restaurant,12.9454861,77.595168,2,True
Rahhams,restaurant,12.9580965,77.593251,2,True
Bank of Baroda,bank,12.9578168,77.593057,2,True
Union Bank of India,bank,12.9584406,77.593372,2,True
Samsung smartcafe,cafe,12.9584582,77.5934393,2,True
Parijatha,restaurant,12.9593625,77.5937351,2,True
Axis Bank,bank,12.9604187,77.5941492,2,True
Maruti Medicals,pharmacy,13.0028658,77.6347877,5,False
Dolphins,restaurant,12.9968223,77.6195998,5,False
Perfect corner,restaurant,12.9948513,77.6160845,5,False
BKS,other,12.983464,77.6135965,2,True
Union Bank of India,bank,12.9819362,77.6093274,2,True
Udapas Veg Restaurant,restaurant,12.9998566,77.6251653,5,False
Primecare,pharmacy,13.0027812,77.6345924,5,False
Nandana Palace,restaurant,13.015025,77.6358463,-1,False
Raghavendra Poona Store,convenience,13.0020607,77.6324471,5,False
Shiv Sagar,restaurant,13.0021714,77.6329882,5,False
Pepper Cafe,cafe,12.985305,77.6152381,2,True
Tasty food corner,restaurant,12.9841388,77.6142655,2,True
Kiran medicals,pharmacy,12.9945444,77.6159681,5,False
HDFC Bank,bank,12.9974737,77.6202808,5,False
Doctor's diagnostics Centre,other,13.014746,77.6357881,-1,False
Manoj Medicals,pharmacy,12.9964814,77.621145,5,False
Adyar Anand Bhawan,restaurant,12.9877987,77.618514,-1,False
Hotel Imperial,hotel,12.9711154,77.6058262,2,True
BNP Paribas,bank,12.9755275,77.6179176,2,True
Driven Cafe,cafe,12.9729083,77.6084987,2,True
HDFC Bank,bank,12.9749189,77.6185055,2,True
Purvankara academy of excellence,other,12.9749455,77.6197537,2,True
The French Loaf,cafe,12.9756503,77.6170739,2,True
Marzipan Cafe,cafe,12.9746129,77.6193934,2,True
Federal Bank,bank,12.9707944,77.6007269,2,True
Brigade Garden,restaurant,12.9731397,77.6074555,2,True
Axis Bank,bank,12.9656547,77.6018918,2,True
Tiffany's,restaurant,12.9598633,77.593474,2,True
HDFC Bank,bank,12.9580518,77.5928392,2,True
RBL Bank,bank,12.9683717,77.6016294,2,True
Alfa,restaurant,12.9453166,77.5950506,2,True
Bilal,bakery,12.9449109,77.5948763,2,True
Bacardi,restaurant,12.9549365,77.5915735,2,True
AT pharma,pharmacy,12.9410118,77.592838,2,True
Hotel Revoli,restaurant,12.9560009,77.5920884,2,True
Kolkata,restaurant,12.9447719,77.5949585,2,True
Jaisheel,pharmacy,12.9359972,77.5926337,2,True
Prasad medicals,pharmacy,12.935905,77.5928069,2,True
Guru medicals,pharmacy,12.9357029,77.59262,2,True
Limra,hotel,12.9359094,77.5927065,2,True
Sri Ram coffee shop,cafe,12.9390995,77.5946074,2,True
Coffee works,cafe,12.9458364,77.5959506,2,True
Punjabi by Nature,restaurant,12.935018,77.6088654,0,True
Blue bells,hotel,12.9352918,77.6091731,0,True
Driving school for all types of cars,other,12.9479719,77.5937414,2,True
Unknown,restaurant,12.9539546,77.5857915,4,False
Hosmat Hospital,other,13.0080001,77.5837482,3,False
Axis Bank,bank,12.9555428,77.5802105,4,False
The Royal Pride,restaurant,12.9355551,77.608926,0,True
Supreme,hotel,12.9470874,77.5941987,2,True
Forum Park,restaurant,12.9353982,77.6090182,0,True
Govt. Urdu English Medium High School,other,12.9447229,77.5945885,2,True
Star Biryani,restaurant,12.9441951,77.5944954,2,True
Ghousia,pharmacy,12.9430018,77.5944379,2,True
Ram Krishna Medicals,pharmacy,12.9422748,77.594039,2,True
Bright Pharmacy,pharmacy,12.9416745,77.5935357,2,True
Dharshan Enterprises,convenience,12.9409939,77.5928155,2,True
Priya,restaurant,12.9417742,77.5938148,2,True
Venkatagiri,pharmacy,12.9437303,77.5947351,2,True
Axis Bank,bank,12.9851311,77.5967445,2,True
State Bank of India,bank,12.9864576,77.5956391,2,True
Vijaya Bank,bank,12.9880543,77.5940452,2,True
New Taj Biryani Center,restaurant,13.0007498,77.6134894,5,False
Pista House,restaurant,13.000759,77.6134424,5,False
Big Bazaar,convenience,12.9735918,77.5515142,-1,False
Empire restaurant,restaurant,12.9330586,77.5817527,1,False
ಬಿಸ್ಕ,cafe,13.0055374,77.5711178,3,False
Metro Medical Center,pharmacy,13.0074875,77.5485022,6,False
State Bank of India,bank,12.9974264,77.5485995,6,False
Fat Buddha,restaurant,12.9899243,77.5913426,2,True
Naati Manae,restaurant,12.9345723,77.6199541,0,True
Sanoop Provision Stores,convenience,12.9355095,77.6187649,0,True
Casinova,restaurant,12.9336798,77.6222761,0,True
Java City,cafe,12.9334968,77.6212815,0,True
Rajdhani Thali,restaurant,13.0115423,77.5553238,6,False
United Bank of India,bank,12.9982067,77.5499224,6,False
Annappa's Naati Mane Hassan Style,restaurant,12.9981249,77.5532794,6,False
Indian Bank,bank,12.9966687,77.5728097,3,False
Brindavan Pharma,pharmacy,12.9902704,77.5744146,3,False
Hosmat Pharmacy,pharmacy,12.9671456,77.6103961,2,True
Axis Bank,bank,12.9659404,77.6144089,2,True
Biryani Day,restaurant,13.0081078,77.5549568,6,False
Just Bake,bakery,13.0039067,77.5500713,6,False
Kotak Mahindra Bank,bank,13.0085363,77.5690421,3,False
Kasturi Pharma and General Stores,pharmacy,12.9899364,77.5528432,6,False
Altius Hospital,other,12.9849537,77.5569222,6,False
Rajmahal Boarding and Lodge,hotel,12.980358,77.5737339,3,False
Coorg Products,convenience,12.9646225,77.6139894,2,True
MS Restaurant,restaurant,12.9646268,77.6139096,2,True
Kamath Stores,supermarket,12.9644942,77.6135414,2,True
Santosh Pharma,pharmacy,12.9958589,77.6082728,5,False
Mustafai Unani Pharmacy,pharmacy,12.9941962,77.6076009,5,False
Fathima Store,supermarket,12.9922062,77.6044577,-1,False
Bangalore Diabetes Hospital,other,12.9918415,77.5968531,2,True
HDFC Bank,bank,12.997125,77.5868347,-1,False
NU Hospitals,other,13.011845,77.5526061,6,False
HDFC Bank,bank,13.0047475,77.5487571,6,False
SVC Co-Operative Bank Ltd.,bank,12.9966897,77.5686323,3,False
Santhosh Bar & Restaurant,restaurant,12.997507,77.5500266,6,False
Hotel Nalapaka,restaurant,12.9979227,77.5522341,6,False
Karnataka Bank,bank,12.9967846,77.5626479,-1,False
Syndicate Bank,bank,12.9966535,77.5702704,3,False
Canara Bank,bank,12.9966843,77.57085,3,False
Brindavan Cake and Bakery,bakery,12.989639,77.5732106,3,False
New Karavali Bar & Restaurant,restaurant,12.9935528,77.5712961,3,False
Apollo Pharmacy,pharmacy,12.9867071,77.5796028,3,False
The Rialto Hotel,hotel,12.9804313,77.5765457,3,False
Unknown,convenience,13.0032488,77.6314787,5,False
Unknown,convenience,13.0034433,77.6323983,5,False
ICICI Bank,bank,12.9468669,77.5964194,2,True
State Bank of India,bank,12.9386918,77.5781098,1,False
HDFC Bank,bank,12.9471118,77.5966087,2,True
V. S. Achar Multispeciality Hospital,other,12.9472091,77.5966914,2,True
Trust Medicals,pharmacy,12.948031,77.5972353,2,True
State Bank of India,bank,12.9483581,77.5972643,2,True
Unknown,convenience,13.0029189,77.6301438,5,False
Karnataka Bank,bank,12.9488127,77.5978542,2,True
State Bank of India,bank,12.9327598,77.5849626,1,False
State Bank of India,bank,12.9485625,77.5976727,2,True
Nature Cure Hospital,other,12.933223,77.5842632,1,False
Anand Bhavan Sweets,bakery,12.9495474,77.5970623,2,True
Mano Provision Store,convenience,13.0033059,77.6290181,5,False
Sree Subramanya Co-Operative Bank,bank,12.9501743,77.5798156,4,False
Canara Bank,bank,12.946047,77.5784123,1,False
Syndicate Bank,bank,12.9437578,77.5712628,1,False
Unknown,bakery,12.9540847,77.5800757,4,False
Ayurvedic Pharmacy,pharmacy,12.9467131,77.5692249,1,False
Via Milano,cafe,12.9370109,77.6275262,0,True
ಬಾಲಾಜಿ ಮೆಡಿಕಲ್ಸ್,pharmacy,12.9334146,77.5626612,-1,False
The Chancery Hotel,hotel,12.975729,77.5992456,2,True
State Bank of India,bank,12.97459,77.5447121,-1,False
Kinto School,other,12.9629891,77.551268,-1,False
Kinto High School,other,12.9610936,77.5468666,-1,False
Jawahar School,other,12.9634851,77.5529474,-1,False
Government Hospital,other,12.966103,77.5549647,-1,False
Hotel Adarsha Palace,hotel,12.9744204,77.5709781,3,False
Hotel Shreesagar,restaurant,12.9744205,77.5708775,3,False
HDFC Securities,bank,12.996966,77.5523974,6,False
"Emergency Block , NIMHANS",other,12.9403849,77.5945391,2,True
Repco Bank,bank,12.977874,77.6285,2,True
Minla Hotel,hotel,13.0108921,77.5505079,6,False
Ujval,hotel,12.9923067,77.5944585,2,True
Jayamahal Palace,hotel,12.9948258,77.5970478,2,True
Canara Bank,bank,12.9956522,77.6015774,-1,False
Baker's Craft,bakery,13.0051392,77.6232666,5,False
Unknown,convenience,13.0054488,77.6252067,5,False
State Bank of India,bank,12.9895036,77.5721251,3,False
HDFC Bank,bank,12.9358925,77.5477749,7,False
MediBase,other,12.9366134,77.5483683,7,False
KKN coaching classes,other,12.9369584,77.5486218,7,False
Just Bake,bakery,12.9374505,77.5491321,7,False
Aahar Utsav,restaurant,12.9373192,77.549336,7,False
KBS Family Mart,supermarket,12.9376675,77.5492313,7,False
Havyaka Mess,restaurant,12.9377041,77.5492421,7,False
Oven Fresh,bakery,12.9377198,77.5493212,7,False
Cake Bites,bakery,12.9388615,77.5486191,7,False
Unknown,convenience,12.9393634,77.5501453,7,False
coffee bite,cafe,12.9386661,77.549057,7,False
Seetha Medicals,pharmacy,12.9391798,77.551355,7,False
New Sagar Fast Food,restaurant,12.9389282,77.5515602,7,False
Bunt's Biriyani Palace,restaurant,12.9389157,77.5518525,7,False
Jaganni Medicals and General Stores,pharmacy,12.9386733,77.5526257,7,False
Sri Sharada Enterprises,convenience,12.9385824,77.5529046,7,False
Pushpa Fancy and Bangle Stores,convenience,12.9386125,77.5528785,7,False
Meenatshi,convenience,12.9385903,77.5530441,7,False
Sri Mahalakshmi Ghee Center,convenience,12.938587,77.5530642,7,False
Suraksha Medicals,pharmacy,12.9387648,77.5530495,7,False
Dhanalakshmi Departmental Stores,supermarket,12.938804,77.5529925,7,False
MedPlus,pharmacy,12.9388177,77.5528852,7,False
J.K. Traders,supermarket,12.9388491,77.5527685,7,False
L.J. Iyengar's Bakery,bakery,12.9388733,77.5526901,7,False
Unknown,pharmacy,12.9389135,77.5525787,7,False
Manoor Maiya's South Kitchen,restaurant,12.9386805,77.5523454,7,False
Venkateswara Chats,restaurant,12.9387811,77.5521845,7,False
Brahmin Cafe,restaurant,12.9387151,77.5520336,7,False
Adarsh Medical Center,pharmacy,12.9386903,77.5518841,7,False
Ganesh Traders,convenience,12.9361997,77.5510016,7,False
Dakshin Kitchen,restaurant,12.9437583,77.5665638,1,False
Chinese Kitchen,restaurant,12.9437988,77.5665812,1,False
Koteshwara Co-Op Bank,bank,12.9506391,77.5799219,4,False
Sapthagiri Industries,convenience,12.9510776,77.5774924,4,False
Ramu Tiffin Center,restaurant,12.9512527,77.5774267,4,False
Raghav's Coaching Centre,other,12.9523571,77.5773644,4,False
Sri Rajalakshmi Bakery and Sweets,bakery,12.9523578,77.5773074,4,False
Sri Krishna Darshini,restaurant,12.9524087,77.5773087,4,False
Kotak Mahindra Bank,bank,12.952479,77.5774381,4,False
Nagashri Medicals,pharmacy,12.9524904,77.5773248,4,False
Laxmi Home Needs,convenience,12.9527838,77.5773469,4,False
Ocea International,hotel,12.9698386,77.6066965,2,True
Hotel Vellara,hotel,12.9669657,77.6068192,2,True
UCO Bank,bank,12.9340385,77.6122448,0,True
Unknown,bakery,12.9440943,77.6077504,-1,False
3 Page,restaurant,12.9866165,77.579997,3,False
Cafe Coffee Day,cafe,12.9802917,77.5779251,3,False
Bank of Baroda,bank,12.9417037,77.6085642,-1,False
Hotel Kaveri,hotel,12.9803587,77.5717968,3,False
New Udupi Upahar,restaurant,12.964262,77.5967957,2,True
Grand Suites,hotel,12.9773082,77.5750587,3,False
Unknown,parking,12.9656864,77.5962047,2,True
Unknown,parking,12.965702,77.5962731,2,True
Unknown,parking,12.9657249,77.5963449,2,True
Unknown,parking,12.9657419,77.5964045,2,True
Hotel Sanman,restaurant,12.9867899,77.5745807,3,False
Benhur Pride,hotel,12.9599897,77.5565132,-1,False
South Canara Coffeehouse,cafe,12.9722318,77.5787988,3,False
Bharat Petroleum,fuel,13.0053314,77.5937908,-1,False
Cafe Felix,cafe,12.9737445,77.62041,2,True
Unknown,supermarket,12.9397956,77.5631777,1,False
Sri Banashankari Medicals,pharmacy,13.0021577,77.5526639,6,False
Aramane Donne Biriyani,restaurant,12.9979072,77.5695359,3,False
Apollo Pharmacy,pharmacy,12.9864932,77.5558162,6,False
Vajra Heritage,hotel,12.9878823,77.5558068,6,False
V. G. Provision Store,convenience,12.9877647,77.5558484,6,False
Canara Bank,bank,12.9877078,77.5558591,6,False
Himalaya Provision Store,convenience,12.9872184,77.555841,6,False
LJB Bakery,bakery,12.9871929,77.5558383,6,False
Just Bake,bakery,12.9896759,77.5559161,6,False
Unknown,supermarket,12.9887846,77.555898,6,False
NKGSB Bank,bank,12.9886337,77.5558993,6,False
Sri Sai Cake Palace,bakery,12.988128,77.5558463,6,False
Sree Prabhu Medical Centre,pharmacy,12.9880221,77.5558457,6,False
State Bank of India,bank,12.9721029,77.6193559,2,True
Sri Shankara Cancer Hospital And Research Centre (A Service Unit Of Sscf),other,12.9542624,77.5709473,1,False
Punjab National Bank,bank,12.9649875,77.5996327,2,True
Bakasur,restaurant,12.9380609,77.6275572,0,True
Metro Cash and Carry,supermarket,12.9651869,77.5617183,-1,False
Lakeside Medical Centre and Hospital,other,12.9878631,77.6177434,-1,False
Apex Bank,bank,12.9738312,77.5444879,-1,False
Baker's Pride,bakery,12.9737136,77.5444758,-1,False
Canara Bank,bank,12.9736104,77.5444382,-1,False
The London Curry House,restaurant,12.9855047,77.5792404,3,False
MDP Coffee shop,cafe,12.9347403,77.6126656,0,True
Bamey’s Restro Cafe,restaurant,12.9360677,77.6160036,0,True
Aparna Hospital,other,12.9362087,77.616947,0,True
Carrots,restaurant,12.9388196,77.625775,0,True
Saraswat Bank,bank,12.936096,77.6258876,0,True
HDFC Bank,bank,12.9325902,77.6232725,0,True
Tarbouche,cafe,12.9329338,77.6145578,0,True
The National Co-operative Bank,bank,12.9353243,77.6146417,0,True
House of Commons,restaurant,12.9348404,77.6162173,0,True
Tibet Mall,mall,12.9337996,77.6159147,0,True
Juice Junction,restaurant,12.9341641,77.6166913,0,True
Hatti Kaapi,cafe,12.9339899,77.6170683,0,True
Apollo Spectra Hospitals,other,12.9338175,77.6201615,0,True
HDFC Bank,bank,12.9356454,77.628683,0,True
Nasi and Mee,restaurant,12.9350683,77.6292839,0,True
Yes Bank,bank,12.9362974,77.6277069,0,True
BSR Lassi Packers Shop,restaurant,12.9344393,77.6295345,0,True
Andhra Bank,bank,12.9346219,77.6293199,0,True
Majestic Bar & Restaurant,restaurant,12.974151,77.5749138,3,False
Hotel Mahalakshmi,hotel,12.9742409,77.575254,3,False
Kotak Mahindra Bank,bank,12.9740325,77.5755128,3,False
Central Bank of India,bank,12.9750489,77.5761449,3,False
MySpace Express Balaji Residency,hotel,12.997393,77.5500353,6,False
Sri Devi Lodge,hotel,12.9899117,77.5532573,6,False
Sri Durga Grand Veg,restaurant,12.9899111,77.5532211,6,False
Seetha Medicals & General Store,pharmacy,12.9899104,77.5531138,6,False
Axis Bank,bank,12.9899287,77.5528993,6,False
Aryan Residency,hotel,12.9899326,77.5527397,6,False
Karnataka Bank,bank,12.959495,77.5933412,2,True
J&K Bank,bank,12.9631282,77.5891892,2,True
Gogas,fuel,12.9588104,77.5868782,2,True
Raata,restaurant,12.997555,77.5445911,6,False
Empire,restaurant,12.9977118,77.5467135,6,False
Kiran Medical Store,pharmacy,12.9332568,77.6296592,0,True
Xoox Brewmill,restaurant,12.9354619,77.6150961,0,True
Rice Corner,supermarket,12.9761861,77.5517728,-1,False
Shiva Vision Care,other,12.9366526,77.6277125,0,True
The Tiffin Express,restaurant,12.9367615,77.6276835,0,True
Lalithamahal,hotel,12.9716633,77.5726981,3,False
Salvadores,restaurant,12.973506,77.6113148,2,True
Vyshali Food Corner,restaurant,12.9611012,77.5887564,2,True
Unknown,restaurant,13.0002762,77.5500211,6,False
GKHPS Vivekangara,other,12.9552253,77.6210383,-1,False
GTELPS Vivekanagara,other,12.9551126,77.6210785,-1,False
GUPHS Arblen,other,12.96555,77.6061116,2,True
GHPS (K) Jogupalya,other,12.9723069,77.6302852,2,True
GUHPS Jogupalya,other,12.9706487,77.6311063,2,True
Sri Ramakrishna HPS Ulsoor,other,12.9760932,77.6293447,2,True
GMPS Marp Adugodi,other,12.9411408,77.6120178,0,True
GUHPS Rajendranagar,other,12.9475264,77.6171647,0,True
Koramangala K&T HPS,other,12.94766,77.6182798,0,True
Long Memorial HPS,other,12.942581,77.6089966,-1,False
GMPS Koramangala,other,12.9436634,77.6189383,0,True
Shivaganga HPS Koramangala,other,12.94917,77.6188547,-1,False
GHPS Dairy Colony,other,12.9386863,77.6072286,0,True
GHPS Lakkasandra,other,12.9438378,77.6000871,2,True
GMPS Munichinnappa Adugodi,other,12.9442879,77.6069753,-1,False
GUHPS Lakkasandra,other,12.9431126,77.5995158,2,True
GHPS Eegipura,other,12.9447434,77.6296536,0,True
Mahanagara Palike HPS Neelasandra,other,12.9547967,77.6116127,-1,False
GHPS Ksrtc Shanthinagar,other,12.9539725,77.6004211,-1,False
Shanthi KHPS Vinayakanagar,other,12.9533162,77.6005694,-1,False
GKHPS Yalagondana Palya,other,12.9639537,77.6161707,2,True
GKMPS Wilson Garden,other,12.9482206,77.5968593,2,True
St Michael LPS Shanthinagar,other,12.9555605,77.5978653,2,True
Vijaya HPS Jayanagar,other,12.9357317,77.57751,1,False
Maruthi KHPS Willson Garden,other,12.9492633,77.5974085,2,True
Ganapathi Vidyamandir V V Puram,other,12.9523143,77.5817969,4,False
GHPS Byrasandra,other,12.933863,77.5910009,-1,False
GHPS(U) Byrasandra,other,12.9329465,77.5918045,-1,False
Shree Sangameshwara KHPS Byrasandra,other,12.9339884,77.5906546,-1,False
GUHPS V V Puram,other,12.9544133,77.5821593,4,False
GHPS Lalbhag Siddapur,other,12.9458038,77.5884207,2,True
Padmavathi HS Suddagunte Palya,other,12.9475906,77.6117497,-1,False
St Miras HPS Ulsoor,other,12.9685408,77.6288761,2,True
Kairaliketan HPS Jogupalya,other,12.9766881,77.6282174,2,True
St. Mary's Euphrasia School,other,12.9675192,77.603794,2,True
GUMPS Tank Garden Arekempanahalli,other,12.9446007,77.594691,2,True
Sacred Heart Boys Primary School,other,12.9664376,77.6101244,2,True
Vijayalakshmi Bakery,bakery,12.9719808,77.5468134,-1,False
Portland,restaurant,12.9702258,77.6146582,2,True
"Babymirror HPS Vivekanagar, Austin Town W No 71",other,12.9572323,77.6179802,-1,False
"Bala Aesu Vidyalaya HPS Viveka, Austin Town W No 71",other,12.9541946,77.6185446,-1,False
"Infant Indian HPS Neelasandra, Austin Town W No 71",other,12.9566503,77.6154402,-1,False
"Karnataka Vidya Shala (KVS)HPS, Austin Town W No 71",other,12.9575753,77.6140476,-1,False
Madhu Lodge,hotel,12.9711847,77.5763869,3,False
Nandini Milk Parlour,convenience,12.9702871,77.5759404,3,False
Karur Vysya Bank,bank,12.9692985,77.5793482,3,False
Manak Mewa,bakery,12.9707166,77.5784032,3,False
Canara Bank,bank,12.9692389,77.5795139,3,False
Indian Bank,bank,12.9697564,77.5797471,3,False
Udupi Sri Krishna Bhavan,restaurant,12.9716342,77.5741018,3,False
"Shanthinikethan HPS Vivekanag, Austin Town W No 71",other,12.9531262,77.6204588,-1,False
"Elight HS, Austin Town W No 71",other,12.9517387,77.6130259,-1,False
"Reliance School, Austin Town W No 71",other,12.9568361,77.6137517,-1,False
"Little Angels HS, Dommalur",other,12.9608902,77.6361692,-1,False
Suresh Pharma,pharmacy,12.9777866,77.6302967,2,True
Snacks shop,bakery,12.9778066,77.6303466,2,True
Hotel Bangalore Gate,hotel,12.9735807,77.5794876,3,False
Hotel Sanman,restaurant,12.977562,77.5744205,3,False
Syndicate Bank,bank,12.9826939,77.5607271,6,False
Udupi Upachar,restaurant,12.9904646,77.5505346,6,False
Mulberry Greens,supermarket,13.0037844,77.6228196,5,False
Kerala Kitchen,restaurant,13.0037091,77.6226122,5,False
The Eye Surgical Centre,other,12.9821954,77.5493143,6,False
GTLPS jogupalya,other,12.9723602,77.6304912,2,True
"GULPS Jogupalya,",other,12.9740521,77.6273143,2,True
"GLPS Gowthamapura, jogupalya",other,12.9696041,77.6243903,2,True
"Gk&TLPS L R Nagara, Koramangala",other,12.9505983,77.6153935,-1,False
"GLPS Rajendranagar, Koramangala",other,12.9448595,77.6170535,0,True
Holy Saint Eng Sch Koramangala,other,12.9356984,77.6166336,0,True
Neena HPS Kormangala,other,12.935468,77.6172102,0,True
Babymona EHPS Koramangala,other,12.9349547,77.6217464,0,True
Lawrence High School Koramangala,other,12.9399342,77.6157295,0,True
"Mes HS, Koramangala",other,12.9412382,77.6187265,0,True
"Sunshine HPS Lr Nagar, Koramangala",other,12.9515543,77.6190638,-1,False
"Cephas Memorial Sch Rajendranagra, Koramangala",other,12.9447944,77.6172545,0,True
"Chinmaya Vidyalaya, Koramangala",other,12.9350185,77.6276797,0,True
"GLPS (U) Adugodi, Lakkasandra",other,12.9393229,77.6076781,0,True
"LPS Girls S R Nagar, Lakkasandra",other,12.9392239,77.6018416,-1,False
St. Sara Eng School Madiwala,other,12.9462573,77.6173121,0,True
Hatti Kaapi,cafe,13.0112702,77.5556794,6,False
Chai Point,cafe,13.0116766,77.5556861,6,False
Cookie Man,cafe,13.0110494,77.5549485,6,False
Bombay Brasserie,restaurant,13.0108052,77.5554043,6,False
ICICI Bank,bank,12.997802,77.5492702,6,False
Hotel Akshaya Non Veg,restaurant,12.9977484,77.5473746,6,False
Eastern Super Market,supermarket,12.9973525,77.5475825,6,False
Devi Upahara,restaurant,12.9636997,77.5923663,2,True
Nayan Drugs and Opticals,pharmacy,13.0078107,77.5484819,6,False
Unknown,parking,13.0147655,77.5706595,-1,False
Unknown,parking,13.0169346,77.5710028,-1,False
Unknown,parking,13.0152131,77.5719671,-1,False
Unknown,parking,13.0154901,77.570748,-1,False
Frank Ross Pharma,pharmacy,13.0173749,77.5627034,-1,False
Government High School,other,13.0175291,77.5589477,6,False
Unknown,parking,13.0179119,77.5680685,-1,False
State Bank of India,bank,12.9753831,77.6037573,2,True
eat.fit,restaurant,12.9751224,77.6040068,2,True
Brik Oven,restaurant,12.9747264,77.6053204,2,True
Chai Point,cafe,12.974665,77.6066507,2,True
Coast II Coast,restaurant,12.9746251,77.6073769,2,True
saatvikk,restaurant,12.9743644,77.607851,2,True
United Bank of India,bank,12.9737704,77.6076552,2,True
Tea Trails,cafe,12.9729301,77.6074769,2,True
Frozen Bottle,cafe,12.9728288,77.607387,2,True
Monarch Hotel,hotel,12.9727609,77.6073763,2,True
CSB Bank,bank,12.9713517,77.6065451,2,True
"Champaca Bookstore, Library & Cafe",cafe,12.9873463,77.5959886,2,True
New Shanthi Sagar,restaurant,12.9860978,77.5543504,6,False
Unknown,parking,13.0172861,77.5630367,-1,False
Majestic Hotel,restaurant,12.9774153,77.5744736,3,False
Syndicate Bank,bank,12.9742181,77.5793459,3,False
United Bank of India,bank,12.9734339,77.5806454,3,False
