name,category,latitude,longitude,cluster_label,is_hotspot
Bharat Petroleum,fuel,12.9365895,77.5804447,8,False
Bharat Petroleum,fuel,12.9356671,77.6144578,0,True
Bharat Petroleum,fuel,13.0096888,77.5624992,1,True
Indian Oil,fuel,12.9571863,77.5862334,-1,False
Bharat Petroleum,fuel,12.9758396,77.5985677,1,True
IBP Petrol Station,fuel,12.9380085,77.5496081,2,False
Indian Oil,fuel,12.9916942,77.5457901,-1,False
Unknown,fuel,12.9950213,77.5964919,1,True
Indian Oil,fuel,12.9420282,77.5802856,8,False
HP Petrol Pump,fuel,12.933506,77.6303939,0,True
Bull Temple Filling Station,fuel,12.9462008,77.5679859,3,False
Bharat Petroleum,fuel,12.9883033,77.5774436,1,True
Unknown,fuel,12.9596642,77.5829322,1,True
Sri Vishvesha Agencies,fuel,12.941632,77.5641945,3,False
HP Petrol Bunk,fuel,12.9771222,77.5466032,-1,False
Anjandri Petrol / Gas Station,fuel,12.9571508,77.5624395,3,False
Shree Krishna Auto Gas,fuel,12.9672844,77.57,1,True
Indian Oil,fuel,12.9966824,77.6193965,4,False
Unknown,fuel,12.9841172,77.5600221,5,True
Bharat Petroleum,fuel,12.9479149,77.5794869,9,False
HP,fuel,12.9916432,77.5578265,5,True
Indian Oil,fuel,12.9810568,77.5583911,5,True
Lakshmamma Petrol / Gas Station,fuel,13.0213985,77.6005015,-1,False
Bharat Petroleum,fuel,12.9765112,77.5799146,1,True
Srinivasa Petrol / Gas Station,fuel,13.0030286,77.6349993,4,False
Vijees Auto Gas,fuel,12.9873459,77.5723926,1,True
Total Gas,fuel,12.9669405,77.5470005,-1,False
Indian Oil,fuel,12.9673086,77.5461504,-1,False
Aegis Autogas,fuel,12.9460933,77.5950233,6,False
Shell,fuel,12.9569629,77.5491868,-1,False
Bharat Petroleum,fuel,12.9602862,77.5570381,3,False
Total Gas Station,fuel,12.9740504,77.5500149,-1,False
Bharat Petroleum,fuel,12.9434017,77.5771336,3,False
Bharat Petroleum,fuel,13.0053314,77.5937908,-1,False
Gogas,fuel,12.9588104,77.5868782,-1,False
Hindustan Petroleum,fuel,13.0206859,77.5521442,-1,False
Aegis Auto Gas,fuel,12.9862919,77.5724177,1,True
Go Gas,fuel,12.9472886,77.5798621,-1,False
Bharat Petroleum,fuel,12.9573596,77.5511498,-1,False
HP Gas Station,fuel,13.0075192,77.5711141,1,True
Bharat Petroleum,fuel,12.9572457,77.5509305,-1,False
TotalEnergies,fuel,13.0195518,77.5527632,5,True
Total,fuel,12.9506877,77.605377,-1,False
TotalEnergies,fuel,12.9420666,77.5854427,8,False
Unknown,fuel,13.018365,77.6187666,-1,False
Indian Oil,fuel,12.9463785,77.5680606,3,False
Indian Oil,fuel,12.990847166666665,77.57183536666668,1,True
Indian Oil,fuel,12.975241892573688,77.60132182930698,1,True
Hindustan Petroleum,fuel,12.989481384336344,77.57263457552983,1,True
Indian Oil,fuel,12.972466514298517,77.6198917584623,1,True
HP,fuel,12.976010135534038,77.59783411918232,1,True
Unknown,fuel,12.992934432668607,77.60910944688676,4,False
Bharat Petroleum,fuel,12.99722413461408,77.5467797563994,5,True
Essar,fuel,13.0149570839556,77.62782793457849,-1,False
Bharat Petroleum,fuel,12.991885350000002,77.60388540000001,-1,False
Mamtha Petroleum,fuel,12.935814966659452,77.5476520041397,2,False
Indian Oil,fuel,13.004970529424396,77.61975217142256,4,False
Kaveri Petrol,fuel,12.945433312964221,77.61866305571728,0,True
HP,fuel,13.002643595815126,77.58379756805948,1,True
Indian Oil,fuel,12.949603558499756,77.62088023762156,7,False
Indian Oil,fuel,12.939510381814364,77.62535382727224,0,True
Unknown,fuel,12.952293678562238,77.58925239614959,-1,False
Indian Oil,fuel,12.945234097220418,77.61900547167009,0,True
IOC Hamsa Service Station,fuel,12.933735788484823,77.61149975869753,0,True
Unknown,fuel,12.962042012945517,77.59423553986504,1,True
Nandini Filling Station,fuel,12.945788119826018,77.5953342819969,6,False
Indian Oil,fuel,12.966432753146659,77.59532943235281,1,True
Shell,fuel,12.949619230085414,77.5928628007687,6,False
Hindustan Petroleum,fuel,12.955770261051857,77.58081650452219,9,False
Aegis Autogas,fuel,13.020830504418736,77.56306815679471,-1,False
Indian Oil,fuel,12.972061372950122,77.58652478960127,-1,False
Total,fuel,12.950597568315144,77.60538439983743,-1,False
Shell,fuel,12.982229683468374,77.56642632237285,-1,False
Bharat Petroleum,fuel,12.99089638671868,77.61384245487339,4,False
Bharat Petroleum,fuel,12.961875585970283,77.56417471008855,3,False
Shell,fuel,13.004885063128839,77.58085066224164,1,True
Shell,fuel,12.971372065291854,77.59706903337793,1,True
Bharat Petroleum,fuel,12.938795037184994,77.63070370654093,0,True
Bharat Petroleum,fuel,12.981461763108037,77.63094780885076,1,True
Total,fuel,13.019579775711637,77.55269594420093,5,True
Bharath Petroleum,fuel,13.006029737557597,77.57890277492915,1,True
Nayara,fuel,13.008045350000002,77.54601430000001,5,True
Total,fuel,12.943176029831864,77.57977568980503,8,False
Indian Oil,fuel,12.996314130446134,77.5802791969502,-1,False
Trigaz,fuel,12.995066794686316,77.57914543988963,1,True
Indian Oil,fuel,12.997452328254946,77.56049645349054,-1,False
Unknown,fuel,12.957387825673859,77.56839180649017,3,False
Shell,fuel,12.95357853952581,77.56724150298813,3,False
HP,fuel,12.95924940419483,77.57557069975799,3,False
Unknown,fuel,12.947387756744758,77.57970023301738,-1,False
Bharati Petrol / Gas Station,fuel,12.982315509133546,77.5941812301557,1,True
Shell,fuel,12.990462109771288,77.59358567516837,1,True
Indian Oil,fuel,12.956438316290988,77.54876203485874,-1,False
Unknown,fuel,12.93705805,77.5767783,8,False
HP Petrol Pump,fuel,12.996500244778359,77.61179628415475,4,False
Bharat Petroleum,fuel,13.001575693955951,77.63151488272341,4,False
Shell,fuel,13.012357072864114,77.5537277437248,5,True
Shell,fuel,12.957639694252148,77.55187572115305,-1,False
Varadaraja Petrol / Gas Station,fuel,13.005789839779965,77.55440502085588,5,True
Shell,fuel,12.959906022698878,77.5835680671324,1,True
Indian Oil,fuel,12.973300541965596,77.58148600202888,1,True
Unknown,fuel,12.96151272682055,77.58568893940782,1,True
Bharat Petroleum,fuel,12.958848784839837,77.5825323153756,-1,False
Unknown,fuel,12.956178350000002,77.57685194999999,3,False
Mahashakthi Enterprises,fuel,12.93688129875927,77.58482962803782,8,False
Shell,fuel,13.021180233561992,77.58441325107029,-1,False
Indian Oil,fuel,12.975574106541607,77.54829598999108,-1,False
Indian Oil,fuel,12.959100057117269,77.55579386730571,-1,False
Unknown,fuel,12.975923526156349,77.55737890885574,-1,False
Unknown,fuel,12.989968929714216,77.57416284335444,1,True
Shell,fuel,13.014943837570558,77.62807948233694,-1,False
Unknown,fuel,13.013283900000001,77.63568055,-1,False
Go Gas,fuel,13.00293641994945,77.55363051035071,5,True
Unknown,fuel,13.018590478118707,77.59195431742641,-1,False
Hindustan Petroleum,fuel,12.991835641480192,77.6147317226525,4,False
Indian Oil,fuel,12.961414911868566,77.63459097866131,-1,False
Pushyamee,pharmacy,13.0006252,77.5652425,1,True
Manipal North Side Pharmacy,pharmacy,13.0009721,77.5640265,1,True
Keshava Medical & General Stores,pharmacy,13.0059079,77.578507,1,True
S. S. Pharma,pharmacy,12.9965785,77.6045552,4,False
Saisudha Medical,pharmacy,13.0129089,77.5742856,-1,False
Amruth Medicals,pharmacy,13.0050896,77.623376,4,False
Apollo Pharmacy,pharmacy,13.0052518,77.6233121,4,False
Radhakrishna Pharmacy,pharmacy,12.9408942,77.5456204,2,False
Sri Balaji Medicals and General Stores,pharmacy,12.9403595,77.5458556,2,False
Vijay Medicals,pharmacy,13.0044271,77.6037741,-1,False
Sri Ganesh Medicals,pharmacy,13.0077106,77.5640402,1,True
MedPlus,pharmacy,13.0067295,77.5642274,1,True
Health and Glow,pharmacy,12.9701421,77.6314807,-1,False
Shakti Medical,pharmacy,12.9360494,77.6149821,0,True
Health And Glow,pharmacy,12.9351354,77.6134273,0,True
Apollo Pharmacy,pharmacy,12.9363466,77.6146761,0,True
Ramdev Medicals,pharmacy,12.9354499,77.5925943,-1,False
Wellness Forever,pharmacy,12.9358054,77.5927686,6,False
The Cash Pharmacy,pharmacy,12.9683152,77.6004368,1,True
Residency Pharmacy,pharmacy,12.9668907,77.5986274,1,True
Apollo Pharmacy,pharmacy,12.9373048,77.6244506,0,True
St Theresa Pharmacy,pharmacy,13.0061311,77.5536439,5,True
Sagar Pharmacy,pharmacy,12.9370493,77.5686801,-1,False
Apollo Pharmacy,pharmacy,12.9423666,77.6174611,0,True
Rakesh Medicals,pharmacy,12.9336091,77.5661398,-1,False
Subramanya Medicals,pharmacy,12.9334734,77.5661076,-1,False
T R Medicals,pharmacy,12.9327937,77.5677437,-1,False
Apollo Pharmacy,pharmacy,12.9323571,77.5676123,-1,False
Krishna Pharma,pharmacy,12.941581,77.617208,0,True
Balaji Medical Store,pharmacy,13.0078494,77.5473216,5,True
Sri Dhanvantri Ayurved Bhandara,pharmacy,13.0082414,77.5468871,5,True
Himalaya Health care - druggists,pharmacy,12.9377532,77.6266479,0,True
Arathi medicals,pharmacy,12.9353953,77.6233434,0,True
Maiyya's Pharmacy,pharmacy,12.9425654,77.5854098,8,False
Sri Rama Medicals and General Stores,pharmacy,12.9971233,77.5512976,5,True
Religare Medicals,pharmacy,13.0002224,77.5688175,1,True
Unknown,pharmacy,12.9322462,77.5894525,-1,False
Sudha Parimala Medical Store,pharmacy,12.9345466,77.5895421,-1,False
Unknown,pharmacy,12.933396,77.5626216,-1,False
Unknown,pharmacy,12.9352471,77.5607927,-1,False
Lavish Medical,pharmacy,12.9410107,77.6176795,0,True
Priyanka Pharma,pharmacy,13.0055429,77.6252364,4,False
Apple Pharma,pharmacy,12.9997824,77.5681888,1,True
Kasturi Medicals,pharmacy,12.9535215,77.5780606,9,False
New Pushyamee,pharmacy,13.0037706,77.5653221,1,True
Trustx,pharmacy,12.9356219,77.631044,0,True
Pharma Plus,pharmacy,12.935306,77.6306217,0,True
Janhavi Medicals,pharmacy,13.0045164,77.5785881,1,True
Ganesh Medicals & General Store,pharmacy,12.9634823,77.5523641,-1,False
Vaidya Ratnam Ayurvedic Center,pharmacy,12.9785893,77.5736371,1,True
Apollo Pharmacy,pharmacy,12.9664142,77.5925401,1,True
Manjula Medicals,pharmacy,12.9668083,77.592647,1,True
Healing Touch Pharma,pharmacy,12.9742234,77.6359937,1,True
Apollo Pharmacy,pharmacy,12.9976064,77.5512613,5,True
Sri Manjunatha Medical & General Stores,pharmacy,12.9606852,77.5715513,3,False
Leela medicals,pharmacy,13.0003234,77.5693738,1,True
Standard Medicals,pharmacy,12.9896302,77.5560208,5,True
Sairam Medicals and General Stores,pharmacy,12.9891599,77.5559116,5,True
Sri Prasamshi Medical Stores,pharmacy,12.9904639,77.5569256,5,True
Swathi Medical Store,pharmacy,12.9780448,77.6332441,1,True
Padmavathi Medicals,pharmacy,12.9483481,77.6000553,6,False
Sanjana Medicals,pharmacy,12.948665,77.6001706,6,False
Balaji Pharma,pharmacy,12.9674186,77.5997528,1,True
Chetak Pharmacy,pharmacy,12.9678054,77.6002865,1,True
Shiva Medicals,pharmacy,13.0016906,77.630597,4,False
The Medicals,pharmacy,13.0020057,77.6321604,4,False
Medreich,pharmacy,13.00281,77.6336462,4,False
Bangalore Medical,pharmacy,12.9640156,77.5510964,-1,False
star hospital ,pharmacy,12.9641843,77.5502624,-1,False
Jay Medicals,pharmacy,13.0014659,77.6306068,4,False
Pavan Pharma,pharmacy,13.0014222,77.6291289,4,False
Chandra Medicals,pharmacy,13.0013994,77.6288185,4,False
Kashif Medical,pharmacy,12.9633542,77.5487215,-1,False
Mysore Medical,pharmacy,12.9640984,77.5506116,-1,False
Unity Hospital,pharmacy,12.9626651,77.5482596,-1,False
Unknown,pharmacy,12.9618971,77.552098,-1,False
Shifa Medical,pharmacy,12.9642578,77.5489199,-1,False
Unknown,pharmacy,12.9621356,77.5493894,-1,False
Global Medical,pharmacy,12.9634155,77.5520086,-1,False
Unknown,pharmacy,12.9608525,77.5490077,-1,False
Unknown,pharmacy,12.9653807,77.5941925,1,True
Sundeep Medical Shop,pharmacy,12.9676134,77.6061839,1,True
Model Medical Stores,pharmacy,12.9687933,77.6063684,1,True
Green Apple,pharmacy,12.9814081,77.6012679,1,True
Shree Guru Ganesh Pharma,pharmacy,12.9719937,77.635835,1,True
The Homeo Centre,pharmacy,12.9729985,77.6357302,1,True
SLV Sagar Pharma,pharmacy,12.9737814,77.6359277,1,True
Green Apple,pharmacy,12.9683737,77.5948809,1,True
Unknown,pharmacy,12.9567335,77.5513304,-1,False
Pavitra Medicals,pharmacy,12.9455735,77.5712921,3,False
Basavangudi Medical Centre,pharmacy,12.9453043,77.5798656,-1,False
Universal Pharma,pharmacy,12.9988718,77.5498125,5,True
Dr. Suresh's Dia Care,pharmacy,12.9898377,77.5550568,5,True
Amrutha Medicals,pharmacy,12.9861471,77.5598537,5,True
Health Shopee by Manjushree Medicals,pharmacy,12.9988814,77.5552883,5,True
Nandhi Medical And General Stores,pharmacy,12.9882463,77.5584271,5,True
Siddaiah Multi Speciality Clinic And Lab,pharmacy,13.0023897,77.629504,4,False
Keshava Medicals And General Stores,pharmacy,13.0057354,77.5763934,1,True
Sri Ganesh Medicals And Surgicals,pharmacy,13.0081894,77.5638484,1,True
Shri Siddhanth Pharma,pharmacy,12.9702378,77.6356539,1,True
J S Homoeo House,pharmacy,12.982224,77.6029281,1,True
V L Nathan & Co,pharmacy,12.9855813,77.6071086,1,True
Nathans Vet Pharma Centre,pharmacy,12.9762816,77.5991019,1,True
Mahaveer Ayur & Homoeo,pharmacy,12.9813318,77.6041058,1,True
Gururaja Pharmacy,pharmacy,12.9781121,77.5739587,1,True
Balaji Vaidyasala,pharmacy,12.9813797,77.6029956,1,True
T. K. Diagnostic Centre,pharmacy,12.9843238,77.5984752,1,True
elbitdiagnostics,pharmacy,12.9833669,77.5966639,1,True
Al Shifa Unani & Ayurvedic Dawa Khana,pharmacy,12.9873157,77.6059871,1,True
Medinova,pharmacy,12.9816041,77.6011061,1,True
Sundeep Medicals,pharmacy,12.9674206,77.6058454,1,True
Hitesh Medicals & General Stor,pharmacy,12.9713618,77.6062443,1,True
Bangalore Fetal Medicine Centre,pharmacy,12.9658632,77.5998808,1,True
Trust Pharmacy,pharmacy,12.9919478,77.5708501,1,True
Pushyamee Medicals,pharmacy,13.0008545,77.5631699,1,True
Gururaja Pharma,pharmacy,12.9858304,77.5708651,1,True
Brindhavan pharma,pharmacy,12.9853462,77.5708101,1,True
Unknown,pharmacy,13.0024248,77.571574,1,True
Megha Medicals,pharmacy,13.0023294,77.5719173,1,True
Sri Ganesh Medicals,pharmacy,13.0078415,77.5617719,1,True
Nandhi Medicals,pharmacy,12.9883267,77.5549712,5,True
Sri Venkateshwara Medical & General Store,pharmacy,12.9898567,77.5542305,5,True
Amrutha Medicals,pharmacy,12.9862636,77.5575477,5,True
Sri Ranga Medicals,pharmacy,13.014751,77.5490654,5,True
Prasad Medicals,pharmacy,12.9906244,77.5633161,5,True
Sri Ganesh Pharma,pharmacy,12.9559132,77.5561779,-1,False
Fair Deal Pharma (Medkart),pharmacy,12.9671955,77.5736828,1,True
Bharath Medicals,pharmacy,13.0082692,77.5441674,5,True
Sri Durga Medicals,pharmacy,13.0120076,77.629801,-1,False
Shakti Medicals & Generals,pharmacy,12.9383428,77.5598834,2,False
Apollo Pharmacy,pharmacy,12.9383175,77.5549076,2,False
Central Lab,pharmacy,12.9644242,77.5968789,1,True
Isha Diagnostics,pharmacy,13.0058891,77.571338,1,True
Kanva Diagnostics,pharmacy,12.9869612,77.5602264,5,True
Rajkumar Diagnostics,pharmacy,13.0192775,77.5968129,-1,False
Nisarga Ayurvedic Medicine Research Centre,pharmacy,12.9469375,77.5981349,6,False
Mahaveer medicals,pharmacy,12.9360789,77.5601504,2,False
Prashanth Pharma,pharmacy,12.9348997,77.573964,-1,False
Sridhar Medicals,pharmacy,12.9877039,77.5530939,5,True
Health Shopee by Manjushree Medicals,pharmacy,12.9985585,77.5476618,5,True
Sri Swaraj Medicals,pharmacy,12.9385698,77.5531314,2,False
Sri Srinivasa Medicals,pharmacy,13.0216774,77.5927881,-1,False
Venkateshwara Medicals,pharmacy,13.0053426,77.5542101,5,True
Nandhi Medicals,pharmacy,12.9887964,77.5555474,5,True
Megha Medicals,pharmacy,13.0026859,77.5738983,1,True
Janhavi Medicals Malleshwaram,pharmacy,13.0019448,77.5716235,1,True
K C G Pharma And Generals,pharmacy,13.0020076,77.5713914,1,True
Medall Clumax Diagnostics,pharmacy,13.005882,77.5761593,1,True
Diabetacare,pharmacy,12.9398696,77.6257338,0,True
Pathocon Diagnostics,pharmacy,13.0064642,77.5488867,5,True
Maxwell Pharma,pharmacy,12.9340694,77.625222,0,True
Roots Advanced Hair Transplant Center,pharmacy,13.0022281,77.5739218,1,True
Kaya Skin Bar,pharmacy,12.9917005,77.5706529,1,True
Sri Balaji Medicals,pharmacy,12.9495697,77.6182599,7,False
Unknown,pharmacy,12.9681071,77.570295,1,True
Jailaxmi Medical Store,pharmacy,13.0210205,77.5586533,-1,False
Apollo Pharmacy,pharmacy,13.0027302,77.6348876,4,False
MedPlus,pharmacy,12.9702038,77.5462546,-1,False
MedPlus,pharmacy,12.9341008,77.6272181,0,True
SS Pharma & Surgicals,pharmacy,13.0017154,77.5507797,5,True
Unknown,pharmacy,12.9899208,77.5944935,1,True
Primecare Pharmacy,pharmacy,13.0054971,77.6161129,4,False
Suneel Pharma,pharmacy,12.9753996,77.6223913,1,True
Maruti Medicals,pharmacy,13.0028658,77.6347877,4,False
Primecare,pharmacy,13.0027812,77.6345924,4,False
Kiran medicals,pharmacy,12.9945444,77.6159681,4,False
Manoj Medicals,pharmacy,12.9964814,77.621145,4,False
AT pharma,pharmacy,12.9410118,77.592838,6,False
Jaisheel,pharmacy,12.9359972,77.5926337,6,False
Prasad medicals,pharmacy,12.935905,77.5928069,6,False
Guru medicals,pharmacy,12.9357029,77.59262,6,False
Ghousia,pharmacy,12.9430018,77.5944379,6,False
Ram Krishna Medicals,pharmacy,12.9422748,77.594039,6,False
Bright Pharmacy,pharmacy,12.9416745,77.5935357,6,False
Venkatagiri,pharmacy,12.9437303,77.5947351,6,False
Metro Medical Center,pharmacy,13.0074875,77.5485022,5,True
Brindavan Pharma,pharmacy,12.9902704,77.5744146,1,True
Hosmat Pharmacy,pharmacy,12.9671456,77.6103961,1,True
Kasturi Pharma and General Stores,pharmacy,12.9899364,77.5528432,5,True
Santosh Pharma,pharmacy,12.9958589,77.6082728,4,False
Mustafai Unani Pharmacy,pharmacy,12.9941962,77.6076009,4,False
Apollo Pharmacy,pharmacy,12.9867071,77.5796028,1,True
Trust Medicals,pharmacy,12.948031,77.5972353,6,False
Ayurvedic Pharmacy,pharmacy,12.9467131,77.5692249,3,False
ಬಾಲಾಜಿ ಮೆಡಿಕಲ್ಸ್,pharmacy,12.9334146,77.5626612,-1,False
Seetha Medicals,pharmacy,12.9391798,77.551355,2,False
Jaganni Medicals and General Stores,pharmacy,12.9386733,77.5526257,2,False
Suraksha Medicals,pharmacy,12.9387648,77.5530495,2,False
MedPlus,pharmacy,12.9388177,77.5528852,2,False
Unknown,pharmacy,12.9389135,77.5525787,2,False
Adarsh Medical Center,pharmacy,12.9386903,77.5518841,2,False
Nagashri Medicals,pharmacy,12.9524904,77.5773248,9,False
Sri Banashankari Medicals,pharmacy,13.0021577,77.5526639,5,True
Apollo Pharmacy,pharmacy,12.9864932,77.5558162,5,True
Sree Prabhu Medical Centre,pharmacy,12.9880221,77.5558457,5,True
Seetha Medicals & General Store,pharmacy,12.9899104,77.5531138,5,True
Kiran Medical Store,pharmacy,12.9332568,77.6296592,0,True
Suresh Pharma,pharmacy,12.9777866,77.6302967,1,True
Nayan Drugs and Opticals,pharmacy,13.0078107,77.5484819,5,True
Frank Ross Pharma,pharmacy,13.0173749,77.5627034,-1,False
Prashanthi Ayurvedic Centre,pharmacy,12.9963828,77.5508957,5,True
Homoeo Mart,pharmacy,12.9993177,77.5502049,5,True
Apollo Pharmacy,pharmacy,12.9379662,77.568428,-1,False
Sapthagiri Medicals,pharmacy,12.9553721,77.5855419,-1,False
Wellness Forever,pharmacy,12.9882933,77.5561065,5,True
Harshitha Medical & General Store,pharmacy,12.9906161,77.5505832,5,True
Stay Happi Pharmacy,pharmacy,12.9900398,77.5557384,5,True
Apollo Pharmacy,pharmacy,12.9850504,77.5532533,5,True
Apollo Pharmacy,pharmacy,13.0038285,77.6154682,4,False
MedPlus,pharmacy,13.0039944,77.6155412,4,False
Sarooj Pharma,pharmacy,13.0001038,77.6230624,4,False
Max Medicals,pharmacy,12.9564805,77.5828736,9,False
Axis Pharma and Dental Supplies,pharmacy,13.0004506,77.6218199,4,False
MedPlus,pharmacy,12.9715511,77.635481,1,True
Pradhanmantri Bharatiya Janaushadhi Kendra,pharmacy,12.9953858,77.5546266,5,True
Aster Pharmacy,pharmacy,13.0023102,77.552568,5,True
Unknown,pharmacy,12.9945697,77.5716164,1,True
Bhoomi Medicals,pharmacy,13.005053,77.5497289,5,True
MedPlus,pharmacy,12.9411755,77.6277014,0,True
Mahaveer Medical,pharmacy,12.9417192,77.6278767,0,True
Vitamin Galaxy,pharmacy,12.940938,77.6241703,0,True
Jain Medicals,pharmacy,12.9818781,77.6040785,1,True
Skanda Medicals,pharmacy,12.9350365,77.6332951,0,True
iCure Medicals,pharmacy,12.9352067,77.6315454,0,True
Apollo Pharmacy,pharmacy,12.935561,77.6309798,0,True
United Medicals,pharmacy,12.9509127,77.6230621,7,False
Bright Medicals,pharmacy,12.9509673,77.623189,7,False
Ramdev Medical,pharmacy,12.9394907,77.6257893,0,True
Unknown,pharmacy,12.9507714,77.6238421,7,False
Ambica Medical,pharmacy,12.9505124,77.6243668,7,False
Panchavati Chemists and Druggists,pharmacy,12.98669,77.5796975,1,True
Forster Pharma,pharmacy,12.9720878,77.6009403,1,True
Sri Reddy Pharma,pharmacy,13.0010747,77.5505476,5,True
Roots Pharma,pharmacy,12.9400467,77.6179642,0,True
MedPlus,pharmacy,12.9714734,77.6277316,1,True
Hafiz Pharma,pharmacy,12.9597011,77.6015633,1,True
HKGN Medicals,pharmacy,12.9600253,77.6016276,1,True
Sri Lakshminarasimha Drug Centre,pharmacy,12.9571579,77.5718768,3,False
Arihant Shri Jain Pharma,pharmacy,12.9588046,77.5649867,3,False
Value Pharma,pharmacy,13.011635,77.5568763,5,True
MedPlus,pharmacy,13.0059256,77.555443,5,True
Balaji Medicals,pharmacy,12.9961725,77.6131645,4,False
Davadost,pharmacy,12.9776273,77.5695903,1,True
NIMHANS Pharmacy,pharmacy,12.9406356,77.5948929,6,False
Primecare Pharma,pharmacy,12.9519038,77.5944072,6,False
Kamaldeep Medicals,pharmacy,12.9500344,77.5965335,6,False
Amruth Medicals,pharmacy,12.9499736,77.5966031,6,False
Rajalakshmi Medicals,pharmacy,12.9514745,77.595132,6,False
Apollo Pharmacy,pharmacy,12.94961,77.5962261,6,False
Susheela Medicals,pharmacy,12.9494082,77.59618,6,False
Lavish Pharma,pharmacy,12.9374519,77.6265817,0,True
Narayana Pharma,pharmacy,13.0084969,77.5685026,1,True
Shree Raajarajeshwari Medicals & General store,pharmacy,12.9776472,77.6273121,1,True
Topmost Medicals,pharmacy,13.0003625,77.6169853,4,False
Sri Balaji Medicals,pharmacy,13.0001367,77.6188756,4,False
Sundeep Pharma,pharmacy,12.9552768,77.6207566,7,False
Unknown,pharmacy,13.0091522,77.5787543,1,True
Unknown,pharmacy,12.9762005,77.5755635,1,True
Eshwar Pharma,pharmacy,12.9784085,77.630885,1,True
Pharma Point,pharmacy,12.9736597,77.6229416,1,True
Sri Krishna Medicals,pharmacy,12.9781021,77.5752146,1,True
Amogh Medical,pharmacy,12.9783411,77.575127,1,True
Sri Sai Med Pharma,pharmacy,12.9761609,77.6244665,1,True
Friends Pharma,pharmacy,12.9811642,77.6286416,1,True
Apollo Pharmacy,pharmacy,12.9970164,77.6141416,4,False
Sri Sai Medicals,pharmacy,13.0031199,77.5713727,1,True
Yashvini Ayurveda,pharmacy,13.0053599,77.5712888,1,True
MDP Medicals,pharmacy,13.0215753,77.6297995,-1,False
Unknown,pharmacy,12.998839,77.5763743,1,True
Surana Chemist,pharmacy,12.995114,77.6160795,4,False
Health Green Pharma,pharmacy,12.9966446,77.6116049,4,False
Shanti Medicals,pharmacy,12.9924482,77.5756565,1,True
NE Pharmacy,pharmacy,12.9932604,77.571151,1,True
The Drug Hut,pharmacy,12.9989667,77.5800117,-1,False
Bilva Pharmacy,pharmacy,12.9989823,77.5802854,-1,False
MedPlus,pharmacy,12.9482059,77.5987156,6,False
ThinkCare Pharma,pharmacy,12.9857934,77.5957495,1,True
Srikanth Medicals,pharmacy,13.0191345,77.5575105,5,True
Sri Balaji Medical and General Store,pharmacy,13.0044903,77.5536452,5,True
Revive Janata,pharmacy,12.9777179,77.6306728,1,True
Sln Medical And General Stores,pharmacy,13.01614918341838,77.54388326452087,-1,False
Shubha Ayurvedic Center,pharmacy,12.937230999999999,77.579479,8,False
SLN Medicals,pharmacy,13.007442921247717,77.5710391971186,1,True
Hotel Hindustan,hotel,12.9762752,77.5767096,1,True
Hotel Anand Regency,hotel,12.9769025,77.5763491,1,True
Sri Krishna Lodge,hotel,12.9932258,77.5717309,1,True
The Capitol,hotel,12.9822391,77.594459,1,True
The Infantry Hotel,hotel,12.980445,77.604525,1,True
Hotel Maurya,hotel,12.980921,77.576491,1,True
Hotel Swathi,hotel,12.989096,77.572253,1,True
Nalapad's Hotel Bangalore International,hotel,12.9850452,77.579248,1,True
Sudha Lodge,hotel,12.9727609,77.5701982,1,True
Radha Krishna Delux Lodge,hotel,12.9717886,77.5705791,1,True
Hotel Mahaveer,hotel,12.974344,77.5712299,1,True
Hotel Ganga Sagar,hotel,12.944337,77.620028,0,True
Maple's,hotel,12.9353574,77.6293981,0,True
Hotel Ramada,hotel,12.984215,77.6005578,1,True
Fortune Park JP Celestial Hotel,hotel,12.980883,77.575992,1,True
Terminus,hotel,12.9342871,77.6161496,0,True
Blue Petal Business Hotel,hotel,12.9335142,77.6151725,0,True
4 Seasons Suites,hotel,12.9372193,77.619574,0,True
Casa De Bengaluru,hotel,12.9363256,77.6222355,0,True
Unknown,hotel,12.9409092,77.6278297,0,True
Shilton Royale,hotel,12.938785,77.6300973,0,True
CHef Inn Residency,hotel,12.9383855,77.6310907,0,True
Inn,hotel,12.9330194,77.6105953,0,True
Libra,hotel,12.9353977,77.6090855,0,True
Hotel Mayflower,hotel,12.9478373,77.5970782,6,False
Golden Residency,hotel,12.9780729,77.579383,1,True
Hotel Kanthi Comforts,hotel,12.9775086,77.5793777,1,True
Hotel Geo,hotel,12.9656255,77.5895554,1,True
Prakash Cafe & Lodge,hotel,12.9604081,77.5709546,3,False
Villa Lavelle,hotel,12.9684323,77.5964096,1,True
Ramakrishna Lodge,hotel,12.9717723,77.5729725,1,True
Confident Propos,hotel,12.9560897,77.6055497,-1,False
Hotel Tourist,hotel,12.9813835,77.5753478,1,True
Hotel City Centaur International,hotel,12.9750295,77.5703109,1,True
Sri Krishna Lodge,hotel,12.9744293,77.5706029,1,True
Sri Thirumala Lodge,hotel,12.9738994,77.5706296,1,True
Shree Lodge,hotel,12.975607,77.5751762,1,True
Hotel Samrat Residency,hotel,12.9894357,77.5729477,1,True
JP Cordial,hotel,12.979285,77.5748279,1,True
Rajaprakash,hotel,12.9789865,77.574935,1,True
Ksheera Sagar,hotel,12.9805241,77.5750066,1,True
Hotel Kapila,hotel,12.979643,77.5751455,1,True
Rekha Residency,hotel,12.988584,77.5474906,5,True
Shivas,hotel,12.9857195,77.5520611,5,True
Hotel Blue Diamond,hotel,12.9870577,77.572403,1,True
Suvali,hotel,12.9881972,77.5494003,5,True
Cafe Coffee Day,hotel,12.9959438,77.5548935,5,True
Mallika Residency,hotel,12.9917517,77.5576615,5,True
Hotel Vintage Residency,hotel,12.9633735,77.5898343,1,True
Hotel Grand Bee,hotel,13.0200701,77.5544961,5,True
Hotel Safina,hotel,12.9796492,77.6070313,1,True
Rajath Lodge,hotel,12.9786599,77.5740904,1,True
Sajjan Lodge,hotel,12.9772171,77.5766278,1,True
The Basil,hotel,12.9937001,77.571322,1,True
Sandhya Lodge,hotel,12.9797725,77.5747917,1,True
Hotel Grand Inn,hotel,12.9770921,77.5795669,1,True
Hotel Check Inn,hotel,13.0209593,77.5844241,-1,False
The Monarch Luxor Hotel,hotel,12.9801755,77.6049823,1,True
Coral Tree by Goldfinch,hotel,13.0174207,77.5916073,-1,False
Chevron Orchards Hotel,hotel,13.0108784,77.5788998,1,True
Signature Inn,hotel,12.9731115,77.5701532,1,True
Mango Hotels,hotel,12.9344183,77.626046,0,True
Sahana hotel,hotel,12.9474456,77.5987375,6,False
Sri Lakshmi Comforts,hotel,12.9759033,77.6022279,1,True
Iris Business Hotel,hotel,12.9707119,77.6072217,1,True
Stylotel,hotel,12.9671986,77.6066888,1,True
Vardhaman Paradise,hotel,12.9641301,77.570664,1,True
TAP Paradise Hotel,hotel,12.9725982,77.5794076,1,True
Rosewood International Hotel,hotel,12.9529166,77.5450511,-1,False
Hotel Tap Comfort,hotel,12.9701227,77.5794148,1,True
UG Regal - Budget Hotel,hotel,12.9730281,77.5692897,1,True
Unknown,hotel,12.9735897,77.5767585,1,True
Hotel Vande Matharam,hotel,13.0105439,77.5504232,5,True
Sheetal Residency,hotel,12.9805787,77.571467,1,True
Hotel Empark,hotel,12.9456273,77.5952951,6,False
Canara Coffee,hotel,12.984291,77.5543158,5,True
Suntruppati,hotel,12.9798988,77.5759082,1,True
Anand Sagar,hotel,12.9391683,77.5715609,3,False
Fab Hotel Legacy Brigade Road,hotel,12.9690356,77.6066442,1,True
Mayur Comfor Lodge,hotel,12.9777748,77.574757,1,True
Royal Regency Lodge,hotel,12.978436,77.5753365,1,True
Pushpamala lodge,hotel,12.9776892,77.5747972,1,True
Royal Lodge,hotel,12.9782866,77.5753838,1,True
Manjusri Paradise Lodge,hotel,12.9777193,77.5748871,1,True
Anjappar Chettinad Restuarant Koramangala,hotel,12.9321765,77.623039,0,True
Hyatt,hotel,12.9736357,77.6218548,1,True
Hotel Dreams inn,hotel,12.9454272,77.5950799,6,False
Dreams inn,hotel,12.9455189,77.5951301,6,False
AMM Residency,hotel,12.949295,77.5931079,6,False
Hotel Imperial,hotel,12.9711154,77.6058262,1,True
Limra,hotel,12.9359094,77.5927065,6,False
Blue bells,hotel,12.9352918,77.6091731,0,True
Supreme,hotel,12.9470874,77.5941987,6,False
Rajmahal Boarding and Lodge,hotel,12.980358,77.5737339,1,True
The Rialto Hotel,hotel,12.9804313,77.5765457,1,True
The Chancery Hotel,hotel,12.975729,77.5992456,1,True
Hotel Adarsha Palace,hotel,12.9744204,77.5709781,1,True
Minla Hotel,hotel,13.0108921,77.5505079,5,True
Ujval,hotel,12.9923067,77.5944585,1,True
Jayamahal Palace,hotel,12.9948258,77.5970478,1,True
Ocea International,hotel,12.9698386,77.6066965,1,True
Hotel Vellara,hotel,12.9669657,77.6068192,1,True
Hotel Kaveri,hotel,12.9803587,77.5717968,1,True
Grand Suites,hotel,12.9773082,77.5750587,1,True
Benhur Pride,hotel,12.9599897,77.5565132,-1,False
Vajra Heritage,hotel,12.9878823,77.5558068,5,True
Hotel Mahalakshmi,hotel,12.9742409,77.575254,1,True
MySpace Express Balaji Residency,hotel,12.997393,77.5500353,5,True
Sri Devi Lodge,hotel,12.9899117,77.5532573,5,True
Aryan Residency,hotel,12.9899326,77.5527397,5,True
Lalithamahal,hotel,12.9716633,77.5726981,1,True
Madhu Lodge,hotel,12.9711847,77.5763869,1,True
Hotel Bangalore Gate,hotel,12.9735807,77.5794876,1,True
Monarch Hotel,hotel,12.9727609,77.6073763,1,True
Radisson City Center,hotel,12.9764637,77.6196256,1,True
Unknown,hotel,12.9372838,77.6196276,0,True
Naidu Palace,hotel,12.98714,77.5494285,5,True
Four Seasons Hotel,hotel,13.0191154,77.5851502,-1,False
H K Residency,hotel,12.9883253,77.5497463,5,True
Navya Residency,hotel,12.9902802,77.5504638,5,True
The Grand Coral,hotel,12.996571,77.5508266,5,True
Mathrushree Residency,hotel,12.9899013,77.5533586,5,True
Kengiri,hotel,12.9924782,77.5984472,1,True
The Chevron,hotel,12.983268,77.5941621,1,True
Ayra Hotel,hotel,12.9899167,77.5735756,1,True
Halcyon Hotel Residences,hotel,12.9361688,77.631568,0,True
HLV Grand Inn,hotel,12.9784414,77.5762946,1,True
Oxford Inn,hotel,12.9723309,77.604513,1,True
Hotel Citadel,hotel,12.9809954,77.5751603,1,True
Laika Boutique Stay,hotel,12.9705614,77.6167908,1,True
Golden Lotus,hotel,12.971156,77.6171355,1,True
Octave Hotel,hotel,12.9599329,77.5933074,1,True
Hotel Ashoka,hotel,12.9854725,77.6070269,1,True
Regenta Inn Grand,hotel,12.943185,77.6213595,0,True
Hotel Madhu,hotel,12.9836966,77.5493494,5,True
Kamat’s Hotel Mayura,hotel,12.9820167,77.605782,1,True
Palmtree,hotel,12.9793312,77.6291742,1,True
Shilton,hotel,12.9756154,77.6173406,1,True
Pranam Comforts,hotel,12.9870772,77.5785393,1,True
Nahar Heritage Hotel,hotel,12.9711587,77.6006922,1,True
Treebo Hotel Edge,hotel,12.9705889,77.6006124,1,True
Melange Astris,hotel,12.9648241,77.5985719,1,True
Unknown,hotel,12.9776602,77.5767332,1,True
FabHotels,hotel,12.9690174,77.6361697,-1,False
Treebo Akshaya Bull Temple,hotel,12.9441289,77.5680437,3,False
Janardhan,hotel,12.9857927,77.5789851,1,True
Poornima Regency,hotel,12.9521048,77.5945294,6,False
Temple Tree Hotel,hotel,12.9479778,77.5946052,6,False
Bilton,hotel,12.9447473,77.5968662,6,False
Hotel Sarbhawal Residency,hotel,12.9565763,77.5922448,1,True
Dreamz Lodge,hotel,12.9564473,77.5913961,1,True
Vovo premier hotel,hotel,12.9774811,77.5769604,1,True
Olive Richmond Circle,hotel,12.9667247,77.5947078,1,True
Tiba Hotel,hotel,12.9739463,77.5700295,1,True
Brunton Heights,hotel,12.9703425,77.6145858,1,True
Unknown,hotel,12.9845868,77.5764267,1,True
Adarsh Hamilton,hotel,12.9644349,77.5982536,1,True
Hotel Fortuner Palace,hotel,12.9803053,77.5753071,1,True
Sandhya Residency,hotel,12.9795168,77.5748096,1,True
Hotel Nest Rooms,hotel,12.9781312,77.5751887,1,True
Hotel Adora,hotel,12.977964,77.5752147,1,True
Embassy Hotel,hotel,12.9783733,77.576356,1,True
Hotel Pawansree,hotel,12.9773382,77.5754024,1,True
Tierra Woods A Business Hotel,hotel,12.977412,77.6271225,1,True
Modern Hotel,hotel,12.987215,77.5745717,1,True
Kalyan Lodge,hotel,12.9886039,77.5743879,1,True
Shanthi Rooms,hotel,12.9443025,77.5973,6,False
The Porch Inn,hotel,12.9446454,77.5967137,6,False
"Bloom Hotel, Richmond Road",hotel,12.9671589,77.6106158,1,True
Hotel Purple Brigade,hotel,12.9738833,77.6066721,1,True
Olive by Embassy Group,hotel,12.9736749,77.6067694,1,True
Dream Hotel,hotel,12.9598265,77.6023759,1,True
Hyde Park,hotel,13.0109453,77.5789338,1,True
Hotel AJ International,hotel,12.9815416,77.6048201,1,True
Brindavana Grand Hotel,hotel,12.9771116,77.5764106,1,True
Hotel Dwaraka,hotel,12.9803129,77.5751582,1,True
The Bouvice,hotel,12.9321442,77.6331345,0,True
Parkwood Inn,hotel,12.9448582,77.5951023,6,False
Stopover,hotel,12.9401156,77.5839124,8,False
The Resident,hotel,12.9331601,77.5833173,8,False
Santrina Hotels,hotel,12.9348121,77.6159774,0,True
The Lalit Ashok,hotel,12.992271489604668,77.58188811961901,1,True
Taj West End,hotel,12.985621847415546,77.58460075482253,-1,False
Hotel Paraag,hotel,12.982514774335685,77.59450830032132,1,True
ITC Gardenia Royal,hotel,12.967093922611092,77.59574290367703,1,True
JW Marriott,hotel,12.972361435696472,77.59495172853111,1,True
Airlines,hotel,12.972729187794206,77.59988964426574,1,True
Kaniṣka Gryāṇḍ,hotel,12.978206658407988,77.57995815894967,1,True
Hotel V T Paradise,hotel,12.965527671777666,77.58996536666838,1,True
Conrad Bengaluru,hotel,12.975318047767688,77.62070170928166,1,True
Jayamahal Palace Hotel,hotel,12.99692688668809,77.59706898129359,-1,False
Oberoi Hotel,hotel,12.973485669979208,77.61827073542233,1,True
Taj MG Road,hotel,12.973240997633994,77.61966609256437,1,True
Lavelle Mansion,hotel,12.96652815,77.59628690000001,1,True
Ramakrishna Lodge,hotel,12.977521025333942,77.57591105802365,1,True
ITC Windsor,hotel,12.994208515704639,77.58592465385615,-1,False
"Radisson Blu Hotel, Atria",hotel,12.980003911101369,77.58622053753439,-1,False
ITC Royal Gardenia Hotel,hotel,12.96710917391859,77.59594073562523,1,True
Jain Bhavan,hotel,12.94614792520823,77.57343062069715,3,False
Parijata Grand,hotel,13.014505492226062,77.55427809344154,5,True
Ibis,hotel,12.967165453897898,77.59371227806233,1,True
Mastiff Hotel,hotel,12.982790987311505,77.59627302437296,1,True
Ashraya International,hotel,12.983661276973299,77.59343956147111,1,True
High Gates,hotel,12.97504070873775,77.6031956317594,1,True
St. Mark's Hotel,hotel,12.969222,77.6001631,1,True
Chancery Pavilion,hotel,12.965815401483246,77.59873418993035,1,True
The Ritz-Carlton,hotel,12.967644549654237,77.6018071163246,1,True
Nahar Heritage Hotel,hotel,12.971184599999999,77.60071239999999,1,True
Welcomhotel,hotel,12.968968560940171,77.61434105543347,1,True
Brigade Homestead,hotel,12.943137724692779,77.58488477146017,8,False
Pleasant Boulevard,hotel,12.939456388178257,77.62866047816236,0,True
Oyo Olivia Comforts,hotel,12.94038225744288,77.6269699785543,0,True
Athaśrī Infantry,hotel,12.979629932710262,77.60384283849291,1,True
Citrus Cunningham,hotel,12.986034536407594,77.59537825496145,1,True
Hotel Race View,hotel,12.98404197596595,77.57795345586034,1,True
Gokul Majestic Lodging,hotel,12.97411755,77.57557880000002,1,True
UT Elegance,hotel,12.977073463736396,77.57863381857612,1,True
West Fort Hotel,hotel,12.97903100341591,77.56408072291013,-1,False
The Sandeś Kingston,hotel,12.978799399999996,77.57762254999999,1,True
Unknown,hotel,12.937198967864989,77.58062383228128,8,False
Goldfinch Hotel,hotel,12.985466664076613,77.57927478555983,1,True
The Elanza Hotel,hotel,12.965252116566804,77.60199602846073,1,True
Vividus Hotel Bangalore,hotel,12.984749096362785,77.57837230748686,1,True
Woodlands,hotel,12.964562171009435,77.59489276614462,1,True
Royal Orchid Central,hotel,12.975015012091108,77.61533831648111,1,True
Park Residency,hotel,12.972830709024846,77.60788396013177,1,True
Ramanashree Richmond,hotel,12.966217802513658,77.59484417090546,1,True
Lemon Tree Premier,hotel,12.987256555066534,77.6168804643221,-1,False
Hotel Shangri-La,hotel,12.991999906487028,77.58819953826794,1,True
Iris Business Hotel,hotel,12.970645218777182,77.60723577325093,1,True
Holiday Inn Express & Suites,hotel,12.979990226263896,77.57847069349503,1,True
Fortune Select JP Cosmos,hotel,12.989474829402512,77.59490275852912,1,True
KSTDC Kumar Krupa,hotel,12.990746285297925,77.58101357592923,1,True
Radisson City Center,hotel,12.976318473417523,77.61947419715031,1,True
The Park Bangalore,hotel,12.974040082939835,77.61944669018158,1,True
The Chancery Hotel,hotel,12.975675488960668,77.5992778944847,1,True
The Grand Magrath Hotel,hotel,12.970478056599022,77.60802040756288,1,True
Jagadish Hotel,hotel,12.997494352434394,77.58417871907653,-1,False
"Renaissance Bengaluru, Race Course",hotel,12.984409231219242,77.576549246603,1,True
The Pride Hotel,hotel,12.964711111830486,77.59961453238108,1,True
Hotel Tulip,hotel,12.999103121344323,77.58361752834047,-1,False
Sheraton Grand Bangalore Hotel at Brigade Gateway,hotel,13.012600896833753,77.55510752264328,5,True
Vivanta Residency Road,hotel,12.97232655013973,77.6086977839273,1,True
Ballal Residency,hotel,12.971417285080483,77.60834494737591,1,True
37th Crescent Hotel,hotel,12.984833302235474,77.58088079771446,1,True
Southern Star Hotel,hotel,12.974758217095657,77.59942165822024,1,True
Parijata Gateway,hotel,13.014145871979787,77.55429163621939,5,True
Tata Book Store,shop,13.0146763,77.5681459,-1,False
Foodworld,shop,12.9328185,77.5830433,8,False
Cauvery Arts And Crafts Emporium,shop,12.9748429,77.608086,1,True
Adyar Ananda Bhavan,shop,12.9543746,77.5930172,-1,False
TVS Sundaram Motors,shop,12.9737535,77.5959935,1,True
Thom's Bakery,shop,12.9915471,77.614181,4,False
Archies Gallery,shop,13.0016175,77.5713543,1,True
Old Madras Baking Company,shop,12.9697383,77.6003775,1,True
Geojit Financial Services,shop,13.0037901,77.5691874,1,True
Kids Kemp,shop,12.9735992,77.5803131,1,True
Mumbai Badam & Lassi Center,shop,12.9510696,77.5775371,9,False
Reliance Fresh,shop,13.0042882,77.5710889,1,True
HOPCOMS,shop,13.00559,77.570496,1,True
Reliance smart,shop,13.0061977,77.5693737,1,True
RR Cycle Junction,shop,13.0192867,77.5571453,5,True
Unknown,shop,12.9318838,77.5840243,8,False
Blossoms,shop,12.9751738,77.604825,1,True
Reliance Fresh,shop,13.0068052,77.5645334,1,True
Baker's Hut,shop,13.0002063,77.5697663,1,True
Naturals Unisex Salon,shop,13.0075667,77.5780609,1,True
Regal Voyages,shop,13.0074878,77.5781867,1,True
Juice Junction,shop,12.9720317,77.6009309,1,True
PPS Motors,shop,12.9889922,77.5925712,1,True
Unknown,shop,12.949455,77.6171956,7,False
Unknown,shop,12.9497687,77.6175899,7,False
Unknown,shop,12.9501905,77.6177916,7,False
Fernspetals,shop,13.0078677,77.5795899,1,True
sri lakshmi venkteshwara flower decoraters,shop,12.9885784,77.5705925,1,True
Unknown,shop,12.9501149,77.6134771,-1,False
Jewellery shops,shop,12.9499142,77.616417,7,False
Voltas,shop,13.0145146,77.5735683,-1,False
Used Car Sales,shop,12.9679032,77.5893757,1,True
Regal Palace Men's Salon,shop,13.0068707,77.5789709,1,True
Karnakata Hardware Store,shop,12.9641674,77.5819272,1,True
Lakme,shop,12.9855486,77.5961594,1,True
Sweet Chariot,shop,12.9857313,77.595832,1,True
Family Super Market,shop,12.9967968,77.6045046,4,False
More,shop,12.9998077,77.5996733,-1,False
Arafa Stores,shop,12.9969644,77.6041292,-1,False
Benson Auto Garage,shop,12.9979339,77.6031017,-1,False
"Namdhari Fresh, Frazer Town",shop,13.0009809,77.6138953,4,False
Lakme Salon,shop,13.0068753,77.5789296,1,True
Touch of Joy Womens' Beauty Parlor,shop,13.0068023,77.5789171,1,True
Sandeep Motors,shop,13.014501,77.5734712,-1,False
Scotchyard,shop,13.0144757,77.5736759,-1,False
Sparsh,shop,13.014347,77.5736987,-1,False
Sri Balaji Stores,shop,13.014268,77.5737154,-1,False
Mysore Resham Emporium,shop,12.9554112,77.5918509,-1,False
LimeLite Unisex Salon & Spa,shop,12.9711284,77.5959911,1,True
Levi's,shop,12.9710106,77.598276,1,True
Espirit,shop,12.9708747,77.5990041,1,True
Giovani,shop,12.9707183,77.6005293,1,True
Unknown,shop,13.0194529,77.5645271,-1,False
Unknown,shop,13.0168805,77.5639868,-1,False
Mini Bazaar,shop,13.0068553,77.6241647,4,False
More,shop,12.9409932,77.544655,2,False
Web Nirnaya Laptop Service Station,shop,12.9328809,77.5835292,8,False
Alcohol Shop,shop,12.9684968,77.6063205,1,True
Škoda,shop,13.0065656,77.5837018,1,True
Nike,shop,12.9834716,77.5856742,-1,False
Unknown,shop,13.0061761,77.5647018,1,True
Olympic Sports,shop,13.0044751,77.5711942,1,True
Bun World,shop,13.0075028,77.5635659,1,True
Unknown,shop,13.0077909,77.564002,1,True
Unknown,shop,13.0078203,77.5639866,1,True
Unknown,shop,13.0069619,77.5644724,1,True
Unknown,shop,13.0067371,77.5643678,1,True
Homely Organic,shop,13.0043093,77.5653307,1,True
Unknown,shop,13.0038729,77.5653254,1,True
Unknown,shop,12.9984695,77.5692319,1,True
Unknown,shop,12.9989399,77.569256,1,True
Unknown,shop,12.9986733,77.5692346,1,True
Excel Dry Cleaners,shop,12.9987298,77.5692354,1,True
Unknown,shop,13.0009705,77.5696315,1,True
Unknown,shop,13.0043393,77.5743495,1,True
Iyengar's Bakery,shop,13.0011038,77.5723003,1,True
Pai Electronics,shop,12.9337818,77.6232571,0,True
lal rakhra sports shop,shop,12.9692586,77.6286912,-1,False
Unknown,shop,12.9516439,77.5950678,6,False
Total Superstore,shop,12.9827809,77.5592036,5,True
Sweet Chariot,shop,12.9359939,77.6151031,0,True
Unknown,shop,12.9334928,77.6157175,0,True
Adyar Ananda Bhavan,shop,12.9358031,77.6147343,0,True
Mobile Store,shop,12.9361583,77.6146013,0,True
Gem Plaza,shop,12.9803877,77.6046163,1,True
Arihant Computers,shop,12.965161,77.584016,1,True
Kannada Sahitya Parishath,shop,12.9586516,77.5716741,3,False
Sree Mittai,shop,12.9354419,77.6141569,0,True
Westside,shop,12.934745,77.611659,0,True
Reebok,shop,12.934792,77.6113,0,True
Metro,shop,12.934546,77.61107,0,True
India Garage,shop,12.96527,77.6172392,-1,False
Kolimi Motors,shop,12.9805233,77.6288041,1,True
Addidas,shop,12.9324379,77.5862539,8,False
Maha Bazaar,shop,13.0049266,77.5787343,1,True
Tata Docomo Show Room,shop,12.9378468,77.6107028,0,True
Unknown,shop,12.9337269,77.6112285,0,True
More,shop,12.9341298,77.6109889,0,True
Archies,shop,12.9348719,77.6114029,0,True
Forum Cars,shop,12.9342498,77.6099223,0,True
Sachin's Autoshop,shop,12.9365162,77.6135755,0,True
Ali-n-Arts Florist,shop,12.9351451,77.611553,0,True
More Supermarket,shop,12.9423147,77.6150065,0,True
Lifestyle,shop,12.9375475,77.6279931,0,True
Cromā,shop,12.9380019,77.62749,0,True
Nilgiris,shop,12.935716,77.6218199,0,True
Mystique Saloons,shop,12.9352432,77.6248678,0,True
Levi's and Nike,shop,12.9337444,77.6301835,0,True
Manyavar,shop,12.9376456,77.626351,0,True
Ladies Wear House,shop,12.9454627,77.5714069,3,False
Food world,shop,12.9444504,77.5722351,3,False
Sowbhagya Traders,shop,12.9352032,77.6228947,0,True
Navya shree sarees,shop,12.9371376,77.6241392,0,True
Landmark,shop,12.9345734,77.6115121,0,True
Computer Mall,shop,12.9362282,77.61472,0,True
Banchaaram Sweets,shop,12.9365387,77.6144945,0,True
Madhuloka,shop,12.9368587,77.6200385,0,True
fulki,shop,12.9366384,77.6206523,0,True
U Fashion store,shop,12.9365443,77.6205772,0,True
Printo,shop,12.9357629,77.6219971,0,True
Forum bakery,shop,12.9418577,77.6159961,0,True
Kaggi's Bakery,shop,12.9417187,77.5601963,-1,False
F M Silks,shop,12.9351927,77.6136464,0,True
Bhavani Bangles,shop,12.9393809,77.5712615,3,False
Unknown,shop,12.9402493,77.6201159,0,True
Shri Venkateshwara flowers,shop,12.9373737,77.6194722,0,True
Nike,shop,12.9321895,77.5862459,8,False
United Colors of Benetton,shop,12.9322783,77.5862513,8,False
HOPCOMS,shop,13.0121864,77.5448893,5,True
Sri Lakshmi Venkateshwara Provision Stores,shop,12.9333966,77.5660039,-1,False
Hopcoms,shop,13.0027573,77.5465737,5,True
Unknown,shop,12.9341451,77.566062,-1,False
Safal Supermarket,shop,12.9364151,77.6144033,0,True
Glamorous Unisex salon,shop,12.9365288,77.6150063,0,True
Ooty Chocolates,shop,12.9350683,77.6245014,0,True
The boutique,shop,12.9390944,77.6229075,0,True
Aanchal,shop,12.9397911,77.6222423,0,True
Baby Center,shop,12.9825987,77.6070246,1,True
Bata,shop,12.9821744,77.6081695,1,True
Westside,shop,12.9826293,77.6068536,1,True
Vodafone Store,shop,12.9349392,77.6129828,0,True
Yem and Tee Beauty parlor,shop,12.9371612,77.6129292,0,True
The Book shoppe,shop,12.935294,77.61306,0,True
Baby's day out,shop,12.9353286,77.6128207,0,True
Nandini Shoppe,shop,12.9364451,77.6170968,0,True
F square,shop,12.9370938,77.6199696,0,True
Swiss Embroideries,shop,12.9357659,77.6217238,0,True
Kanti Sweets,shop,12.9356613,77.621933,0,True
Shubh Jewellers,shop,12.9368167,77.619975,0,True
Kinetic Zone Service station,shop,12.9364508,77.6239983,0,True
HMS Mutton center,shop,12.936754,77.6247439,0,True
Iyengar bakers,shop,12.9351019,77.6230488,0,True
Reid & Taylor,shop,12.9368533,77.6201144,0,True
Dreams on wheelz,shop,12.937648,77.6267717,0,True
Namdhari's fresh,shop,12.9382962,77.626001,0,True
OM Stationery and xerox,shop,12.9364455,77.6255862,0,True
Sheelu Flowers,shop,12.937482,77.6265625,0,True
Brown Tree Super,shop,12.937363,77.626659,0,True
Mahindra showroom,shop,12.9378271,77.6266388,0,True
Dream World,shop,12.9961919,77.6115235,4,False
Lakme,shop,12.9961891,77.613053,4,False
Reliance Fresh,shop,12.9970256,77.611258,4,False
Tyre Shop,shop,12.993662,77.6086321,4,False
Mutton Shop,shop,12.9936175,77.6083773,4,False
Chicken Shop,shop,12.9936149,77.6084336,4,False
Sapna Book Stall,shop,12.93647,77.6165564,0,True
Babys Planet,shop,12.9362945,77.6149366,0,True
Vellara Avenue,shop,12.9364743,77.6166077,0,True
Reliance Footprint,shop,12.9364168,77.6164628,0,True
Kids N Gifts,shop,12.933719,77.6176805,0,True
Gia Garments,shop,12.9338184,77.6192443,0,True
Hopcoms,shop,12.9365946,77.6176725,0,True
House Man Cleaners,shop,12.9351281,77.6228492,0,True
Theme Piano World,shop,12.9420816,77.6220418,0,True
Unknown,shop,12.9365949,77.6177189,0,True
Soch,shop,12.9348619,77.6112385,0,True
Nexus Mall Koramangla,shop,12.93419,77.6109248,0,True
Samipa Bakery,shop,12.9369341,77.5691786,-1,False
United Colors of Benetton,shop,12.9345459,77.6114217,0,True
Levi's,shop,12.934891,77.6110462,0,True
Raymonds,shop,12.9341695,77.6110462,0,True
The Look Shoppe,shop,12.9367971,77.6130007,0,True
463 Cross roads,shop,12.9367971,77.6131509,0,True
Leher Casuals,shop,12.9360965,77.614653,0,True
Cantabil Showroom,shop,12.9360233,77.6153074,0,True
Hot Chips,shop,12.9370062,77.6120888,0,True
Cake Yard,shop,12.9358593,77.6150138,0,True
Hot Chips,shop,12.9362348,77.6210315,0,True
Ritu's designer sarees,shop,12.9435227,77.5590375,2,False
Ayesha,shop,12.9347915,77.6109681,0,True
Cookie Man,shop,12.9347444,77.6110003,0,True
Sangeeta Mobiles,shop,12.9346922,77.6110539,0,True
Samsung,shop,12.9347706,77.6110968,0,True
Scissors Enrich Unisex salon,shop,12.9392359,77.6191015,0,True
Sizzling styles beauty parlor,shop,12.9380674,77.6188279,0,True
Auto Fusion,shop,12.9364989,77.6240368,0,True
Airtel Office,shop,12.9359421,77.6157219,0,True
Bajaj Showroom,shop,12.9390997,77.6190857,0,True
Cake Palace,shop,13.0042683,77.5512142,5,True
Bhima,shop,12.9324841,77.6137336,0,True
Abaran Jewellers,shop,13.0096385,77.5486843,5,True
@home,shop,12.9335885,77.6107455,0,True
Sony Showroom,shop,13.0043509,77.5522566,5,True
Mahalakshmi Liquor Shop,shop,13.0039955,77.551299,5,True
Shubham Electronics,shop,13.0045496,77.5532355,5,True
SLV Bakery,shop,12.9348901,77.560782,-1,False
Max,shop,12.9375258,77.6285425,0,True
Roots Multiclean,shop,12.9367337,77.6249849,0,True
Home Lifestyle,shop,12.9373924,77.6279943,0,True
Kolourrs Unisex salon,shop,12.9426306,77.6223732,0,True
Malabhar Gold,shop,12.9347018,77.583688,8,False
Prince jewellery,shop,12.9322759,77.5858767,8,False
Rama Rao & sons,shop,12.9423037,77.5713284,3,False
Ramakrishna Mutt,shop,12.9488556,77.5673667,3,False
Blue Hyundai,shop,12.9473326,77.5680046,3,False
Miracle Unisex Salon,shop,12.9505777,77.567884,3,False
Sri Vijaylakshmi Silks And Sarees,shop,12.9749906,77.6072186,1,True
Kirtilals,shop,12.9649944,77.5958779,1,True
Print Express,shop,12.934928,77.6126828,0,True
Fabric Spa,shop,12.9351759,77.6127454,0,True
Sweet Chariot,shop,12.9968718,77.6143631,4,False
Albert Bakery,shop,12.9966022,77.614216,4,False
Pai International,shop,12.9383815,77.5849061,8,False
Sri Devi International,shop,12.9368706,77.5847432,8,False
Bhima Jewellers,shop,12.933221,77.5825309,8,False
Reliance Fresh,shop,12.932994,77.5852313,8,False
Malabar Jewellery,shop,12.9810398,77.6104463,1,True
Max,shop,12.9827449,77.6069771,1,True
Sri Krishna Diamond and Jewellery,shop,12.9814894,77.6101459,1,True
The Brown Shop,shop,12.9817871,77.6092771,1,True
Lee Showroom,shop,12.9816462,77.6095934,1,True
Levi's,shop,12.9811601,77.6102478,1,True
Sumith Provision & Condiments,shop,12.9372827,77.6245142,0,True
DHL couriers,shop,12.9356619,77.619186,0,True
Sthra,shop,12.9372461,77.6198029,0,True
Gini & Jony,shop,12.9368121,77.6200764,0,True
Crystal Stationeries,shop,12.9374604,77.6242714,0,True
G K Vale Photo Studio,shop,12.9371565,77.6194335,0,True
Proline fitness,shop,12.9370422,77.6200711,0,True
New meena cotton sale,shop,12.9377454,77.6188695,0,True
Meena Fashions,shop,12.9373532,77.6195239,0,True
Sports Planet,shop,12.9361926,77.6147442,0,True
Book sale,shop,12.9374839,77.6194381,0,True
Mom & Me,shop,12.9340524,77.6102738,0,True
My Looks,shop,12.9980255,77.5499457,5,True
Health and Glow,shop,12.9963776,77.5514093,5,True
ShowOff,shop,12.9679651,77.6064949,1,True
Bhavin Garments,shop,12.9720594,77.6278089,1,True
Om Electronics,shop,12.9647793,77.5836994,1,True
Shivananda Stores,shop,12.9867564,77.5795592,1,True
Stanley Automotive Leather Seating,shop,12.9634626,77.5910392,1,True
Belliah Milk Booth,shop,12.9398383,77.5451133,2,False
Manasa Hair Dresser,shop,12.9395353,77.5449692,2,False
Lords & Kings Eye Gallery,shop,12.9337369,77.6176108,0,True
Furtados Music India Private Limited,shop,12.935464,77.616304,0,True
Girias Electronics,shop,12.9417196,77.5853932,8,False
Simpli Namdhari's,shop,12.9395349,77.5853734,8,False
Bombay Dyeing,shop,12.9753217,77.6064414,1,True
Bhima,shop,12.9758374,77.6147563,1,True
Panasonic,shop,12.9759517,77.6147731,1,True
Unknown,shop,12.9340167,77.5623395,-1,False
Unknown,shop,12.9321266,77.5641271,-1,False
Surf In Cyber Cafe,shop,12.9416536,77.6161121,0,True
G K Vale Photo Studio,shop,12.939175,77.6191546,0,True
Pooja Items,shop,12.9410164,77.6175336,0,True
Reliance Digital Electronic Store,shop,12.954621,77.5672723,3,False
Madhiraa,shop,12.9452338,77.579897,-1,False
Cake Palace,shop,12.9402254,77.5535523,2,False
Sapna Book House,shop,12.9764035,77.5781564,1,True
Tanishq,shop,12.9744491,77.6143016,1,True
Sunil's,shop,13.0057102,77.5713559,1,True
Manokamana Cermanic,shop,12.942312,77.60802,-1,False
Univer Cell,shop,12.9738948,77.5785146,1,True
Reliance Smartpoint,shop,12.960466,77.6017789,1,True
Namdharis,shop,12.9596191,77.6026157,1,True
Richmond Supermarket,shop,12.9622638,77.6040957,1,True
Print Express,shop,12.9656404,77.6017608,1,True
Unknown,shop,12.9602214,77.6017286,1,True
Unknown,shop,12.9597386,77.6018505,1,True
Unknown,shop,12.9596942,77.6018371,1,True
Neelam Stores,shop,12.9583088,77.6022126,1,True
Cafe Da Costa,shop,13.0039163,77.6245782,4,False
Basha Department Store,shop,13.0013558,77.6235851,4,False
HOPCOMS,shop,13.001197,77.6240601,4,False
G&T Laundry Expert,shop,13.0038706,77.6226005,4,False
Mandovi Motors,shop,12.9965335,77.6190505,4,False
Unknown,shop,12.9864817,77.6194153,-1,False
Unknown,shop,12.9755514,77.6173581,1,True
Manjunatha Provisions,shop,12.999291,77.5671481,1,True
Ganesha Provisions,shop,12.9992858,77.5670032,1,True
Safal,shop,12.9991395,77.5678347,1,True
Mysore Mini Shopee,shop,13.0039638,77.6155248,4,False
NMH Bakery,shop,12.9543124,77.5786901,9,False
Blossom Book House,shop,12.9748172,77.6052245,1,True
Maariyah Opticals,shop,12.9496534,77.5966436,6,False
Tamanna,shop,12.9816856,77.6083084,1,True
Kalyan Silks,shop,12.9814514,77.6077784,1,True
Nilgiri's,shop,12.9724588,77.6260331,1,True
Mahila,shop,12.9472021,77.5714429,3,False
Rajkumar Cards,shop,12.9694808,77.5729285,1,True
Kanti Sweets,shop,12.9755654,77.575714,1,True
Spiritz Zone,shop,12.9784169,77.5531691,-1,False
Kadamba Sports,shop,12.9754685,77.5525146,-1,False
Sangam Sweets,shop,12.9866761,77.5796529,1,True
Corner House,shop,12.9884699,77.5769743,1,True
Hyundai,shop,13.0031595,77.5837029,1,True
Expert Dry Cleaning,shop,13.0075165,77.5641095,1,True
Bakey and Joy,shop,13.0144977,77.6357519,-1,False
Unknown,shop,12.9665602,77.5892256,1,True
Nandi Bakery,shop,12.9945651,77.6077839,4,False
Honda 2 Wheeler Service,shop,12.9863548,77.5603215,5,True
Girias,shop,12.9842531,77.5492418,5,True
Supriya Stores,shop,12.9355043,77.6314571,0,True
Unknown,shop,12.9333424,77.6298772,0,True
Food Mall,shop,12.9334024,77.6298023,0,True
Unknown,shop,12.9919502,77.5457767,-1,False
Just Bake,shop,12.9836572,77.5487644,5,True
Unknown,shop,12.9975064,77.5499528,5,True
Sweet Chariot,shop,12.9684869,77.6008019,1,True
Relience Fresh,shop,12.9381919,77.556125,2,False
"Panchamukhi Motors, Bajar Service Station",shop,12.9664835,77.5443788,-1,False
Nutan Silks,shop,12.9814915,77.6083334,1,True
Geetanjali,shop,12.9814677,77.6084953,1,True
Lake N Bake,shop,12.9811096,77.6102253,1,True
RMKV Silks,shop,13.0103379,77.5549593,5,True
Debenhams,shop,13.0101708,77.5548457,5,True
Debenhams Cosmetic,shop,13.0101633,77.5550943,5,True
Landmark,shop,13.0101713,77.5549686,5,True
Unknown,shop,13.011798,77.5551394,5,True
Reebok,shop,13.010998,77.5553637,5,True
Espirit,shop,13.0109007,77.5548788,5,True
Ethos,shop,13.0108303,77.5549373,5,True
Tommy Hilfiger,shop,13.0107847,77.5548782,5,True
Wills Lifestyle,shop,13.0107206,77.5549405,5,True
Elle,shop,13.0106746,77.5548767,5,True
Swarovski,shop,13.0103911,77.5548848,5,True
Nautica,shop,13.0105296,77.5548792,5,True
Samsonite,shop,13.0104749,77.5548867,5,True
Chemistry,shop,13.0102981,77.5548904,5,True
Levi's,shop,13.0100944,77.5549108,5,True
United Colors of Benetton,shop,13.0102817,77.5549652,5,True
Jack & Jones,shop,13.0104166,77.5549615,5,True
Mango,shop,13.0106066,77.5549374,5,True
Westside,shop,13.0104539,77.5553095,5,True
Balckberrys,shop,13.010514,77.5553829,5,True
Bata,shop,13.0103911,77.5553855,5,True
Unknown,shop,13.0101195,77.5554142,5,True
Fasttrack,shop,13.0101943,77.5554198,5,True
Hidesign,shop,13.0114964,77.5549008,5,True
Da Milano,shop,13.0100667,77.5552757,5,True
Lee,shop,13.0100968,77.5551844,5,True
Wrangler,shop,13.0100992,77.555032,5,True
Central,shop,13.0100959,77.5547872,5,True
U.S. Polo Assn.,shop,13.0113093,77.5549151,5,True
Provogue,shop,13.0112178,77.5548584,5,True
Rockport,shop,13.0112384,77.5553907,5,True
Samsung,shop,13.0118669,77.5548539,5,True
Adidas,shop,13.0116388,77.5547987,5,True
Arrrow,shop,13.0118174,77.5548097,5,True
Celio,shop,13.0117593,77.5548097,5,True
Imagine Store,shop,13.0115721,77.5547854,5,True
Zodiac,shop,13.0117504,77.5552004,5,True
Louis Phillippe,shop,13.0118154,77.5550156,5,True
Van Huesen,shop,13.0117552,77.5550805,5,True
Pepe,shop,13.0117279,77.5553093,5,True
World of Titan,shop,13.0117851,77.5551919,5,True
Star Bazar,shop,13.0114494,77.555384,5,True
Colorplus,shop,13.0117987,77.5552696,5,True
Mochi,shop,13.0115445,77.5548961,5,True
Clarks,shop,13.0115308,77.5548398,5,True
LP,shop,13.0116624,77.5549201,5,True
Allen Solly,shop,13.0115542,77.5554029,5,True
Hush Puppies,shop,13.0115083,77.5553276,5,True
Bagzone,shop,13.0117528,77.5550085,5,True
Accessorize,shop,13.0116388,77.5548517,5,True
The Body Shop,shop,13.0117313,77.5547545,5,True
Inmark,shop,12.9805404,77.6072557,1,True
Thunderbird,shop,12.9827176,77.6070474,1,True
World of Titan,shop,12.9820759,77.6090805,1,True
Mysore Saree Udyog,shop,12.9814604,77.6104149,1,True
Sterling House,shop,12.9819531,77.6088847,1,True
Foto Circle,shop,12.9800713,77.5746161,1,True
Unique Saloon,shop,12.978788,77.5748548,1,True
FBB,shop,12.9829933,77.5593852,5,True
Sangeetha Mobiles,shop,12.9778758,77.5529801,-1,False
The Raymond Shop,shop,12.9801967,77.5543695,5,True
Bangalore Wheels Yamaha Showroom,shop,12.973835,77.547621,-1,False
Kavitha Enterprises ( Indane Gas Agency ),shop,12.9738559,77.5464945,-1,False
Bangalore HAM Shop,shop,13.0044195,77.6231215,4,False
Unknown,shop,12.9679532,77.5879077,1,True
Bhavani Kangan Stores,shop,12.9318708,77.5837602,8,False
Tata Motors,shop,12.9338666,77.6123477,0,True
PC Jeweler,shop,12.9327614,77.5849863,8,False
Abaran Jewelers,shop,12.970738,77.6105649,1,True
Violet Flowerist,shop,13.0030286,77.6199133,4,False
Azhar Furnitures,shop,13.0030548,77.619863,4,False
Cromā,shop,12.9397673,77.5849176,8,False
Reliance digital Xpress,shop,12.9386425,77.5849439,8,False
Tafe Access - Skoda,shop,12.9745112,77.6016775,1,True
Harish Wines - MRP Outlet,shop,12.9656224,77.5954265,1,True
Suzuki 2 Wheelers,shop,12.9855905,77.5599798,5,True
Mekhri Circle KTM,shop,13.0144365,77.5831503,-1,False
Classic Automotives,shop,13.014439,77.5829545,-1,False
Bhima Jewellers,shop,12.9748217,77.6145482,1,True
C. Krishnaih Chetty & Sons.,shop,12.9820126,77.6086888,1,True
Gold Palace,shop,12.9815508,77.607875,1,True
Alice Jewellers,shop,12.9817677,77.6081245,1,True
K.C. Das,shop,12.9758666,77.6017862,1,True
Karnataka Supermarket,shop,12.9644187,77.6062299,1,True
Noor and co,shop,12.9808323,77.6023684,1,True
Unknown,shop,12.9653566,77.5897586,1,True
Big Kids Kemp,shop,12.9723821,77.6185949,1,True
Army Canteen,shop,12.9689899,77.6200161,1,True
C. Krishniah Chetty & Sons,shop,12.9807537,77.6073428,1,True
Mark & Spencer,shop,12.9386176,77.6288681,0,True
Chamundeshwari,shop,12.9658588,77.5924927,1,True
Local Mutton Shop,shop,12.9662566,77.5925313,1,True
Surya Bakery,shop,12.9624238,77.5942112,1,True
Joyalukkas,shop,12.9760259,77.6032365,1,True
Malabar Gold,shop,12.9368412,77.5837992,8,False
Veena Musicals Service Center,shop,12.9400476,77.5828215,8,False
New Veena Musicals,shop,12.9393363,77.5824542,8,False
Big Bazaar,shop,12.9734434,77.6216713,1,True
Sabu collection,shop,12.9693531,77.6248085,-1,False
Suzuki,shop,12.972455,77.6202099,1,True
Dubai Plaza,shop,12.9736536,77.6068998,1,True
Sapna Book House,shop,12.9731071,77.6082808,1,True
KSIC Seconds Showroom,shop,12.9740565,77.609206,1,True
Stellar,shop,12.9353301,77.6091895,0,True
Archies,shop,12.9887808,77.5756802,1,True
O. G. Variar and Sons Bakery,shop,12.9914598,77.5546233,5,True
Nandini Milk Booth,shop,12.9895284,77.5574083,5,True
National Travels,shop,12.9779382,77.5741286,1,True
Sara: The Silk Store,shop,12.975886,77.6026229,1,True
The Raymond Shop,shop,12.9756963,77.6049162,1,True
Soulspace,shop,12.975306,77.6065165,1,True
Sri Mukambika,shop,12.9962972,77.5719247,1,True
Uninor,shop,12.9471719,77.599717,6,False
Nilgiri's,shop,12.9728628,77.6074393,1,True
Planet Fashion,shop,12.9729398,77.6085437,1,True
Lapteck Laptop Service Center Bangalore,shop,13.0209724,77.6291786,-1,False
GK Vale,shop,12.9999995,77.6107662,4,False
Dilpasand Tea Canter,shop,12.9999864,77.6110398,4,False
Savera Tea House,shop,13.0001615,77.6111363,4,False
Pro Active Car Accessories,shop,13.0209775,77.6289106,-1,False
Pani Kum Chai,shop,13.021342,77.6286179,-1,False
Lakeview Milk Bar,shop,12.9759697,77.6037239,1,True
Boots,shop,12.9781403,77.6361744,1,True
Manyavar,shop,12.9781069,77.6359334,1,True
Oxford office solutions,shop,12.9742587,77.6361742,1,True
Bata,shop,12.9783044,77.6340737,1,True
Nandini Milk Parlour,shop,12.9460379,77.6221481,0,True
Nandini Milk Parlour,shop,12.9440649,77.624007,0,True
Eshwari Matching Center,shop,13.0041482,77.5498362,5,True
Manjunath Dry Cleaners,shop,12.9952537,77.5517627,5,True
Helmet Paradise,shop,12.9554901,77.5854638,-1,False
Karthik Aquarium,shop,12.9845372,77.5543971,5,True
Vinutha Jewellers,shop,12.9894264,77.5544249,5,True
Mahesh Opticals,shop,12.989866,77.554497,5,True
Sainath Enterprises,shop,13.0075627,77.548131,5,True
Safal Fresh,shop,12.9403442,77.6024598,6,False
Marble Centre International Private Limited,shop,12.9414015,77.6028616,6,False
Guruprakash General Stores,shop,12.9606678,77.5714841,3,False
V V Silks and Sarees,shop,12.9365182,77.583828,8,False
Kohinoor Granite and Marble,shop,12.9407571,77.6025842,6,False
Vignesh Men's Parlour,shop,12.9873814,77.5723908,1,True
Kanchipuram Varamahalakshmi silks,shop,12.999115,77.5695329,1,True
Nandini Milk Shoppe,shop,12.9402766,77.58412,8,False
Sagar Vajra,shop,12.9416428,77.5842724,8,False
Arnav,shop,12.940504,77.5840047,8,False
HOPCOMS,shop,12.9404021,77.584112,8,False
Bharat TVS,shop,12.9374577,77.584109,8,False
Suhas Medicals,shop,12.9397408,77.5829526,8,False
Raghavendra Medicals,shop,12.9379857,77.5828269,8,False
Mohan Bhandar,shop,13.0018587,77.5711353,1,True
Unknown,shop,12.9672714,77.5892653,1,True
Karnataka Arts & Crafts Emporium,shop,12.9672322,77.5891929,1,True
Nandini General Stores,shop,12.9893163,77.5570578,5,True
Bhavesh Publications Pvt Limited,shop,12.9893048,77.5569651,5,True
Artway tailors - Ladies and Gents,shop,12.9896534,77.5570551,5,True
U S Chemicals,shop,12.9893115,77.5569048,5,True
Ganesh Jeans Alteration Center,shop,12.9893195,77.5568469,5,True
HOPCOMS,shop,12.9893684,77.5574688,5,True
Marvel Abrasive Tools,shop,12.9893418,77.5560549,5,True
Khadi Gramodyog Bhavan,shop,12.9894943,77.5560074,5,True
Sri Manjunatha Condiments,shop,12.9894211,77.556002,5,True
Raikar Jewellery Works,shop,12.9894159,77.556053,5,True
Classic Alteration Centre,shop,12.9893868,77.5550414,5,True
Toddler's Den,shop,12.9894133,77.5560959,5,True
Manju Dry Cleaners,shop,12.9894159,77.5561388,5,True
Lidkar Leather Emporium,shop,12.9895753,77.5545027,5,True
Stella's Beauty Salon,shop,12.9894313,77.554456,5,True
Global Management Services,shop,12.9891535,77.5550832,5,True
Hi Tech Junction - Jeans Alteration,shop,12.989273,77.5551359,5,True
Om Ganesh Video Vision,shop,12.9893267,77.5559106,5,True
Ganesh Enterprises,shop,12.9892765,77.5559234,5,True
Sun Stamps and Seals,shop,12.9892332,77.5559116,5,True
Bombay Fashions - Ladies Tailors,shop,12.989107,77.5559009,5,True
Bhairav Jewellers,shop,12.9890068,77.5559058,5,True
Sri Maruti Air Travels,shop,12.9893325,77.5559867,5,True
Sri Raghavendra Condiments,shop,12.9893394,77.5559942,5,True
M N Tailors,shop,12.9891463,77.5559752,5,True
"Touch One Stop Repair Services - Laptop, Desktop, Tablet, Accessories",shop,12.9892592,77.5559827,5,True
Kailash Fashion Jewellery,shop,12.989092,77.5559747,5,True
Sri Charan stores,shop,12.9890644,77.5559708,5,True
Soundarya Beauty Parlour,shop,12.9890834,77.5559738,5,True
Sri Manjunath Stores,shop,12.9890052,77.5559614,5,True
Pradhan Jewellers,shop,12.9890226,77.5559646,5,True
Sri Balaji Agency,shop,12.9890135,77.5559637,5,True
Mobile and More,shop,12.9890002,77.5559632,5,True
Mamatha Jewels,shop,12.9889846,77.555961,5,True
Gyan Exports,shop,12.9889803,77.5559601,5,True
Vishal Tea Company,shop,12.9889687,77.555961,5,True
Prasad Coffee Powder,shop,12.988954,77.5559592,5,True
Sree Amrutheswari Bakery and Condiments,shop,12.9940747,77.5945777,1,True
Unknown,shop,12.9436693,77.62521,0,True
Nami Designer,shop,12.9440787,77.6247551,0,True
The Bangalore A1,shop,12.9440393,77.6257271,0,True
Sri Adhi Lakshmi,shop,12.9447492,77.6244929,0,True
Sri Adhi Lakshmi,shop,12.9450817,77.6242547,0,True
Bhunaa's,shop,12.9451326,77.6242163,0,True
SPG Infotech,shop,12.9424031,77.5802815,8,False
Harley Davidson,shop,12.9704791,77.5977284,1,True
Printo,shop,13.0085167,77.5686473,1,True
SLV Stores,shop,12.9482932,77.6213652,7,False
Food Basics,shop,12.9319665,77.6179178,0,True
Inmark,shop,12.934947,77.6139133,0,True
Seven Seas,shop,13.0055983,77.6237105,4,False
Vasthraa,shop,12.9374554,77.6195629,0,True
Neha Fancy,shop,12.9780309,77.6331524,1,True
Bhuvavaneswari Traders,shop,12.9784407,77.633075,1,True
Idea,shop,12.9783956,77.6330601,1,True
Vodafume,shop,12.9785259,77.63308,1,True
Unibic Cookies,shop,12.978308,77.6330436,1,True
Fuzzy Wuzzy Pet Store,shop,12.978044,77.6333101,1,True
Fresh and Ground,shop,12.9780345,77.6339912,1,True
Padmavathi Bakers,shop,12.9780446,77.6339349,1,True
Shabari Electricity Company,shop,12.9780309,77.6337864,1,True
BTC Bozzar,shop,12.9782881,77.6335861,1,True
Shoes City,shop,12.9782871,77.6335425,1,True
Meena Jewellers,shop,12.9780926,77.634514,1,True
Mishra Peda,shop,12.9780934,77.6343751,1,True
Nokia,shop,12.978056,77.6340881,1,True
Prestige Smart Kitchen,shop,12.9780941,77.6345877,1,True
Reliance,shop,12.9780538,77.6340458,1,True
Jockey Clotes,shop,12.9783722,77.6358102,1,True
Classic Polo,shop,12.9780969,77.634707,1,True
Deepa Stores,shop,12.9781095,77.6348789,1,True
Lakshmi Traders,shop,12.9781092,77.6349664,1,True
Ethic Attic,shop,12.980378,77.6361915,1,True
Bombay Dyeing,shop,12.9781127,77.6353438,1,True
Moto Adda,shop,12.9781144,77.6354969,1,True
Philips Store,shop,12.9781006,77.6352048,1,True
Venkateshwara Tyre Center,shop,12.9781052,77.635083,1,True
Now Fashion Lounge,shop,12.9787341,77.6331219,1,True
Arman Motors,shop,12.9790112,77.6332114,1,True
DJ Seafoods,shop,12.9791369,77.633216,1,True
Eggies,shop,12.9788082,77.6331514,1,True
Namdhari Fresh,shop,13.0207547,77.5929974,-1,False
Asus / Dell Service Center,shop,12.9524597,77.5773297,9,False
Maiyas Store,shop,12.9526217,77.5773377,9,False
Harsha Enterprises,shop,12.9517068,77.5769729,9,False
Nandini Milk Parlour,shop,12.9506501,77.5779992,9,False
V B Bakery,shop,12.9516486,77.5770722,9,False
VRL Yeshwantpur,shop,13.0210793,77.551924,-1,False
SRS Yeshwantpur,shop,13.0211211,77.5519025,-1,False
Nandini Milk Parlour,shop,12.9369639,77.5721872,-1,False
JSS Boutique,shop,13.0070488,77.5790404,1,True
Unknown,shop,12.9780899,77.6334227,1,True
Campus Xerox Centre,shop,13.0181463,77.5651172,-1,False
Select Bookshop,shop,12.9735251,77.6081233,1,True
Appoji Dry Cleaners,shop,12.9477109,77.5997799,6,False
Unknown,shop,12.9476738,77.5990277,6,False
Karnataka Tailor,shop,12.9474937,77.5998176,6,False
Shaheen Chicken Stall,shop,12.9479461,77.5999219,6,False
Shree Sai Baba Condiments,shop,12.9480956,77.5999568,6,False
Wahid Pasha Vegetable stall,shop,12.9482719,77.5999963,6,False
L S Iyengar Bakery,shop,12.9482984,77.6000248,6,False
AquaDay,shop,12.9484922,77.6001079,6,False
Nandini Franchise Outlet,shop,12.9485115,77.6001153,6,False
National Motors,shop,12.9814249,77.6015383,1,True
Sri Rama Battery Point,shop,12.9810668,77.6019607,1,True
Airtel Express,shop,13.0014552,77.5722176,1,True
K C Das,shop,13.0073096,77.571225,1,True
Printhouse,shop,13.0018953,77.5724935,1,True
Reliance Fresh,shop,12.9366381,77.5752413,-1,False
Navrathan Jeweler,shop,12.9758231,77.6043176,1,True
Manyavar,shop,12.9752086,77.6068423,1,True
Soch,shop,12.9751995,77.606899,1,True
Thomas Cook,shop,12.9750607,77.6068715,1,True
Marico Cotton Industries Emporium,shop,12.9756615,77.6049554,1,True
Natesan's Antiqarts (P) Ltd,shop,12.9754236,77.6061302,1,True
Titan World,shop,12.9754578,77.6059813,1,True
Himalayan Jewelery,shop,12.97534,77.6064011,1,True
Nandini,shop,12.9754324,77.6068198,1,True
Hum India,shop,12.9751753,77.6037109,1,True
E. K. G. & Son,shop,12.9755537,77.6030614,1,True
The Entertainment Store,shop,12.9755648,77.6030218,1,True
Khanate,shop,12.9757238,77.6024026,1,True
Mobile Shop,shop,12.9757251,77.6023744,1,True
G G Welling,shop,12.9762075,77.6027288,1,True
Mulani Optics,shop,12.9761997,77.602761,1,True
Indiana Crockery,shop,12.9760337,77.6034275,1,True
D'Decor,shop,12.9760128,77.6035442,1,True
Zoroy Luxury Chocolate,shop,12.9757538,77.6022283,1,True
visas9.com,shop,12.9757739,77.6022519,1,True
Paresh Lamba Signatures,shop,12.9761907,77.6026409,1,True
Coolwell Electrix,shop,12.9761763,77.6022733,1,True
Jayalakshmi Bakery,shop,12.9609168,77.5879444,1,True
Adyar Ananda Bhavan,shop,12.997771,77.571072,1,True
Orbitz India Services Pvt Ltd.,shop,12.9734064,77.616709,1,True
Rao's Corner,shop,13.0038136,77.6295207,4,False
GIC Housing Finance Ltd.,shop,12.9739937,77.6091888,1,True
India Cements Capital Limited,shop,12.9718803,77.6180899,1,True
Shri Sai Designer Boutique,shop,12.9794587,77.6351838,1,True
Samsonite,shop,12.9721211,77.6078577,1,True
Colorplus,shop,12.972091,77.6077959,1,True
Check In,shop,12.9720624,77.6078121,1,True
Nike,shop,12.9744631,77.6075842,1,True
Impronta@11,shop,12.9365007,77.5811501,8,False
PSR Silks,shop,12.9369895,77.5810697,8,False
Nandini Silks,shop,12.9372349,77.581058,8,False
Josco Jewellers,shop,12.9368947,77.5819858,8,False
Raj Jewels,shop,12.9783688,77.6353657,1,True
Beef Market,shop,12.9860243,77.6053111,1,True
Sri Vasavi Super Market,shop,12.9726022,77.6346269,1,True
Karnataka Bakery,shop,12.9730537,77.6351916,1,True
Nagasree Bakery,shop,12.9728923,77.6347705,1,True
Santosh Tailors,shop,12.9730736,77.6351922,1,True
Kairali,shop,12.9730853,77.6154726,1,True
Central Cottage Industries Corporation Of India Ltd,shop,12.9730696,77.6154861,1,True
VH Gems and Jewels,shop,12.9730539,77.6156282,1,True
Kovi Shop,shop,12.9743706,77.6143537,1,True
Kings Way Travel Pvt Ltd,shop,12.9744925,77.6143949,1,True
CLS Book Shop,shop,12.9743829,77.6150015,1,True
Sears Travels,shop,12.9751475,77.614911,1,True
Page3,shop,12.9750968,77.6150804,1,True
Nikhaar,shop,12.9647167,77.5965668,1,True
Arya Bhangy Hand Carved Doors,shop,12.9677649,77.6002064,1,True
Riya Holidays,shop,12.9676928,77.6001299,1,True
Rugs and Riches,shop,12.9676687,77.6001003,1,True
SR Gopal Rao,shop,12.9676326,77.6000558,1,True
Vijaya Diamonds & Jewels,shop,12.9675244,77.5998954,1,True
Riya,shop,12.9675076,77.5998707,1,True
5àsec,shop,12.9675773,77.5999645,1,True
Rajatha Jewellers,shop,12.9675509,77.59993,1,True
Rajarathnam's Jewels,shop,12.9674835,77.5998288,1,True
Pratibha,shop,12.9647402,77.5963093,1,True
Entice,shop,12.9651732,77.5956922,1,True
OTS Officetech Systems Pvt Ltd,shop,12.9653277,77.5956147,1,True
Glowing Lights,shop,12.9653864,77.5955802,1,True
The Crown Cricketer,shop,12.9652579,77.5956452,1,True
Acme Fitness,shop,12.9674081,77.5997206,1,True
Herman Miller,shop,12.9681818,77.6010952,1,True
Unknown,shop,13.0033773,77.6295176,4,False
Unknown,shop,13.0033773,77.6295514,4,False
Unknown,shop,13.003513,77.6295457,4,False
Lenovo Authorised Mobile Service Center,shop,12.978113,77.6357537,1,True
"Corner Stone Christian Souvenirs, Gifts and Decors",shop,13.0006314,77.6295661,4,False
Saravana Store,shop,13.0015949,77.6301221,4,False
Iyengars Bakery,shop,13.0016135,77.6302145,4,False
Srinivas,shop,13.0017109,77.6306979,4,False
Nisha Supermart,shop,13.0019536,77.6319019,4,False
Waves Communication,shop,13.0020857,77.6325573,4,False
Bengalore Tyre Service,shop,13.0015517,77.629908,4,False
Corner Wines,shop,13.0015587,77.6299425,4,False
Sri Murugan,shop,13.0016726,77.6305078,4,False
Laxmi Gifts,shop,13.0017274,77.6307793,4,False
Tender Chicken,shop,13.0019645,77.631956,4,False
Raj Kamal,shop,13.0016306,77.6302994,4,False
Gold Finch Wines,shop,13.0016387,77.6303396,4,False
Unknown,shop,13.0016625,77.6304573,4,False
Spark,shop,13.0019219,77.6317445,4,False
Bharath Bedding,shop,13.0020713,77.6324856,4,False
Just Bake,shop,13.00168,77.6317427,4,False
Reliance Fresh,shop,13.0014363,77.630759,4,False
Fancy Mens Saloon,shop,13.0030061,77.6199476,4,False
Wrangler,shop,12.9816001,77.6101732,1,True
Moksh Studio,shop,12.9819526,77.6103232,1,True
Moksh,shop,12.9817301,77.6104468,1,True
Veena Works,shop,12.940566,77.5708321,3,False
Mane Holige,shop,12.9394431,77.5714279,3,False
Nature's Basket,shop,12.9337036,77.6229616,0,True
Safa Super Bazar,shop,12.9728596,77.6347745,1,True
Asha Sweets,shop,12.9995198,77.5711521,1,True
EarthWalk Pvt Ltd,shop,13.0078224,77.5645354,1,True
Unknown,shop,13.0077615,77.5640174,1,True
Recharge Only,shop,13.007887,77.5639611,1,True
Unknown,shop,13.0083852,77.5631417,1,True
Himalayan Dowry,shop,12.9753217,77.6064998,1,True
Nature's Basket,shop,13.0056797,77.5806627,1,True
KH phrama,shop,12.9487281,77.6003812,6,False
Chowdeswsri Rice traders,shop,12.9490257,77.6001501,6,False
BSNL Customer Service Center,shop,12.9489794,77.5997483,6,False
Manju Electricals,shop,12.9448035,77.6289262,0,True
Unknown,shop,12.9446671,77.6289233,0,True
Unknown,shop,12.9447067,77.6289232,0,True
Unknown,shop,12.9448343,77.6289279,0,True
Femina Wear,shop,12.9460942,77.6290815,0,True
Om Sri Vinayaka Garriage,shop,12.9460314,77.629121,0,True
Unknown,shop,12.9456961,77.6293342,0,True
Balaji Xerox Shop,shop,12.9461707,77.6289442,0,True
JJ Footwear,shop,12.9462204,77.6289455,0,True
Jai Maa Provision Store,shop,12.9461899,77.6289433,0,True
Soundarya Tailor Shop,shop,12.9462863,77.6289431,0,True
Unknown,shop,12.9462056,77.6289433,0,True
Unknown,shop,12.9462353,77.6289433,0,True
Unknown,shop,12.9462475,77.6289419,0,True
Unknown,shop,12.946264,77.6289449,0,True
Chippu's Juice and Bakery,shop,12.9460433,77.6289502,0,True
Unknown,shop,12.9461467,77.6289446,0,True
Ashok Textiles,shop,12.945821,77.6289508,0,True
Balaji Electricals,shop,12.9453451,77.6289362,0,True
Hari Jewelers,shop,12.9457828,77.6289521,0,True
Kanthi Enterprises,shop,12.9452772,77.6289318,0,True
M Srinivas Electricals,shop,12.9455056,77.6289457,0,True
Sapna Mobiles,shop,12.9455852,77.6289464,0,True
Sri Venkataeshwara Saloon,shop,12.9454537,77.6289432,0,True
Style Hairdresses,shop,12.9456667,77.6289508,0,True
TMS Provision Stores,shop,12.9455457,77.6289451,0,True
Unknown,shop,12.945892,77.6289533,0,True
Fashion Point Cloth Store,shop,12.945121,77.6289356,0,True
Fresh Bakery Cake,shop,12.9450827,77.6289375,0,True
Karnataka Stores,shop,12.9449308,77.6289299,0,True
New Hindustan Furnitures,shop,12.9451981,77.6289343,0,True
Public Distribution Shop,shop,12.9451555,77.6289394,0,True
SMR Star Garriage,shop,12.944858,77.6289267,0,True
Sairam Xerox,shop,12.9452383,77.6289337,0,True
Santosh Paan Shop,shop,12.9449987,77.6289375,0,True
Tea Shop,shop,12.9449012,77.6289255,0,True
Sri Balaji Cycle Shop,shop,12.9783607,77.6315391,1,True
puncher shop,shop,12.9609456,77.5506364,-1,False
Sri Murugan,shop,13.0016891,77.6297661,4,False
Singapore Bazaar,shop,13.0015192,77.6309522,4,False
Baby Kolourz,shop,13.0014479,77.630523,4,False
Unknown,shop,13.0013094,77.630483,4,False
NFS,shop,13.0022213,77.6295524,4,False
Unknown,shop,13.0030529,77.6294349,4,False
Maruthi,shop,13.0022607,77.6295523,4,False
Motokraft,shop,13.0027661,77.6295979,4,False
Janatha,shop,13.0015756,77.6290245,4,False
Ajanta,shop,13.0014203,77.6289872,4,False
Vijayalakshmi Silks,shop,12.9750054,77.6076001,1,True
Bakery,shop,12.9635115,77.5519675,-1,False
Unknown,shop,12.9634545,77.5521836,-1,False
ladies dress dulhan ,shop,12.9635067,77.5487362,-1,False
Naaz Men'S Parlor,shop,12.9645345,77.5517527,-1,False
Ayub Bakery,shop,12.9640886,77.5503466,-1,False
Unknown,shop,12.9641006,77.5502859,-1,False
Manjunatha Bakery,shop,12.9632664,77.5488141,-1,False
rathan Lal,shop,12.9644882,77.5534307,-1,False
Ezee Mobile Service Point,shop,12.9646163,77.5517803,-1,False
Ayenger Bakery,shop,12.9608471,77.5490504,-1,False
The Book Room,shop,12.9764139,77.6012059,1,True
The Bangalore Ham Shop,shop,12.9761889,77.6028396,1,True
Capital hair dressers,shop,12.9875457,77.573633,1,True
Kasseva,shop,12.9636036,77.5940552,1,True
Origo Cosmeceuticals Private Limited,shop,12.9627136,77.5949225,1,True
Adishwar India Limited,shop,13.0042893,77.5513853,5,True
Sancy's Laundrette,shop,12.968352,77.6361835,-1,False
Karu Pakula Jewellers,shop,12.9679842,77.578539,1,True
Shoba Jewellers,shop,12.9681084,77.5786114,1,True
Sri Kalki Jewellers,shop,12.967911,77.5786751,1,True
Vajra Mahal,shop,12.9680476,77.5787462,1,True
Garden care,shop,12.9872979,77.6178332,-1,False
Lake View Supermarket,shop,12.9875472,77.6189672,-1,False
Hides Inc,shop,12.9991564,77.6157298,4,False
Cake Yard,shop,12.9398043,77.5755209,3,False
Reddy Electricals,shop,13.0055639,77.5713909,1,True
Maha Bazar,shop,13.0148535,77.6336331,-1,False
Unknown,shop,12.9327419,77.6269861,0,True
Moon Star Mobiles,shop,12.9783525,77.6361748,1,True
Excellent Plus Stationery & Xerox,shop,12.9781149,77.6354032,1,True
Select Bakery and Stores,shop,12.9783775,77.63577,1,True
Titan,shop,12.9784182,77.6354528,1,True
Vivo,shop,12.9781077,77.6357882,1,True
Future Fitness,shop,12.9783817,77.6362087,1,True
Health & Glow,shop,12.9783915,77.6357076,1,True
Ozone,shop,12.9783961,77.6353654,1,True
Atlas Hoppers,shop,12.9783205,77.6351211,1,True
Borg,shop,12.9780998,77.6347333,1,True
Celebrations,shop,12.9780992,77.6349978,1,True
T.K. News Agencies,shop,12.978117,77.6353779,1,True
Aquaverse,shop,12.9770418,77.6328323,1,True
Dlecta Foods Private Limited,shop,12.9780154,77.6334331,1,True
Limra Fashion for Ladies and Kids,shop,12.9780533,77.6330968,1,True
Satin Soft Salon and Boutique,shop,12.9777187,77.6333365,1,True
Sri Krishna Akarshan Boutique,shop,12.9779357,77.6332748,1,True
Gaayathri coffee,shop,12.9382756,77.5572939,2,False
Groceries,shop,13.0084103,77.5636893,1,True
Sri Vinayaka Motors,shop,12.977683,77.632226,1,True
Annapurneshwari rice corner,shop,12.9770585,77.6318947,1,True
Cut 'N' style,shop,13.0084784,77.5636911,1,True
Jayana,shop,12.9778564,77.6322647,1,True
Mithra vegetable and fruit stall,shop,12.9772038,77.6316324,1,True
Reebok,shop,12.9675377,77.6062098,1,True
Dunkin',shop,12.9720568,77.6067921,1,True
Tibet Bazaar,shop,12.9722398,77.6068828,1,True
InMark Factory Outlet,shop,12.9810245,77.6024328,1,True
New Heritage Collection,shop,12.9808894,77.6021928,1,True
Redington,shop,12.9808556,77.6022008,1,True
Asma,shop,12.9812997,77.6015215,1,True
Sultania Arts Emporium,shop,12.9812106,77.6018221,1,True
PC Mallappa & Co,shop,12.9810655,77.6015639,1,True
Stationery shop,shop,12.9817773,77.6013942,1,True
Imaad,shop,12.9824388,77.6022077,1,True
Prestige Interiors,shop,12.9825413,77.6016674,1,True
Aman Trading Co,shop,12.9826427,77.6013708,1,True
Best Auto Traders,shop,12.9826427,77.6013708,1,True
Elite Furnishers,shop,12.9808223,77.6024278,1,True
Light & Style,shop,12.9807901,77.6024814,1,True
Sree Balaji Plywoods,shop,12.9807436,77.6026583,1,True
Mandovi Motors,shop,12.9818702,77.6031303,1,True
Chai Point,shop,13.0085444,77.5695202,1,True
Pedals and Wheels,shop,13.0085466,77.5693751,1,True
Nilgiri Supermarket,shop,13.0025965,77.5981195,-1,False
Ambica Travels,shop,12.9591122,77.5764973,3,False
Jagadish Tours,shop,12.9672279,77.6066828,1,True
Avon,shop,12.965537,77.6027487,1,True
Lakme Salon,shop,12.9655401,77.6028098,1,True
Navakarnataka,shop,12.9740596,77.5793767,1,True
Sacred Heart Church Religious Stall,shop,12.9664529,77.6093326,1,True
Homecentre,shop,12.966707,77.6118198,1,True
Artefacts,shop,12.9665522,77.6127824,1,True
Akbar Travels,shop,12.9663431,77.6065158,1,True
Fenesta,shop,12.9696957,77.6361088,1,True
Seema Art Jewellery,shop,12.9453567,77.5710944,3,False
BN Sreekantiah And Sons,shop,12.9450336,77.5715059,3,False
Priyanka Silks,shop,12.9450199,77.5714286,3,False
Flower Market,shop,12.9450571,77.5716432,3,False
Parimala Sweets,shop,12.9450077,77.5715689,3,False
Choice Footwear,shop,12.945197,77.5712783,3,False
Naati Terracota Store,shop,12.9450878,77.5857378,-1,False
Iyengar Bakery,shop,12.9520113,77.5806257,9,False
Sangeetha,shop,12.9670534,77.6068017,1,True
Vellara Junction,shop,12.9664099,77.6069001,1,True
Sahil Cycle Store,shop,12.9711603,77.6343125,1,True
Reliance Fresh,shop,12.9973946,77.5485023,5,True
New Akshaya Mini Bazaar,shop,13.0016723,77.5506179,5,True
Bata,shop,12.9974503,77.5496185,5,True
Parmar,shop,12.9977051,77.5495154,5,True
Simply Organics,shop,12.9939186,77.5513274,5,True
Tata,shop,12.9993009,77.54958,5,True
Malabar Jewellers,shop,13.0038472,77.5495336,5,True
Reliance Smart Bazaar,shop,13.0122683,77.5534545,5,True
Sugama Tourism,shop,13.0022573,77.5531469,5,True
Sree Uday Sweets,shop,12.9359986,77.619624,0,True
Bangalore Horticulture Fruits and Vegetables,shop,12.9360738,77.6194476,0,True
General Travel,shop,12.9777968,77.5741098,1,True
Unknown,shop,12.980306,77.5748003,1,True
William Penn Private Limited (Pendels),shop,12.9353544,77.6210999,0,True
Unknown,shop,12.9674392,77.5823999,1,True
Nextgen Technologies,shop,12.9650385,77.5838344,1,True
Food World,shop,13.0214967,77.5924037,-1,False
Chumbak,shop,12.9350497,77.6114296,0,True
Shoppers Stop,shop,13.0016385,77.6327548,4,False
Westside,shop,13.0013092,77.6325644,4,False
Westside,shop,12.9703171,77.6096478,1,True
Wiliam Penn,shop,12.9702937,77.6097845,1,True
CIS,shop,12.970278,77.6098784,1,True
Sunglass Hot,shop,12.9700844,77.6095781,1,True
Sands,shop,12.9701797,77.6095278,1,True
Cookie Man,shop,12.9703117,77.6094111,1,True
Inglot,shop,12.9702202,77.6097061,1,True
Colourbar U.S.A,shop,12.9701575,77.6097866,1,True
Clarie's,shop,12.9703327,77.6095057,1,True
Levi's,shop,12.970236,77.609898,1,True
Tommy Hilfiger,shop,12.9701263,77.6094581,1,True
Accessorize,shop,12.9700765,77.6100428,1,True
Arrow,shop,12.9703373,77.6095755,1,True
Hidesign,shop,12.9702752,77.6096767,1,True
Nike,shop,12.9702596,77.6096405,1,True
Estee Lauder,shop,12.9703105,77.6093743,1,True
ShopperStop,shop,12.9702183,77.6099621,1,True
Mothercare,shop,12.9701765,77.6097046,1,True
Mustard,shop,12.9701425,77.6099031,1,True
SteveMaden,shop,12.9701608,77.6098414,1,True
Forever,shop,12.9701216,77.6095142,1,True
Swarovski,shop,12.9702627,77.6093988,1,True
U.S. Polo Assn.,shop,12.9701373,77.6096402,1,True
Adidas,shop,12.9700719,77.6095008,1,True
Allen Solly,shop,12.9701111,77.609651,1,True
Women(POI),shop,12.9702366,77.6094525,1,True
Chemistry,shop,12.9702157,77.609592,1,True
Dev's Jewellery,shop,12.970268,77.6095115,1,True
Fabindia,shop,12.9703059,77.6097499,1,True
Enamor,shop,12.9703295,77.6094669,1,True
Unknown,shop,12.9702746,77.6097391,1,True
Forever New,shop,12.9702471,77.6097673,1,True
Health & Glow,shop,12.9702537,77.6094977,1,True
Mint(POI),shop,12.9702811,77.6097137,1,True
Samsonite,shop,12.9702288,77.6097566,1,True
Accessory Palace,shop,13.0015902,77.6327951,4,False
GKB opticals,shop,13.0012844,77.632842,4,False
Allen Solly,shop,12.9919067,77.5705078,1,True
Baboosh,shop,12.9917884,77.5702636,1,True
GKB opticals,shop,13.0009877,77.6324491,4,False
Ray_Ban,shop,13.0012151,77.6328514,4,False
Sunglass Hut,shop,13.0007003,77.6324249,4,False
AND,shop,13.0011236,77.6326985,4,False
Arrow,shop,13.0011184,77.632846,4,False
Biba,shop,13.0012099,77.6324625,4,False
Cocopelee,shop,12.9916897,77.5711243,1,True
Celio(POI),shop,13.000891,77.632441,4,False
Flying Machine,shop,13.0006977,77.6325269,4,False
Global Desi,shop,13.0006977,77.6327361,4,False
Go Colors,shop,13.0006977,77.6328058,4,False
Jack & Jones,shop,13.0015366,77.632838,4,False
Levis(Poi),shop,13.0010139,77.632838,4,False
AND,shop,12.9914885,77.5711733,1,True
Marks And Spencer,shop,13.0009067,77.6326824,4,False
Nike,shop,12.9915734,77.5705023,1,True
Pepe Jeans,shop,13.0008257,77.6328326,4,False
Soch,shop,13.0011158,77.6324517,4,False
Columbia,shop,12.9914832,77.5710526,1,True
U.S. Polo Assn.,shop,13.0014529,77.6327548,4,False
Fila,shop,12.9918688,77.5705197,1,True
Unknown,shop,13.001304,77.6327334,4,False
Celio,shop,12.9916949,77.5710365,1,True
Adidas,shop,12.9914309,77.5705668,1,True
W,shop,13.0011289,77.6325617,4,False
Clarks,shop,13.0010322,77.6325429,4,False
Skechers,shop,13.0010635,77.6327012,4,False
color bar,shop,13.0008205,77.6324464,4,False
Cotton world,shop,12.9918152,77.570602,1,True
revlon,shop,13.0008336,77.6327495,4,False
The Body Shop,shop,13.0009459,77.6328407,4,False
Chera Silver Jewellary,shop,13.0014686,77.632838,4,False
Mothercare,shop,13.0006924,77.6326046,4,False
Bulchee,shop,13.0007029,77.6324786,4,False
Casio,shop,13.0012386,77.6325617,4,False
Hidesign,shop,13.000959,77.6325429,4,False
Just Watches,shop,13.000993,77.6327039,4,False
Sports Authority,shop,13.0007003,77.6326663,4,False
Enamor,shop,12.9916983,77.5711798,1,True
Puma,shop,13.0009041,77.632618,4,False
Sports Station,shop,13.0008884,77.6325456,4,False
Fabindia,shop,12.9914701,77.5706442,1,True
Favourite Shop,shop,12.9916022,77.570586,1,True
Puma,shop,12.9917024,77.5703066,1,True
Fazals,shop,12.9920289,77.5712576,1,True
Planet Sports;Jayant Probikes and Fitness,shop,12.991776,77.5702127,1,True
Fusion Beats,shop,12.9914706,77.5707615,1,True
Proline,shop,12.9918207,77.5705006,1,True
Rebook,shop,12.9915868,77.5703571,1,True
Sportxs,shop,12.991248,77.5707987,1,True
Spar,shop,12.991691,77.5707302,1,True
Home town,shop,12.9915813,77.5710872,1,True
Bata,shop,12.9916575,77.5703119,1,True
Hush Puppies,shop,12.9916587,77.5707137,1,True
inc.5,shop,12.9916423,77.5707645,1,True
Anu Opticals,shop,12.9921138,77.5704491,1,True
Mochi,shop,12.9915703,77.5703356,1,True
Rocia,shop,12.9916252,77.5702927,1,True
Metro,shop,12.9915977,77.5703852,1,True
Soles,shop,12.9918159,77.570522,1,True
Woodland,shop,12.9915402,77.5712596,1,True
Canon- camera store,shop,12.9916343,77.571041,1,True
Cromā,shop,12.9915154,77.5707071,1,True
Jumbo,shop,12.9921112,77.5707965,1,True
Lenovo flagship store,shop,12.9916189,77.5704825,1,True
Relience Digital,shop,12.992136,77.5701139,1,True
Sangeetha,shop,12.9917048,77.5709199,1,True
Imagine Store- apple Premium Reseller,shop,12.9917975,77.5705176,1,True
Whizz- Camers Store,shop,12.9916198,77.5711868,1,True
The Color Bar,shop,12.9913781,77.5711009,1,True
GVC,shop,12.9920694,77.570822,1,True
Health & Glow,shop,12.9915558,77.5709547,1,True
The Body Shop,shop,12.9915545,77.5710486,1,True
Vision Express,shop,12.9921268,77.5705256,1,True
Relax'N go massage,shop,12.9912735,77.5710821,1,True
Royal Enfield,shop,12.9917881,77.5707312,1,True
Tattoo World,shop,12.9914643,77.5712116,1,True
GINI Jony,shop,12.9916087,77.5704303,1,True
GlobalDesi,shop,12.9916688,77.5708192,1,True
Go fashion,shop,12.9915773,77.5706234,1,True
Identity,shop,12.9917237,77.5707817,1,True
Jashn,shop,12.9916584,77.5708621,1,True
Jockey,shop,12.991478,77.5708273,1,True
Kalanjali,shop,12.9915068,77.5708648,1,True
Kushals,shop,12.9914885,77.5710096,1,True
Lakshitha,shop,12.9917812,77.5705456,1,True
Laven,shop,12.9917603,77.5705724,1,True
Levi's,shop,12.9916281,77.570791,1,True
Lifestyle,shop,12.9912093,77.5712013,1,True
Louis Philippe,shop,12.9917551,77.5705993,1,True
Madame,shop,12.9914937,77.5709372,1,True
Manyavar,shop,12.9916322,77.5708648,1,True
Marks Spencer,shop,12.991742,77.5706315,1,True
Methiyadi stop,shop,12.9917237,77.5704196,1,True
MINC,shop,12.9914911,77.5711143,1,True
Mathrushree Medicals,shop,12.93599,77.5534094,2,False
Bhagyalakshmi Medicals,shop,12.9385917,77.5545138,2,False
Gupta Medicals,shop,12.9394245,77.5510448,2,False
Reliance trends,shop,12.9917002,77.5704464,1,True
CrossWord,shop,12.9911729,77.5709614,1,True
Sound Glitz,shop,12.9920092,77.570885,1,True
O2Spa,shop,12.9915349,77.5709185,1,True
Mom & Me,shop,12.9917263,77.5706556,1,True
Mufti,shop,12.9918779,77.5704357,1,True
YLG,shop,12.9915476,77.5703926,1,True
Spa nation,shop,12.9915483,77.5706119,1,True
Totally Hot stuff,shop,12.9915963,77.5710312,1,True
NatureFirst,shop,12.9917943,77.5703606,1,True
Neeru's,shop,12.9916348,77.5709185,1,True
Prapti,shop,12.9914927,77.570894,1,True
Pepe Jeans,shop,12.9918978,77.5705614,1,True
Peora,shop,12.9914326,77.5709262,1,True
Spring Summer,shop,12.9916416,77.5709799,1,True
Pantalons,shop,12.9914404,77.571012,1,True
Rubans,shop,12.9914378,77.5708377,1,True
Splash Fashion,shop,12.9914091,77.570968,1,True
Satya Paul,shop,12.9919004,77.5706473,1,True
Spykar,shop,12.991443,77.571173,1,True
show off,shop,12.9916486,77.5711196,1,True
Soch,shop,12.9917995,77.5707731,1,True
U.S. Polo Assn.,shop,12.9914127,77.570647,1,True
United Colour of Benetton,shop,12.9914676,77.5707087,1,True
V.Dot van heusen,shop,12.9919093,77.5705987,1,True
Valentine,shop,12.991559,77.5705585,1,True
Vastrra,shop,12.9914519,77.5711003,1,True
Voylla,shop,12.9914393,77.5708015,1,True
Vijayalakshmi,shop,12.991729,77.5703768,1,True
Wills Lifestyle,shop,12.9916854,77.5707845,1,True
Allen Solly,shop,12.991835,77.5705452,1,True
Lawrence and Mayo,shop,12.9977152,77.5695405,1,True
Unknown,shop,12.9974074,77.548344,5,True
Patel Fancy Store,shop,12.9977215,77.5488179,5,True
Unknown,shop,12.9970994,77.5484588,5,True
Vardaman,shop,12.9569354,77.578524,9,False
Karnataka Fish Stall,shop,12.9920497,77.5461018,-1,False
Boots Bazaar,shop,12.997569,77.5505796,5,True
Samsung,shop,13.0043687,77.5524019,5,True
LG,shop,13.004338,77.5520754,5,True
Cromā,shop,13.0040428,77.5519822,5,True
Adidas,shop,12.9350706,77.6116041,0,True
Puma,shop,12.934232,77.6111578,0,True
Nike,shop,12.9343711,77.6109597,0,True
Proline Fitness,shop,12.9364072,77.621398,0,True
Puma,shop,12.9452356,77.6184676,0,True
Meenaxi Chemicals,shop,12.9714473,77.5757997,1,True
Noah Sports Store,shop,12.9711228,77.6342464,1,True
Standard Chemicals,shop,12.9696817,77.573717,1,True
Yemkay Supermarket,shop,12.9417055,77.5560577,2,False
Shree Sudarshan Light And Appliances,shop,12.9703096,77.5761097,1,True
Runecha Chemicals,shop,12.9717632,77.5730069,1,True
Citi Nest Sports Centre,shop,12.9747522,77.6329973,1,True
Sweet Chariot,shop,12.984947,77.5540532,5,True
Madeena Supermarket,shop,12.9948336,77.6107384,4,False
Rakhra Sports House,shop,13.0062209,77.574224,1,True
olympic the sports shop,shop,12.9974177,77.5721787,1,True
Nike,shop,13.0113718,77.5548557,5,True
reenix sports india pvt ltd,shop,12.9926468,77.5570803,5,True
Puma,shop,13.0113146,77.5553964,5,True
Sri Kadamba Sports And Fittness,shop,13.0041656,77.5533333,5,True
Adidas,shop,13.0111809,77.5553953,5,True
B S A Motors,shop,13.0081068,77.5547635,5,True
RR Cycles,shop,12.9761039,77.6267652,1,True
Arjuna Sports,shop,12.9378082,77.5579522,2,False
World Sports & Fitness,shop,12.9406795,77.5534344,2,False
Sports 'N' Style,shop,12.948401,77.5712754,3,False
Food Mart Super Market,shop,13.004258,77.6135288,4,False
Jmv Enterprises,shop,12.9551847,77.5894021,-1,False
Sri Chamudeshwari Sports Link And Fitness,shop,12.961351,77.6348885,-1,False
Bodycraft Spa And Salon,shop,12.9421715,77.585355,8,False
My Style Family Beauty Parlour Saloon Spa,shop,12.9402812,77.5643832,3,False
Eden Unisex Spa And Salon,shop,12.9390091,77.5755401,-1,False
Naturals Lounge Unisex Salon Spa Makeup Studio,shop,12.9895098,77.593787,1,True
Meraki Spa And Boutique,shop,12.9712402,77.600457,1,True
Roots Beauty Clinic,shop,12.9993517,77.5766782,1,True
SPA ce The Spa,shop,12.9896793,77.5907826,1,True
Swan And Beyonce Unisex Salon,shop,12.9739265,77.6068604,1,True
Murthy Glass & Plywood Pvt Ltd,shop,12.9719137,77.5772021,1,True
R R Enterprieses,shop,12.9690423,77.575894,1,True
Sri Devi Chemicals,shop,12.9719452,77.5748259,1,True
Rakhra Sports,shop,12.9828927,77.6099848,1,True
Noah Sports Store,shop,12.9713439,77.6348117,1,True
Vinayaka Sports World,shop,13.0168374,77.5952157,-1,False
Manchester United Store,shop,12.9736655,77.6203864,1,True
Columbia,shop,12.9915431,77.5704437,1,True
Bismilla Cycle Mart,shop,12.9982313,77.5586322,5,True
Sporting Goods Shop,shop,12.9825938,77.6057981,1,True
SportXS,shop,12.9911453,77.5704056,1,True
Zeven,shop,12.9825245,77.6235846,-1,False
Jm sports,shop,12.9994164,77.5969578,-1,False
Acme Fitness,shop,12.9691024,77.5997819,1,True
Montra Café and Cycles,shop,12.9890319,77.5930442,1,True
Lanai pro Shop Yonex,shop,12.9898536,77.5971926,1,True
Kadamba Sports & Fitness,shop,13.0042886,77.5536072,5,True
Coles Sports World,shop,12.9961189,77.6155543,4,False
Olympic Sporting Co,shop,12.9757173,77.5779843,1,True
Sports Line and Fitness,shop,12.9872058,77.598574,1,True
Jayant Probikes & Fitness,shop,12.976848,77.5777736,1,True
Saga sports and trophies,shop,12.9757283,77.5787934,1,True
Excel Sports,shop,12.9749067,77.5757421,1,True
players choice,shop,12.9762609,77.5780859,1,True
Sports Planet,shop,12.9362197,77.6149088,0,True
South Indian Sports Industries,shop,12.9811097,77.6099,1,True
Falcon Sports,shop,13.0142127,77.6361981,-1,False
Sports Shoppee,shop,12.9632753,77.595633,1,True
Twenty Twenty sports,shop,12.9754179,77.6054983,1,True
Hoysala Sports,shop,12.9749621,77.5518927,-1,False
Planet Sports,shop,12.9484803,77.5718678,3,False
Winners Sports And Mementos,shop,12.9379298,77.5570137,2,False
Prince Sports India,shop,12.9674105,77.576402,1,True
Metro Sports,shop,12.9694073,77.5750298,1,True
Firfox cycle,shop,12.991824,77.5701784,1,True
Shah Cyclez N Fitnezz,shop,12.9383287,77.6310323,0,True
Sangam Traders,shop,12.9329873,77.5792591,8,False
Karnataka Chemical Industries,shop,12.9704653,77.5734187,1,True
Aurora Thai,shop,12.9540446,77.617207,-1,False
Charisma Spa Pvt Ltd,shop,12.9359041,77.6284372,0,True
Star Bazaar,shop,12.9367017,77.6104595,0,True
Four Fountains De Stress Spa,shop,12.9349925,77.6228415,0,True
Ocean salon & spa,shop,12.9384867,77.6235272,0,True
Renaissance Unisex Salon & Spa,shop,12.9336239,77.6296283,0,True
The Beautique Women's Salon and Spa,shop,12.9348205,77.6169334,0,True
O2 Spa,shop,12.9706238,77.5990824,1,True
Aina Lounge,shop,12.9618472,77.6126582,1,True
De Stress Hub,shop,12.9386608,77.6308797,0,True
De Stress Hub,shop,12.9386618,77.6309427,0,True
O2 Spa,shop,13.0077061,77.5793938,1,True
Cloud 9 Men And Women Beauty Salon,shop,12.9896507,77.5947885,1,True
Flicks Salon And Spa,shop,12.9692465,77.6101289,1,True
Margarets Hair Dressing,shop,12.9344426,77.6130436,0,True
Karthik Cycle Store,shop,12.9428729,77.5653972,3,False
Cycle City,shop,12.9373987,77.5582675,2,False
Green Trends - Unisex Hair & Style Salon,shop,12.937152,77.6195215,0,True
STUDIO11 Salon & Spa,shop,12.9406759,77.6245,0,True
YLG Salon & Spa,shop,12.9917364,77.5705587,1,True
Parker Spa And Salon,shop,13.0155509,77.6323859,-1,False
Ebony Blonde,shop,13.0153602,77.6307515,-1,False
Beauty Saloon & SPA,shop,12.9554408,77.5918122,-1,False
Royale Iram Saloon And Spa,shop,13.0028583,77.6233425,4,False
Bodycraft Spa And Salon,shop,12.9421569,77.585374,8,False
Lakme Salon,shop,12.9733578,77.6218193,1,True
Green Trends Unisex Hair & Style Salon,shop,12.9339304,77.583662,8,False
Celebrate Life,shop,12.9973067,77.6139222,4,False
Shobas Herbal Beauty Parlour,shop,12.9402498,77.6176946,0,True
O2 Spa,shop,12.9914824,77.5708676,1,True
Village Super Market,shop,12.9995759,77.6230526,4,False
Stunning Salon and Spa,shop,12.9794303,77.5521427,-1,False
Snippetts Unisex Salon and Spa,shop,12.9881831,77.5534451,5,True
Lakme Salon,shop,12.998558,77.5543175,5,True
Scent Spa,shop,12.983366,77.5591007,5,True
Ebony Blonde,shop,13.0157441,77.6304813,-1,False
Maries Fish stall and chicken centre,shop,13.0024488,77.6340261,4,False
Manyavar,shop,12.9825626,77.607495,1,True
Kashmir House,shop,12.9825215,77.6076062,1,True
K L D fish stall,shop,12.9673595,77.5453295,-1,False
Reliance Fresh,shop,12.9736279,77.5446202,-1,False
Toyota car service center,shop,12.9758007,77.5474121,-1,False
Pawan Bar and Restaurant,shop,12.9739053,77.5505113,-1,False
Maruthi Service Center,shop,12.9746825,77.5468208,-1,False
Girias,shop,13.0056405,77.5691365,1,True
Pantaloons,shop,12.9345661,77.6116372,0,True
Fabindia,shop,12.9819606,77.6088172,1,True
Texs Mart,shop,12.9823616,77.6097828,1,True
Occaision,shop,12.9825635,77.6077831,1,True
Reliance Stationery Mart,shop,12.9823269,77.6077562,1,True
Gopalan Corner,shop,12.9823184,77.6099499,1,True
Shapes and Shades,shop,12.9822919,77.6099944,1,True
Alankrita,shop,12.9825858,77.6076887,1,True
Deco Design,shop,12.9556017,77.5459806,-1,False
Fringes Unisex Salon,shop,12.9340373,77.6272494,0,True
Gustovita Gelateria,shop,12.9732118,77.6033549,1,True
Shree Venkateshwara Traders,shop,12.9977049,77.5482864,5,True
Malnad Travels,shop,12.977965,77.5753337,1,True
Amar Radio Corporation,shop,12.9646857,77.5825373,1,True
S Abbas & Co,shop,12.964736,77.5817243,1,True
New Diamond Electro Control,shop,12.9650146,77.5816415,1,True
Jai Hind Agencies,shop,12.9650947,77.5816049,1,True
A M Power Tools,shop,12.964871,77.5811502,1,True
Sri Lakshmi electronics,shop,12.9647292,77.582038,1,True
Vishal electronics,shop,12.9646329,77.5819878,1,True
Burhani Rubber & Polymer,shop,12.9640976,77.5828518,1,True
Power Tools & Tackles,shop,12.963389,77.5800026,1,True
M M Trading Company,shop,12.9648421,77.5784145,1,True
Reliance tools centre,shop,12.9643898,77.5797751,1,True
Bhandari electronics,shop,12.964766,77.582137,1,True
Navrathan's Antique Art,shop,12.9748864,77.608186,1,True
Kynkyny Art,shop,12.983394,77.593893,1,True
William Penn,shop,12.9338103,77.6199863,0,True
Idea,shop,12.9729017,77.5772949,1,True
Vodafone Idea,shop,12.9748489,77.578734,1,True
Airtel,shop,12.9757547,77.5793688,1,True
Vodafone Idea,shop,12.9761844,77.5797178,1,True
S.R.S travels,shop,12.976952,77.5798692,1,True
Damro Furniture,shop,12.9988676,77.5502861,5,True
Thomsons,shop,12.9980438,77.6205601,4,False
Unknown,shop,12.998501,77.6203996,4,False
Unknown,shop,12.9984473,77.6204212,4,False
Fresh vegetables,shop,12.998375,77.6204488,4,False
Kiran expert dry cleaners,shop,12.9976423,77.6175048,4,False
Unknown,shop,13.0013207,77.6235793,4,False
F1 Info Solutions & Services Pvt Ltd,shop,12.9876942,77.5948863,1,True
Dhanlakshmi Kitchen World,shop,13.0011521,77.5502895,5,True
Manish Tailors,shop,13.001507,77.5502669,5,True
Liberty Exclusive Showroom,shop,12.9973971,77.5480936,5,True
Raagam Digital Photo Studio,shop,12.9979863,77.546329,5,True
Unknown,shop,12.9979157,77.5464283,5,True
Thengu Mane,shop,13.0016695,77.5504554,5,True
Star Fresh Egg Center,shop,12.9984122,77.6204312,4,False
Band Box,shop,12.9469892,77.5690135,3,False
Apoorva Iyengar Bakery,shop,12.9920129,77.5753645,1,True
Unknown,shop,12.9988689,77.5556335,5,True
Crankmeister,shop,13.0001887,77.6180988,4,False
Agiledge process solutions Pvt Ltd,shop,13.0169007,77.5907711,-1,False
3M Car Care,shop,12.9449149,77.5677557,3,False
ethik,shop,12.9754297,77.6036831,1,True
Hairkraft,shop,12.9365231,77.6148638,0,True
Unknown,shop,12.9434351,77.5655011,3,False
SOCH,shop,12.9378068,77.6271846,0,True
Kushals,shop,12.9378414,77.6272417,0,True
Adyar Ananda Bhavan,shop,12.9761326,77.577703,1,True
Adyar Ananda Bhavan,shop,12.9742651,77.5753347,1,True
Greenline Travel & Holidays,shop,12.9804024,77.5739307,1,True
Luna sweets,shop,12.9460622,77.595536,6,False
Silsila,shop,12.9453021,77.5952136,6,False
Sri Srinivas Silk House,shop,12.957338,77.5925388,1,True
Sam's Wine Centre,shop,12.9709347,77.6051427,1,True
Shri Venkateshwara Motor Works,shop,12.9690232,77.6064416,1,True
Palace Bakery and Sweets,shop,12.9430419,77.5945987,6,False
Furniture Forum,shop,12.9593325,77.5932644,1,True
Masha Allah ( Falouda),shop,12.9443098,77.594569,6,False
Jewels Garden,shop,12.9667854,77.5985305,1,True
Laludas,shop,12.968924,77.6064233,1,True
Blue Bird Wine Centre,shop,12.9713557,77.6063804,1,True
Floral bakery,shop,12.9446921,77.5968791,6,False
Bakery Nimhans,shop,12.9392324,77.5949154,6,False
Prince dry cleaners,shop,12.9586318,77.5934793,1,True
Cox and Kings,shop,12.9589729,77.593575,1,True
Butterfly,shop,12.9575014,77.5930278,1,True
Tulasi,shop,12.9597445,77.5939951,1,True
Qatar Airways,shop,12.9874951,77.5948235,1,True
Nexa,shop,12.9730509,77.6025495,1,True
Fusion wines,shop,13.0012233,77.629344,4,False
Top most cleaners,shop,12.9952589,77.6163699,4,False
Big boss,shop,12.9868859,77.6162486,1,True
Raikars,shop,12.9817232,77.6096011,1,True
Bhagatram,shop,12.9818479,77.6095601,1,True
Rama's,shop,12.9817647,77.6093429,1,True
Ritikas,shop,12.9819252,77.6093637,1,True
Trendz shoes,shop,12.9817752,77.609303,1,True
Rocia,shop,12.9818648,77.6091062,1,True
Arrow,shop,12.9824227,77.6075594,1,True
Van Heusen,shop,12.9824555,77.6074612,1,True
Poshaak,shop,12.9824103,77.6074845,1,True
Bollywood,shop,12.9817537,77.6094508,1,True
Western Store's,shop,12.9818192,77.6095041,1,True
Blackberrys,shop,12.9823415,77.6078182,1,True
New Citizen Carz,shop,13.0010936,77.6281785,4,False
World's best chicken,shop,13.0024181,77.6339615,4,False
Gaurav,shop,13.0025699,77.6343328,4,False
International travel house Limited,shop,12.9958599,77.6202844,4,False
Raghavendra Poona Store,shop,13.0020607,77.6324471,4,False
Woody's,shop,12.9817701,77.6097531,1,True
Children's corner,shop,12.9818814,77.6094657,1,True
Favourite shop,shop,12.9817989,77.6092438,1,True
Jewel,shop,12.9822917,77.6082949,1,True
Brown shop,shop,12.9817683,77.6094265,1,True
Chicken stops,shop,12.994204,77.6155483,4,False
Digital Express,shop,12.9963245,77.61771,4,False
Meena bazaar,shop,12.982442,77.6075006,1,True
Sn digital,shop,13.0021544,77.6327813,4,False
Olympic toys and sport wears,shop,12.9615604,77.5941029,1,True
The travel company,shop,12.9750488,77.6181385,1,True
Marzipan Cafe,shop,12.9746129,77.6193934,1,True
Fablore,shop,12.9810527,77.6076814,1,True
Dulhan,shop,12.9824199,77.6078755,1,True
Vero Moda,shop,12.9817589,77.6098823,1,True
Senco,shop,12.9812987,77.6077548,1,True
Wearhouse,shop,12.9818243,77.6079537,1,True
MS kidswear,shop,12.9812362,77.6077407,1,True
Levi's,shop,12.9824456,77.6078331,1,True
Blossom,shop,12.9824994,77.6076744,1,True
Melange,shop,12.9825764,77.6074569,1,True
Kyara,shop,12.9824232,77.6075957,1,True
Anglo American Optical Center,shop,12.9825806,77.6074235,1,True
Woodlands,shop,12.9821759,77.6084798,1,True
Tasva,shop,12.9819937,77.6087142,1,True
Bata,shop,12.9747335,77.6079408,1,True
Kawasaki,shop,12.9622636,77.5951894,1,True
Antegra,shop,12.9816187,77.6079235,1,True
Reliance,shop,12.9815007,77.6078412,1,True
Style Hunt,shop,12.9820315,77.6082291,1,True
Reddy and Chinappa,shop,12.9823728,77.6076265,1,True
Zenith,shop,12.9825193,77.6076591,1,True
Sri Balaji exports,shop,12.9823449,77.608156,1,True
Metro,shop,12.9813936,77.6103946,1,True
Converse,shop,12.972953,77.6074102,1,True
Blackberry,shop,12.9824714,77.6077402,1,True
