name,category,latitude,longitude,cluster_label,is_hotspot
Chord Road Hospital Pvt Ltd,other,12.9981215,77.5404836,0,True
Indian Oil,fuel,12.9967798,77.5404068,0,True
Bharat Petroleum,fuel,12.9966627,77.5400464,0,True
St Charles High School,other,12.9965228,77.5423272,0,True
Guru Sagar Hotel,restaurant,12.9951833,77.5396211,0,True
Fresh@Heritage,convenience,12.9974545,77.5403023,0,True
Carmel High School,other,12.9885908,77.5442935,0,True
Pristline Hospital,other,12.9978931,77.5436127,0,True
Unknown,convenience,12.9972514,77.541656,0,True
Unknown,parking,13.0097345,77.5515655,0,True
More,supermarket,12.9409932,77.544655,1,True
Unknown,bank,12.9394898,77.5451718,1,True
Nilgiris Store,convenience,12.9410374,77.542039,1,True
Udupi Upahar,restaurant,12.9387161,77.5534116,1,True
Auden Public School,other,12.9381024,77.543378,1,True
Radhakrishna Pharmacy,pharmacy,12.9408942,77.5456204,1,True
Sri Balaji Medicals and General Stores,pharmacy,12.9403595,77.5458556,1,True
Big Bazaar,supermarket,12.9265852,77.5509047,1,True
Food World,supermarket,12.925511,77.5501686,1,True
Anna Kuteera,restaurant,12.9261046,77.5502503,1,True
Shanthi Sagar,restaurant,12.9237141,77.5534616,1,True
Auden School,other,12.9323436,77.5437984,1,True
IBP Petrol Station,fuel,12.9380085,77.5496081,1,True
Srinagar Bus Station,bus_station,12.9444378,77.5546637,1,True
Sri Vinayaka Poly Clinic,other,12.939058,77.5510802,1,True
Apollo Pharmacy,pharmacy,12.9332899,77.5427058,1,True
Pizza Hut,restaurant,12.9972009,77.540616,0,True
Bank of India,bank,12.9899522,77.5378467,0,True
Axis Bank,bank,12.9958306,77.5401339,0,True
Vikas Medicals,pharmacy,12.9672449,77.5427653,0,True
MedPlus,pharmacy,12.9670358,77.5428833,0,True
SLV Fast Food,fast_food,12.9672919,77.5426111,0,True
Durga Chats,fast_food,12.9724264,77.5388651,0,True
Paratha Point,fast_food,12.9672031,77.541844,0,True
LJB Iyengar's Bakery,fast_food,12.9676187,77.541608,0,True
Nature Fresh,cafe,12.9673021,77.5421438,0,True
Mamatha Departmental Store,convenience,12.9673129,77.5417077,0,True
The New Cambridge High School,other,12.9655564,77.5417627,0,True
Soujanya Clinic,other,12.9681189,77.54325,0,True
CYCD,hotel,12.967339,77.5427777,0,True
Kanva Diagnostics Collection Centre,other,12.967291,77.5429164,0,True
Vodafone,convenience,12.9671974,77.5428831,0,True
Seetha General Store,convenience,12.9673076,77.5425508,0,True
Indian Oil,fuel,12.9916942,77.5457901,0,True
Unknown,bank,12.9685151,77.5371276,0,True
Total Superstore,supermarket,12.9827809,77.5592036,0,True
Unknown,parking,12.9327721,77.5031212,-1,False
Sri Mahadeshwara Filling Station,fuel,12.932367,77.5414216,1,True
Total gas,fuel,12.9865791,77.5403594,0,True
Canara Bank,bank,12.98568,77.5421189,0,True
Karnataka State Co-op Apex Bank,bank,12.9860568,77.5418754,0,True
Global Chess Academy India,other,12.962267,77.530001,0,True
KFC,fast_food,12.9256218,77.5502249,1,True
Dal Tadka,restaurant,12.9256318,77.5498709,1,True
Hotel Dream Land,restaurant,12.9267671,77.4973876,2,False
Udupi Upahar,fast_food,12.9250272,77.4986893,2,False
Mount Senora School,other,13.0055371,77.5254587,-1,False
"Vasan Eye Care Hospital, Nagarabhavi",other,12.9746134,77.5129757,-1,False
Bangalore Blaze Girls High School,other,12.9582352,77.517911,3,False
Vice Chancellor's Lodge,other,12.9377048,77.50855,-1,False
The Club,restaurant,12.9368003,77.5169615,4,False
KFC,fast_food,12.9360631,77.5177447,4,False
McDonald's,fast_food,12.9360526,77.5179485,4,False
Star Bazaar,supermarket,12.9358801,77.5176749,4,False
ICICI Bank,bank,12.9312478,77.5154648,4,False
Rc Hospital,other,12.930936,77.5153776,4,False
Trust,pharmacy,12.9309289,77.5154272,4,False
Veturi Child Health Centre,other,12.9263226,77.5156579,4,False
Bramhi Aahaara,fast_food,12.9217044,77.5204162,-1,False
Dragons,restaurant,12.9414203,77.553445,1,True
Bank of India,bank,12.9257438,77.5498097,1,True
State Bank of India,bank,12.9296755,77.5519983,1,True
St Theresa Pharmacy,pharmacy,13.0061311,77.5536439,0,True
Udhbhava Hospital,other,12.9256842,77.5489346,1,True
Cafe Coffee Day,cafe,12.9973265,77.5403657,0,True
New Shanti Sagar,restaurant,12.988545,77.5377868,0,True
New Sagar Fast Food,fast_food,13.0042469,77.550715,0,True
Canara Bank,bank,12.940921,77.5457658,1,True
HDFC Bank Girinagar,bank,12.9405681,77.5459187,1,True
State Bank of India,bank,12.9366883,77.5488033,1,True
Shanti Sagar Hotel,fast_food,12.9970293,77.5539717,0,True
Balaji Medical Store,pharmacy,13.0078494,77.5473216,0,True
Suprabha Hospital,other,13.0079383,77.5469059,0,True
Mahalakshmi Refreshments,cafe,13.0080794,77.5469863,0,True
Sri Dhanvantri Ayurved Bhandara,pharmacy,13.0082414,77.5468871,0,True
Sangolli Nursing Home,other,13.0083564,77.5469273,0,True
Reliance Fresh,supermarket,13.0085603,77.5433815,0,True
Corporation Bank,bank,13.0087092,77.5433895,0,True
Diacon Hospital,other,13.0037682,77.5498337,0,True
Cafe 363,cafe,13.0034363,77.5499517,0,True
Cake Palace,bakery,13.0042683,77.5512142,0,True
Nandhini,restaurant,12.9253564,77.5496136,1,True
Pizza Hut,restaurant,12.9251321,77.5507224,1,True
Gangasagar Chats,fast_food,12.9872341,77.549974,0,True
Unknown,cafe,12.9880757,77.5496789,0,True
Little Lilly's English School,other,13.0092391,77.5478152,0,True
Namratha Hospital,other,13.0047859,77.543073,0,True
Cane Crush,restaurant,13.0039772,77.5509235,0,True
Sri Vani Education Society,other,13.0037708,77.5547591,0,True
Cake of the day,bakery,12.9232307,77.5547094,1,True
Unknown,other,13.0004716,77.5346306,-1,False
Mane Thindi,fast_food,12.9233352,77.5545915,1,True
Chung wah,restaurant,12.9251478,77.5507385,1,True
Punya Hospital,other,13.0011459,77.5359798,0,True
Gautham College of Nursing,other,13.001119,77.5411129,0,True
Hamsa Sagar,restaurant,13.00091,77.5412684,0,True
Anupama English School,other,13.0000789,77.5409358,0,True
Swati Deluxe,restaurant,12.997825,77.5499844,0,True
Sri Rama Medicals and General Stores,pharmacy,12.9971233,77.5512976,0,True
Fortis Hospital,other,13.0022409,77.5490879,0,True
Gokul Vegetarian,restaurant,12.998275,77.550863,0,True
Health and Glow,supermarket,12.9963776,77.5514093,0,True
Citi Hospital,other,12.9956506,77.5510696,0,True
"Vasan Eye Care Hospital, Rajaji Nagar",other,12.9995223,77.5505328,0,True
Ananya Hospital,other,12.9998205,77.55045,0,True
Sree Nandini Palace Restaurant,restaurant,12.9872807,77.5494174,0,True
Canara Bank,bank,12.923688,77.5535473,1,True
Axis Bank,bank,12.9236725,77.5536141,1,True
Salon,convenience,12.923626,77.5538171,1,True
Iyangar Bakery,fast_food,12.9237619,77.5532989,1,True
Apollo Pharmacy,pharmacy,12.9240181,77.5533888,1,True
Spectacles store,convenience,12.9240077,77.5534639,1,True
State Bank of India,bank,12.978954,77.5493836,0,True
Titan Eye+,convenience,12.9235841,77.5539351,1,True
Goli Vada Pav,fast_food,12.9240913,77.553374,1,True
Chroma Mega Store,convenience,12.9241697,77.552991,1,True
Shivakrupa Hospital,other,12.973967,77.5479135,0,True
Vasavi Polytechnic College,other,12.9737683,77.5442442,0,True
Domino's,fast_food,12.9249818,77.5512039,1,True
Reebok Store,supermarket,12.9246981,77.5508112,1,True
Cafe Coffee Day,cafe,12.9258745,77.5501431,1,True
Beijing Bites,fast_food,12.925817,77.550127,1,True
Mast Kalandar,fast_food,12.9260889,77.5504555,1,True
ICICI Bank,bank,12.9706632,77.5368842,0,True
Shanti Sagar,restaurant,12.9734181,77.5419268,0,True
Indraprastha,restaurant,12.9716571,77.537278,0,True
City Union Bank,bank,12.9686453,77.5362586,0,True
Federal Bank,bank,12.9684833,77.5361547,0,True
RNS Vidyaniketan School,other,12.9619713,77.5327333,0,True
Bharat Petrol Pump,fuel,12.9599025,77.5328566,0,True
KVV High School,other,12.9646688,77.5330893,0,True
Indian Oil Petrol Pump,fuel,12.9397172,77.5238766,4,False
Shell,fuel,12.947907,77.5327064,-1,False
Axis Bank,bank,12.931206,77.5153867,4,False
Sathkar Juice Centre,fast_food,12.9245212,77.4981445,2,False
Ganga Sagar,fast_food,12.9672761,77.5422857,0,True
St. Johns High School,other,12.9655182,77.541311,0,True
Devi Medicals,pharmacy,12.9674654,77.5413752,0,True
MK Ahmed Super Market,supermarket,12.9607559,77.5070056,-1,False
Shoprite,supermarket,12.9606694,77.5122249,3,False
Belliah Milk Booth,convenience,12.9398383,77.5451133,1,True
MedPlus,pharmacy,12.9339016,77.5414815,1,True
Corporation Bank,bank,12.9371253,77.5585054,1,True
Nisarga Andhra Style,restaurant,12.9683294,77.5380482,0,True
Reliance Mart,supermarket,12.9659432,77.5347345,0,True
Gurushree Hitech Multispeciality Hospital,other,12.9593144,77.5265054,0,True
Deewar Bar & Restaurant,restaurant,12.9583342,77.5259368,0,True
Ron-Inn Bar & Restaurant,restaurant,12.9603129,77.513258,3,False
Nammura Tindi,fast_food,12.9606716,77.5125104,3,False
Petro / Gas  Station,fuel,12.9608906,77.5106429,-1,False
Petrol Station,fuel,12.9570377,77.5026901,-1,False
Ayodhya Food Line,fast_food,12.9760637,77.5315131,0,True
"Shobha Hospital, Bengaluru Urban",other,12.9755854,77.5313495,0,True
Allahabad Bank,bank,12.9727782,77.5296785,0,True
Vasudev Adigas,restaurant,12.9809408,77.5354587,0,True
"Gayathri Hospital, Bengaluru Urban",other,12.9744053,77.5426819,0,True
HP Petrol Bunk,fuel,12.9771222,77.5466032,0,True
Shell Petrol Bunk,fuel,12.9793805,77.5420846,0,True
Mysore Road Bus Station,bus_station,12.9534085,77.5435706,-1,False
Mahila Co-operative Bank,bank,12.9416816,77.5555618,1,True
Gnanabodhini English Pre-Primary School,other,12.9263122,77.4945152,2,False
MEDSOL Hospital,other,12.9309944,77.4929837,-1,False
Government Primary Health Centre,other,13.003447,77.504284,-1,False
Unknown,other,13.0034513,77.5042307,-1,False
Peenya 2nd Stage,bus_station,13.0108586,77.5069287,-1,False
Cake Palace,bakery,12.9402254,77.5535523,1,True
Kadamba Veg,restaurant,12.9976921,77.5475818,0,True
KFC,fast_food,12.9972835,77.5465706,0,True
Bank of Baroda,bank,12.9711631,77.5364993,0,True
Baker's Pride,bakery,12.9713043,77.5365288,0,True
Nisarga Andhra Style,restaurant,12.9886227,77.5378109,0,True
Domino's,fast_food,12.9612053,77.5271272,0,True
Cafe Coffee Day,cafe,12.9656038,77.5363115,0,True
Bharathy Hospital,other,12.9761294,77.5326369,0,True
Amarland Departmental,convenience,12.9729823,77.5294961,0,True
Jalpaan,restaurant,12.9989198,77.552547,0,True
Axis Bank,bank,12.9993994,77.5525068,0,True
"Vijaya Bank, Mudalapalya Branch",convenience,12.9686251,77.5244618,0,True
Karanth Vihar,bakery,12.9761262,77.5307639,0,True
Hopcoms Mangalore Store,convenience,12.9729139,77.5285404,0,True
Karnataka Bank,bank,12.9760451,77.5311984,0,True
Shopper City,supermarket,12.9762502,77.5320438,0,True
State Bank of India,bank,12.9746886,77.5310295,0,True
Akshata Nati Style,restaurant,12.972957,77.5397309,0,True
Park View Bar & Restaurant,restaurant,12.9729139,77.5395347,0,True
Axis Bank,bank,12.96777,77.536697,0,True
M K Ahmed Super Shoppy,supermarket,12.972595,77.5395133,0,True
Amaravati Andhra Style,restaurant,12.9808177,77.535785,0,True
Shobha Hospital Medical Store,pharmacy,12.9754858,77.531294,0,True
MedPlus,pharmacy,12.9729792,77.5290087,0,True
Canara Juice Center,fast_food,12.9749261,77.5308639,0,True
McDonald's,fast_food,12.9686831,77.5369098,0,True
Bunt's Sangha Car Parking,parking,12.9613203,77.5329636,0,True
Just Bake,bakery,12.9729863,77.5398479,0,True
Just Bake,bakery,12.9605279,77.5302714,0,True
Hotel Manjushree,restaurant,12.9590436,77.5248426,0,True
Cafe Coffe Day,cafe,12.9734094,77.5417665,0,True
LIC of India,bank,12.9738477,77.5440708,0,True
1947,restaurant,12.9829855,77.5486383,0,True
HDFC Bank,bank,12.9254619,77.5499726,1,True
Al-Bek chiken,fast_food,12.9779674,77.5530323,0,True
Unknown,fast_food,12.965712,77.5363,0,True
East West Institue of Technology,other,12.9759458,77.4832366,-1,False
Nilgiris,supermarket,13.007947,77.5428561,0,True
HP Petrol,fuel,13.0103477,77.5367403,-1,False
Union Bank of India,bank,12.9342211,77.5345124,1,True
PES Food Court,restaurant,12.9336327,77.5343127,1,True
Cafe Coffe Day Express,cafe,12.9335839,77.5344798,1,True
Toscano,restaurant,13.011218,77.5554078,0,True
Mainland China,restaurant,13.0107099,77.5554114,0,True
KFC,fast_food,13.0109319,77.555398,0,True
Cafe Coffee Day,cafe,12.9286056,77.5453234,1,True
Swathi Restaurant,restaurant,12.9608966,77.5075094,-1,False
"Panacea Hospital, Nagarabhavi",other,12.9613237,77.511726,-1,False
Jnana Deepthi English Primary and High School,other,12.9438068,77.542,1,True
BSVP School,other,12.9731634,77.5410962,0,True
Davanagere Benne Dose,restaurant,12.991114,77.5407958,0,True
Rekha Residency,hotel,12.988584,77.5474906,0,True
Shivas,hotel,12.9857195,77.5520611,0,True
BP petrol pump,fuel,12.9851341,77.5433278,0,True
Suvali,hotel,12.9881972,77.5494003,0,True
Cafe Coffee Day,hotel,12.9959438,77.5548935,0,True
HP,fuel,12.9916432,77.5578265,0,True
Mallika Residency,hotel,12.9917517,77.5576615,0,True
Indian Oil,fuel,12.9810568,77.5583911,0,True
St Ann's School,other,12.9800113,77.5566101,0,True
St Mira's School,other,12.9776695,77.5553656,0,True
Shanbhag Hospital,other,12.9856882,77.5435424,0,True
Kashyap Lodge,hotel,12.987225,77.5397658,0,True
Trupti Nursing Home,other,12.9946566,77.5397544,0,True
IBP petrol pump,fuel,12.9855941,77.5252604,-1,False
Indo Petrol / Gas Station,fuel,12.9850923,77.5232649,-1,False
Indian Oil,fuel,12.9862632,77.5222349,-1,False
Adyar Ananda Bhavan,restaurant,12.9843055,77.5537764,0,True
Just Bake,bakery,12.9836572,77.5487644,0,True
New Shanti Sagar,restaurant,12.9977544,77.5472561,0,True
Punjab National Bank,bank,12.9985489,77.5430189,0,True
Krupa Medical center,other,13.000431,77.5411664,0,True
Sea Route Restaurant,restaurant,12.9973524,77.5476248,0,True
Relience Fresh,supermarket,12.9381919,77.556125,1,True
Vinayaka Vidya Samsthe,other,12.9369041,77.5577545,1,True
Shree Vinayaka Juice & Chat Center,fast_food,12.9931607,77.5394749,0,True
Happy Tooth,other,12.9744193,77.5336479,0,True
Pinewood High School,other,12.9751013,77.5311252,0,True
Cordial High School,other,12.9754931,77.5324927,0,True
Rishi Women and Child Clinic,other,12.9745812,77.532699,0,True
Rishi Medicals,pharmacy,12.974626,77.5326702,0,True
Frank Ross Pharmacy,pharmacy,12.9709607,77.5370233,0,True
Saviruchi Fast Food,fast_food,12.9710286,77.536798,0,True
Royal's Coffe House,cafe,12.9709921,77.5368677,0,True
Penta Care Ayurvedic Hospital,other,12.9736894,77.5369482,0,True
Shalini Nursing & MAternity Home,other,12.9436624,77.5419997,1,True
Bunny Bakes,bakery,12.9604935,77.5294107,0,True
Goli Vada Paav,fast_food,12.9606776,77.5286519,0,True
Ammi's Biryani,restaurant,12.9607284,77.5284077,0,True
Karnataka Bank,bank,12.9606617,77.5271701,0,True
Polar Bear,cafe,12.9602967,77.5302803,0,True
Total Gas,fuel,12.9669405,77.5470005,0,True
Indian Oil,fuel,12.9673086,77.5461504,0,True
Ganesh Medicals & General Store,pharmacy,12.9634823,77.5523641,0,True
Patanjali Arogya Kendra,pharmacy,12.9737726,77.5360981,0,True
Kottkkal Arya Vaidya Shala,pharmacy,12.9738549,77.5359264,0,True
Benaka Sweets,bakery,12.9726552,77.5378281,0,True
Panchavati,restaurant,12.9728225,77.537934,0,True
Canara Bank,bank,12.9727546,77.5378992,0,True
Hotel Karavali,restaurant,12.9728818,77.5400131,0,True
Alemane Cane Juice,cafe,12.9728604,77.5392872,0,True
Gokul Veg,restaurant,12.9727493,77.5389814,0,True
Shreya Poly Clinic,other,12.9729127,77.5394723,0,True
Landmark,convenience,13.0101713,77.5549686,0,True
Fresh and ground,cafe,12.989651,77.5377152,0,True
Gold's Gym,gym,12.9923206,77.5384859,0,True
Omkar Refill Station,fuel,12.9702784,77.5246208,0,True
Shri Guru Upahara,fast_food,12.9704143,77.5249373,0,True
Hotel Savaji's,restaurant,12.9737304,77.543367,0,True
Tejas Ayurvedic Center,pharmacy,12.9727738,77.5371175,0,True
Arya Sweets & Bakers,bakery,12.9734168,77.541865,0,True
Beijing Bites,restaurant,12.9606895,77.5287669,0,True
Anurag Medical Center,other,12.9612829,77.5271683,0,True
Mohan Medicals,pharmacy,12.9609849,77.5269939,0,True
Behtar Super Market,supermarket,12.9682121,77.5303413,0,True
New Prashanth Hotel,restaurant,12.9985477,77.5510414,0,True
Crane Crush,cafe,12.9855811,77.5556847,0,True
State Bank of India,bank,12.9846268,77.5558117,0,True
Pragathi Ayurvedic Center,other,12.9843701,77.555666,0,True
State Bank of India,bank,12.9307552,77.5475178,1,True
Gandharva Sip & Dine;ICICI Bank,bank,12.9580924,77.5341659,0,True
State Bank of India,bank,12.9578735,77.5342317,0,True
By-two Coffee,cafe,12.9649244,77.5387391,0,True
Sharavathi Hospitals (P) Ltd.,other,12.9623406,77.5342853,0,True
Village Super Market,supermarket,12.961299,77.5265056,0,True
Akshaya Super Market,supermarket,12.9606854,77.5286993,0,True
Butter Sponge,bakery,12.9642991,77.5406633,0,True
Syndicate Bank,bank,12.9576285,77.5339363,0,True
MedPlus,pharmacy,12.9573395,77.5278877,0,True
Udaya School,other,12.9700741,77.5361839,0,True
Monish Corner,restaurant,12.9266584,77.5199911,4,False
Namdhari's Fresh,supermarket,12.9244128,77.5190496,4,False
Carmel School Ground,other,12.9242219,77.518945,4,False
"Vasan Eye Care Hospital, Rajarajeswari Nagar",other,12.931334,77.5154779,4,False
KKN coaching classes,other,12.9387638,77.5511668,1,True
O. G. Variar and Sons Bakery,bakery,12.9914598,77.5546233,0,True
State Bank of India,bank,12.926408,77.5158466,4,False
McDonald's,fast_food,13.0112401,77.5549137,0,True
Apollo Pharmacy,pharmacy,12.9976064,77.5512613,0,True
Axis Bank,bank,12.9852058,77.5564437,0,True
New Sagar Fast Food & Party Hall,restaurant,12.9899339,77.5526805,0,True
Apollo Pharmacy,pharmacy,13.0087585,77.5432729,0,True
State Bank of India,bank,12.9874289,77.5541838,0,True
Cafe Coffee Day,cafe,12.9898332,77.5561709,0,True
Standard Medicals,pharmacy,12.9896302,77.5560208,0,True
Sairam Medicals and General Stores,pharmacy,12.9891599,77.5559116,0,True
Syndicate Bank,bank,12.9890694,77.5558999,0,True
Sri Raghavendra Condiments,convenience,12.9893394,77.5559942,0,True
Sri Charan stores,convenience,12.9890644,77.5559708,0,True
Sri Manjunath Stores,convenience,12.9890052,77.5559614,0,True
Sri Prasamshi Medical Stores,pharmacy,12.9904639,77.5569256,0,True
Twillight Tandoor Resto,restaurant,12.9313955,77.5179594,4,False
University Cafeteria,cafe,12.9433024,77.5055822,-1,False
McDonald's,fast_food,12.9886459,77.5375264,0,True
Sri Krishna Nandagokula Veg,restaurant,12.9365363,77.5167879,4,False
Sweet Chariot,bakery,12.9739096,77.5358485,0,True
Sri Raghavendra Medicals,pharmacy,12.9742654,77.534553,0,True
Megha Medicals and General Stores,pharmacy,12.9739047,77.5305291,0,True
Chaitanya Uphara,fast_food,12.9745339,77.5309153,0,True
Iyengar Bakery,bakery,12.9727202,77.5294725,0,True
Saraswati Medicals,pharmacy,12.9724688,77.5295366,0,True
Star Bazar,supermarket,12.9760478,77.5319661,0,True
Five Star Chicken,fast_food,12.9760251,77.5330067,0,True
MedPlus,pharmacy,12.9759953,77.5332486,0,True
By Two Coffe,fast_food,12.9757481,77.5373265,0,True
Hot Coffe,fast_food,12.9737917,77.5433178,0,True
Apollo,pharmacy,12.964602,77.5306989,0,True
Domino's,fast_food,12.991837,77.5376289,0,True
Sri Krishna Sagar,restaurant,12.9852789,77.5434809,0,True
Canara Bank,bank,12.9919453,77.5372687,0,True
Central Bank of India,bank,12.9916895,77.5375425,0,True
Bansuri,fast_food,12.9866737,77.5408083,0,True
Gundappa Bakery,bakery,12.9878328,77.5376138,0,True
Mahadeshwara Chats,fast_food,12.9884235,77.5352159,0,True
Priyadarshini Grand,restaurant,12.9902817,77.5378602,0,True
Bangalore Medical,pharmacy,12.9640156,77.5510964,0,True
Khawja Hotel,restaurant,12.9625119,77.5486586,0,True
Shell,fuel,12.9569629,77.5491868,0,True
star hospital ,pharmacy,12.9641843,77.5502624,0,True
ICICI Bank,bank,12.9580745,77.5341292,0,True
Kashif Medical,pharmacy,12.9633542,77.5487215,0,True
Bharat Petroleum,fuel,12.9602862,77.5570381,0,True
Mysore Medical,pharmacy,12.9640984,77.5506116,0,True
Bakery,bakery,12.9635115,77.5519675,0,True
Old Gudahalli,bus_station,12.9609947,77.5508936,0,True
Bismillah Tea Hotel,cafe,12.9608368,77.5485824,0,True
Ayub Bakery,bakery,12.9640886,77.5503466,0,True
Manjunatha Bakery,bakery,12.9632664,77.5488141,0,True
Unity Hospital,pharmacy,12.9626651,77.5482596,0,True
Unknown,pharmacy,12.9618971,77.552098,0,True
Unknown,cafe,12.962222,77.5505208,0,True
Bismillah Tea Hotel,cafe,12.9615054,77.5504015,0,True
Shifa Medical,pharmacy,12.9642578,77.5489199,0,True
Unknown,pharmacy,12.9621356,77.5493894,0,True
Khalil Tea Hotel,cafe,12.9641082,77.5504793,0,True
Bombay tea hotel,cafe,12.9632318,77.5500256,0,True
Global Medical,pharmacy,12.9634155,77.5520086,0,True
Ayenger Bakery,bakery,12.9608471,77.5490504,0,True
Bismillah Tea Hotel,cafe,12.9661241,77.5521383,0,True
Unknown,pharmacy,12.9608525,77.5490077,0,True
Bismillah Tea Hotel,cafe,12.9638664,77.5510308,0,True
Hot Soup & Bowl,restaurant,12.9576049,77.5247105,0,True
Unknown,other,12.9767055,77.5424167,0,True
Mamta Provision store,convenience,12.9868514,77.5327927,0,True
Campus Mart,convenience,12.9357187,77.5345513,1,True
Nescafe,cafe,12.9355646,77.5345308,1,True
PES South Indian Mess,hotel,12.9333545,77.5350149,1,True
Shri Rama Hotel,hotel,13.0109804,77.5068574,-1,False
Nandini Milk Parlor,bakery,13.0110655,77.5067316,-1,False
Home,hotel,13.0004913,77.5417024,0,True
Dr Raos Maternity Hospital,other,12.9850421,77.5460481,0,True
Unknown,pharmacy,12.9567335,77.5513304,0,True
Reliance Fresh,supermarket,12.9973946,77.5485023,0,True
Appu's Kitchen,fast_food,12.9989255,77.5489709,0,True
Sarayu Fine Dine,restaurant,12.9992855,77.5495195,0,True
Snap Fitness,gym,12.9992349,77.5495341,0,True
New Akshaya Mini Bazaar,supermarket,13.0016723,77.5506179,0,True
Domino's,fast_food,13.0038504,77.5534613,0,True
Simply Organics,supermarket,12.9939186,77.5513274,0,True
Universal Pharma,pharmacy,12.9988718,77.5498125,0,True
Sudarshan Medicals,pharmacy,12.9898833,77.5374156,0,True
Shiva Kumaraswamy Building,other,12.9717049,77.5493718,0,True
Dr. Suresh's Dia Care,pharmacy,12.9898377,77.5550568,0,True
Health Shopee by Manjushree Medicals,pharmacy,12.9988814,77.5552883,0,True
Nandhi Medical And General Stores,pharmacy,12.9882463,77.5584271,0,True
Cave n Dine,restaurant,12.9862573,77.5403259,0,True
Nisarga restaurant,restaurant,12.9682261,77.5375793,0,True
Sandwich Guru,restaurant,12.9604112,77.529879,0,True
Vishwas Medicals,pharmacy,12.931055,77.5418888,1,True
Mantra Multicuisine Restaurant,restaurant,12.9235989,77.5550354,1,True
Hotel New Karavali,restaurant,12.9402569,77.5533988,1,True
Employees State Insurance Dispensary,other,12.966771,77.5349228,0,True
The Biryani Cafe,restaurant,12.9431647,77.5415743,1,True
Chicken Hunt,restaurant,12.9268231,77.548292,1,True
Karavali Lunch Home,restaurant,12.9306311,77.5535559,1,True
East West Academy,other,12.9834865,77.5515572,0,True
Sri Vani Education Centre,other,12.9881757,77.5413711,0,True
Aramane Hotel,restaurant,13.0044548,77.5493716,0,True
Navarang Kabab Corner,restaurant,12.9908258,77.5578843,0,True
Kolkata Biryani And Rolls,restaurant,12.9845159,77.5478044,0,True
White Horse,restaurant,13.0078812,77.5569436,0,True
Hotel Fish Palace,restaurant,13.0081283,77.5545993,0,True
Dwinks Gastropub,restaurant,12.999247,77.5495939,0,True
Kudla beach,restaurant,12.9903931,77.5584441,0,True
Bengaluru Coffee House,restaurant,12.9349664,77.5469781,1,True
Mayura andra style restaurant,restaurant,12.9758048,77.5526524,0,True
Cave N Dine,restaurant,12.9864094,77.5405663,0,True
Mandara Bar and Restaurant,restaurant,12.9278495,77.5462411,1,True
Sagar Caterers and Hotel,restaurant,12.9967355,77.5543173,0,True
Shree Nandana Palace,restaurant,12.9891546,77.5500014,0,True
Swathi Green Land,restaurant,12.9780294,77.5426878,0,True
Ayodhya Upachar,restaurant,12.9285834,77.5457702,1,True
Park View,restaurant,12.9728679,77.5391454,0,True
Sai Prasadam,restaurant,12.9643262,77.5404059,0,True
Koli Mane,restaurant,12.9606425,77.5300492,0,True
Janahaar,restaurant,12.9279866,77.5519145,1,True
Classic inn veg and non veg,restaurant,12.9698886,77.5327543,0,True
New Sri Banashankari Donne Biriyani Corner,restaurant,12.9416198,77.5573584,1,True
Sagar Restaurant,restaurant,12.9731233,77.5403966,0,True
Coffee Bytes,restaurant,12.9415734,77.5578002,1,True
Pizza Hut,restaurant,12.9677845,77.535901,0,True
Big Bite,fast_food,12.9673836,77.5357039,0,True
Coastal heritage,restaurant,12.9673983,77.5239973,0,True
Rotti Mane,restaurant,12.969586,77.5346634,0,True
The square plate,restaurant,12.9787404,77.5405545,0,True
Donne biryani house,restaurant,12.9528642,77.5289366,0,True
Spoorthy dosa point,restaurant,12.9757428,77.5335935,0,True
KFC,fast_food,12.961017,77.5281275,0,True
Fortis Hospital,other,12.9881648,77.5548179,0,True
Nandhi Medicals,pharmacy,12.9883267,77.5549712,0,True
Sri Venkateshwara Medical & General Store,pharmacy,12.9898567,77.5542305,0,True
Amrutha Medicals,pharmacy,12.9862636,77.5575477,0,True
Sri Lakshmi Venkateshwara Medicals,pharmacy,12.9886463,77.4880192,-1,False
""" NRS Medical & Dental Specialists Centre""",other,12.9378359,77.5573329,1,True
Chiranjeevi Hospital & Maternity Home,other,12.9386994,77.5518394,1,True
"Vinayaka Hospital, Hanumantha Nagar",other,12.9373748,77.5494778,1,True
Sri Ganesh Pharma,pharmacy,12.9559132,77.5561779,0,True
Diavista Diabetes & Multispeciality Hospital,other,12.9354293,77.5477956,1,True
Meenakshi Hospital,other,12.9420715,77.553698,1,True
Kusuma Hospital,other,12.9420124,77.5506918,1,True
Bharath Medicals,pharmacy,13.0082692,77.5441674,0,True
Ring Road Hospital,other,12.9274553,77.5516293,1,True
Pulse Multispecialty Hospital,other,12.9389007,77.5438808,1,True
Surya Galaxy Hospital,other,12.9316792,77.5450887,1,True
Apollo Pharmacy,pharmacy,12.9383175,77.5549076,1,True
Dr. Suresh's Dia Care,pharmacy,12.9853927,77.5383552,0,True
Matru Sagar,restaurant,12.94167,77.5564774,1,True
Unknown,pharmacy,12.9857599,77.5386584,0,True
Amrutha Medicals,pharmacy,12.9851133,77.5390188,0,True
Sridhar Medicals,pharmacy,12.9877039,77.5530939,0,True
Health Shopee by Manjushree Medicals,pharmacy,12.9985585,77.5476618,0,True
Halli Dhaba,restaurant,12.9334596,77.5463009,1,True
Sri Swaraj Medicals,pharmacy,12.9385698,77.5531314,1,True
Rao's Biryani Center,restaurant,12.9447368,77.5537072,1,True
Venkateshwara Medicals,pharmacy,13.0053426,77.5542101,0,True
Nandhi Medicals,pharmacy,12.9887964,77.5555474,0,True
Pristine Hospital,other,12.9984229,77.5403887,0,True
Sunrise Diagnostic Laboratory,pharmacy,12.9302815,77.5467741,1,True
Sri Vinayaka Hospital,other,12.9575029,77.5276466,0,True
Shathayu Ayurveda Wellness Centre,other,12.9573897,77.5276882,0,True
Pathocon Diagnostics,pharmacy,13.0064642,77.5488867,0,True
Hospital Sharavathi,other,12.9594984,77.5275515,0,True
Arogya Kendra,other,12.9735891,77.5443283,0,True
The Family Doctor Malleswaram,other,13.0029689,77.5526666,0,True
Venkat Charmalaya,other,12.9644231,77.5333324,0,True
V Care Medical Systems P Ltd,other,12.9787049,77.5403581,0,True
Manasa Hospital,other,12.968821,77.5246297,0,True
Hotel Nalapaka,restaurant,12.9985137,77.5523235,0,True
Saikrupa Hospital For Women's and Surgical Centre,other,12.9691657,77.5351921,0,True
Vijaynagar Orthopedic Center,pharmacy,12.9757744,77.5421307,0,True
Anand Diagnostic Laboratory,pharmacy,12.9744268,77.5377158,0,True
Cutis Academy of Cutaneous Sciences,other,12.9768117,77.5449094,0,True
Shreya Hearing Clinic,other,12.9621516,77.533401,0,True
Kairali,restaurant,12.9266045,77.5459463,1,True
Prasad Nethralaya,other,12.9603312,77.5300796,0,True
Health Heal Physio,pharmacy,12.9675638,77.539088,0,True
Vijayanagar Global Hospital,other,12.9717905,77.5372864,0,True
Blossom Infertility Center,other,12.9649703,77.5389842,0,True
Khema Medical Corporation,pharmacy,12.9699062,77.5331512,0,True
Padmashree Nursing Home and Maternity Home,other,12.958321,77.5350434,0,True
Mukesh Medical,pharmacy,12.9715348,77.5439059,0,True
Sri Ganesh Gandhi Medicals,pharmacy,12.973491,77.5374834,0,True
Arvind Homoeo Medicals,pharmacy,12.9703808,77.5375679,0,True
Unknown,other,12.9639998,77.5302683,0,True
Careongo Pharmacy Teachers Colony,pharmacy,12.9705987,77.5153346,-1,False
Hotel Aditya,restaurant,13.003897,77.5435549,0,True
Dhanush Hospital,other,12.9706209,77.5151893,-1,False
"S K Hospital, Bengaluru Urban",other,12.957572,77.5184436,3,False
Shree Nandini Palace,restaurant,12.9898003,77.5500343,0,True
Ambika Veg Restaurant,restaurant,12.9878305,77.5558493,0,True
Modern Family Doctor Pvt Ltd,other,12.9698405,77.5327211,0,True
Ritecure Pharmacy,pharmacy,12.9608763,77.5306651,0,True
Traffic Police Station,other,12.9816064,77.5346671,0,True
Traffic Police Station Kamakshipalya,other,12.9879713,77.5402233,0,True
Bank of Baroda,bank,12.998169,77.5496373,0,True
Sai Tiffin Centre,fast_food,12.9895041,77.54581,0,True
Axis Bank,bank,12.993015,77.5459803,0,True
Indian High School,other,12.9938105,77.5458656,0,True
Onesta,restaurant,12.9977967,77.5474478,0,True
Chung's Chinese Corner,restaurant,12.9973118,77.5469972,0,True
Tamara Hospital & IVF Centre,other,13.0044499,77.5530755,0,True
Bangalore Fine Chemicals,pharmacy,12.9243833,77.4867217,2,False
Yemkay Supermarket,supermarket,12.9417055,77.5560577,1,True
Sweet Chariot,supermarket,12.984947,77.5540532,0,True
Talwalkars,gym,12.9925827,77.5372971,0,True
Yemkay Supermarket,supermarket,12.9883892,77.5367931,0,True
Body Image Fitness Center,gym,12.9401558,77.5478441,1,True
Ambika Provision Store,supermarket,12.9881358,77.4733815,5,False
R R Provision Store,supermarket,12.9841382,77.5289161,-1,False
ChanRe Rheumatology and Immunology Center and Research,other,12.995573,77.5354215,0,True
Prajawal Nursing school,other,12.9853579,77.4791733,5,False
Royal Mart,supermarket,12.985304,77.4798633,5,False
Shell gas station,fuel,12.9856793,77.480059,5,False
Sanidhi,restaurant,12.9852813,77.4800802,5,False
Reliance Fresh,supermarket,12.9736279,77.5446202,0,True
Total Gas Station,fuel,12.9740504,77.5500149,0,True
ICICI Bank,bank,12.9777454,77.5451705,0,True
HP petrol pump,fuel,12.9858493,77.4792481,5,False
Petronas CNG Gas station,fuel,12.98575,77.4797543,5,False
State Bank of India,bank,12.982076,77.5313241,-1,False
Anupama Hospital,other,12.9838763,77.4788534,5,False
Utsav Veg,restaurant,12.9740785,77.5498168,0,True
Corporation Bank,bank,12.9858942,77.4879367,-1,False
Karnataka Bank,bank,12.9824941,77.4788347,5,False
Majushree veg,restaurant,12.9833026,77.4788057,5,False
Manjushree Bakery,bakery,12.9832122,77.478807,5,False
State Bank of India,bank,12.9834972,77.4860976,-1,False
IDBI Bank,bank,12.9811444,77.5350546,0,True
Axis Bank,bank,12.9780452,77.5443195,0,True
South Ruchi veg,restaurant,12.97755,77.5455277,0,True
Federal Bank,bank,12.9617879,77.4727085,-1,False
Priya Tiffin Room,cafe,12.9889585,77.555959,0,True
"Manasa Hospital, Vijayanagar",other,12.9709463,77.5451059,0,True
Panjab National Bank,bank,12.9641822,77.5424512,0,True
MedPlus,pharmacy,12.9702038,77.5462546,0,True
M K Retail,supermarket,12.9727428,77.5391705,0,True
Vijayalakshmi Provision Store,convenience,12.9569897,77.5325677,0,True
Doddmane hotel,restaurant,12.9859012,77.4776562,5,False
Government school,other,12.984899,77.4812378,5,False
Unique Medicals,pharmacy,12.9570571,77.5323251,0,True
Adyar Ananda Bhavan,restaurant,12.9537484,77.543639,-1,False
Rosewood International Hotel,hotel,12.9529166,77.5450511,-1,False
Sankethi's,hotel,12.9316906,77.5555034,1,True
Rolls Kitchen,fast_food,12.9974969,77.5501201,0,True
Empire Plaza,restaurant,12.9978602,77.5519674,0,True
Nisarga Family Resturant,restaurant,12.9984348,77.5530658,0,True
Burger King,fast_food,12.9973268,77.5478423,0,True
Janatha Co-Operative Bank,bank,12.9981587,77.5465007,0,True
Udupi Veg,fast_food,13.0017936,77.5488666,0,True
Goli Vada Pav,fast_food,13.0022575,77.5521631,0,True
Cauvery Orthopaedic Centre,other,12.9984887,77.5504219,0,True
SS Pharma & Surgicals,pharmacy,13.0017154,77.5507797,0,True
Punjab National Bank,bank,13.0017261,77.5508671,0,True
Unknown,fast_food,13.0023588,77.5528147,0,True
Hotel Vande Matharam,hotel,13.0105439,77.5504232,0,True
Kumon Education Center,other,13.0042862,77.5488857,0,True
North Karnataka Joladda Roti,fast_food,12.9299855,77.5411817,1,True
MedPlus,pharmacy,12.9298098,77.5400027,1,True
"Nethradhama Superspeciality Eye Hospital, Rajajinagar",other,12.997613,77.5509423,0,True
Modicare DP Vijayanagar,convenience,12.9647338,77.5313573,0,True
Bramhashree Condiments,cafe,12.9708787,77.5435028,0,True
Canara Coffee,hotel,12.984291,77.5543158,0,True
ಶ್ರೀ ಕೃಷ್ಣ ಪಿ ಯು ಕಾಲೇಜು,other,12.9314007,77.5577461,-1,False
Papa John's,fast_food,12.9714983,77.5372344,0,True
Adyar Ananda Bhavan,restaurant,12.9293898,77.5519618,1,True
Big Bazaar,convenience,12.9735918,77.5515142,0,True
Domino's,fast_food,12.9735982,77.5518495,0,True
Burger King,fast_food,12.9734683,77.5516804,0,True
Unknown,bakery,12.9525754,77.4841046,-1,False
Metro Medical Center,pharmacy,13.0074875,77.5485022,0,True
State Bank of India,bank,12.9974264,77.5485995,0,True
Manjunath Gobi Corner,fast_food,12.9983605,77.5491093,0,True
Indira Canteen,restaurant,12.9860915,77.4776166,5,False
United Bank of India,bank,12.9982067,77.5499224,0,True
Annappa's Naati Mane Hassan Style,restaurant,12.9981249,77.5532794,0,True
Sri Eshwar Fruit Juice Center,fast_food,12.9981288,77.5579299,0,True
Unknown,bakery,12.9257694,77.5211371,4,False
royal andaaz,restaurant,12.9220858,77.4953504,2,False
Nandini Grand,fast_food,12.997704,77.5494434,0,True
Imperial Restaurant,restaurant,12.9536888,77.543512,-1,False
Biryani Day,restaurant,13.0081078,77.5549568,0,True
Just Bake,bakery,13.0039067,77.5500713,0,True
Canara Bank,bank,12.9368059,77.517737,4,False
Vaishali,restaurant,12.9235363,77.5530586,1,True
Essar,fuel,12.9859674,77.4779948,5,False
Indira Canteen,fast_food,12.9665385,77.544607,0,True
Kasturi Pharma and General Stores,pharmacy,12.9899364,77.5528432,0,True
Altius Hospital,other,12.9849537,77.5569222,0,True
Metro Cash and Carry,supermarket,12.9263972,77.502667,2,False
Lassi Corner,fast_food,12.9249452,77.4986325,2,False
HDFC Bank,bank,13.0047475,77.5487571,0,True
Santhosh Bar & Restaurant,restaurant,12.997507,77.5500266,0,True
Hotel Nalapaka,restaurant,12.9979227,77.5522341,0,True
Al Ambur Dum Biryani,fast_food,12.9983619,77.5528438,0,True
Gopal's Pure Veg and Sweets,fast_food,12.9983443,77.5530904,0,True
Sree Ganesh Fruit Juice Center,fast_food,12.9974492,77.5488565,0,True
State Bank of India,bank,12.97459,77.5447121,0,True
Kinto School,other,12.9629891,77.551268,0,True
Kinto High School,other,12.9610936,77.5468666,0,True
Jawahar School,other,12.9634851,77.5529474,0,True
Government Hospital,other,12.966103,77.5549647,0,True
HDFC Securities,bank,12.996966,77.5523974,0,True
Minla Hotel,hotel,13.0108921,77.5505079,0,True
Indira Canteen,fast_food,12.9978121,77.5505122,0,True
Big Mishra Pedha,fast_food,13.0021777,77.5528331,0,True
Bengaluru Coffee House,restaurant,12.9309162,77.5473845,1,True
Karnataka State Co-Operative Apex Bank Ltd,bank,12.9306773,77.5474666,1,True
MedPlus,pharmacy,12.9306492,77.547441,1,True
Davanagere Bajji Centre,restaurant,12.9306982,77.5474396,1,True
Saphalya Credit Co-op. Society,bank,12.9407678,77.542786,1,True
Sameepa Iyengar's Bakery,bakery,12.9395543,77.5427951,1,True
Charan Stores,convenience,12.9397235,77.5424829,1,True
Amrutha Bakery,bakery,12.9397313,77.5425822,1,True
HDFC Bank,bank,12.9358925,77.5477749,1,True
MediBase,other,12.9366134,77.5483683,1,True
KKN coaching classes,other,12.9369584,77.5486218,1,True
Just Bake,bakery,12.9374505,77.5491321,1,True
Aahar Utsav,restaurant,12.9373192,77.549336,1,True
KBS Family Mart,supermarket,12.9376675,77.5492313,1,True
Havyaka Mess,restaurant,12.9377041,77.5492421,1,True
Oven Fresh,bakery,12.9377198,77.5493212,1,True
Cake Bites,bakery,12.9388615,77.5486191,1,True
Raghavas Fitness,gym,12.9388844,77.5486641,1,True
Unknown,convenience,12.9393634,77.5501453,1,True
coffee bite,cafe,12.9386661,77.549057,1,True
Seetha Medicals,pharmacy,12.9391798,77.551355,1,True
New Sagar Fast Food,restaurant,12.9389282,77.5515602,1,True
Versatile Fitness,gym,12.939166,77.5520041,1,True
Bunt's Biriyani Palace,restaurant,12.9389157,77.5518525,1,True
Jaganni Medicals and General Stores,pharmacy,12.9386733,77.5526257,1,True
Sri Sharada Enterprises,convenience,12.9385824,77.5529046,1,True
Pushpa Fancy and Bangle Stores,convenience,12.9386125,77.5528785,1,True
Meenatshi,convenience,12.9385903,77.5530441,1,True
Sri Mahalakshmi Ghee Center,convenience,12.938587,77.5530642,1,True
Suraksha Medicals,pharmacy,12.9387648,77.5530495,1,True
Dhanalakshmi Departmental Stores,supermarket,12.938804,77.5529925,1,True
MedPlus,pharmacy,12.9388177,77.5528852,1,True
J.K. Traders,supermarket,12.9388491,77.5527685,1,True
L.J. Iyengar's Bakery,bakery,12.9388733,77.5526901,1,True
Unknown,pharmacy,12.9389135,77.5525787,1,True
Manoor Maiya's South Kitchen,restaurant,12.9386805,77.5523454,1,True
Venkateswara Chats,restaurant,12.9387811,77.5521845,1,True
Brahmin Cafe,restaurant,12.9387151,77.5520336,1,True
Adarsh Medical Center,pharmacy,12.9386903,77.5518841,1,True
Ganesh Traders,convenience,12.9361997,77.5510016,1,True
Unknown,restaurant,12.9622239,77.5332587,0,True
Hindustan Petroleum,fuel,12.9609545,77.5284088,0,True
Janana Deepthi School,other,12.940807,77.5416769,1,True
Vijayanagar Vaibhav,restaurant,12.9662347,77.5351942,0,True
Brahmin's cafe,restaurant,12.9608314,77.528917,0,True
Devi Upahar,restaurant,12.9597909,77.5269754,0,True
Benhur Pride,hotel,12.9599897,77.5565132,0,True
RR Coffee House,fast_food,12.9302122,77.5150097,4,False
Stone House Cafe,cafe,12.932306,77.5165647,4,False
Sri Banashankari Medicals,pharmacy,13.0021577,77.5526639,0,True
Apollo Pharmacy,pharmacy,12.9864932,77.5558162,0,True
Sri Venkateshwara Utsav,fast_food,12.9861567,77.5557927,0,True
Vajra Heritage,hotel,12.9878823,77.5558068,0,True
V. G. Provision Store,convenience,12.9877647,77.5558484,0,True
Canara Bank,bank,12.9877078,77.5558591,0,True
Himalaya Provision Store,convenience,12.9872184,77.555841,0,True
LJB Bakery,bakery,12.9871929,77.5558383,0,True
Just Bake,bakery,12.9896759,77.5559161,0,True
Unknown,supermarket,12.9887846,77.555898,0,True
NKGSB Bank,bank,12.9886337,77.5558993,0,True
Sri Sai Cake Palace,bakery,12.988128,77.5558463,0,True
Sree Prabhu Medical Centre,pharmacy,12.9880221,77.5558457,0,True
Mane Thindi,fast_food,12.9227174,77.5563021,1,True
Sadaran Bakers/Anushree Bakery/Sai Bake Palace,bakery,12.9291704,77.4861924,2,False
Kanti sweets,fast_food,12.9929612,77.5390735,0,True
Vathsalya Speciality Hospital,other,12.9939752,77.5391801,0,True
Allahabad Bank,bank,12.9918166,77.5375888,0,True
Pavithra Paradise,bakery,12.9880976,77.5376599,0,True
Mahalakshmi Sweet Center,bakery,12.995652,77.5397922,0,True
Apex Bank,bank,12.9738312,77.5444879,0,True
Baker's Pride,bakery,12.9737136,77.5444758,0,True
Canara Bank,bank,12.9736104,77.5444382,0,True
Madhu Hotel,fast_food,12.9735411,77.5443967,0,True
Janatha Upahara,fast_food,12.9713286,77.5438508,0,True
Iyengar's Bakery,bakery,12.9716605,77.5439313,0,True
Maruthi Hospital,other,12.9677607,77.5413282,0,True
MySpace Express Balaji Residency,hotel,12.997393,77.5500353,0,True
Hotel Park Inn,fast_food,12.9928703,77.550834,0,True
Sri Devi Lodge,hotel,12.9899117,77.5532573,0,True
Sri Durga Grand Veg,restaurant,12.9899111,77.5532211,0,True
Seetha Medicals & General Store,pharmacy,12.9899104,77.5531138,0,True
Axis Bank,bank,12.9899287,77.5528993,0,True
Hotel Kaveri,fast_food,12.9899349,77.5527977,0,True
Aryan Residency,hotel,12.9899326,77.5527397,0,True
Sogadu Heritage,fast_food,13.0000437,77.550093,0,True
Raata,restaurant,12.997555,77.5445911,0,True
Empire,restaurant,12.9977118,77.5467135,0,True
Brahmin's Thatte Idli,fast_food,12.9995622,77.5496994,0,True
Rice Corner,supermarket,12.9761861,77.5517728,0,True
Moulya Medicals,pharmacy,12.9883671,77.5356916,0,True
New Sagar Hotel,restaurant,12.9585898,77.5392625,0,True
condiments,fast_food,12.9615935,77.5403059,0,True
Unknown,restaurant,13.0002762,77.5500211,0,True
HDFC Bank,bank,12.9263673,77.5156313,4,False
Canteen NLSIU,restaurant,12.9552984,77.5171196,3,False
Vijayalakshmi Bakery,bakery,12.9719808,77.5468134,0,True
Sri Veerabadreshwara Juice Chats,fast_food,12.9720251,77.5468274,0,True
Food Corner,fast_food,12.9356072,77.5344944,1,True
PESU Sports Center,gym,12.9341922,77.5342788,1,True
Celestial Heights,hotel,12.9340481,77.5344673,1,True
Nala's Kitchen,fast_food,12.9873587,77.5495564,0,True
Surya Pharmaceuticals,pharmacy,12.9528,77.536684,0,True
Udupi Upachar,restaurant,12.9904646,77.5505346,0,True
The Eye Surgical Centre,other,12.9821954,77.5493143,0,True
Hatti Kaapi,cafe,13.0112702,77.5556794,0,True
Cookie Man,cafe,13.0110494,77.5549485,0,True
Bombay Brasserie,restaurant,13.0108052,77.5554043,0,True
ICICI Bank,bank,12.997802,77.5492702,0,True
Hotel Akshaya Non Veg,restaurant,12.9977484,77.5473746,0,True
Eastern Super Market,supermarket,12.9973525,77.5475825,0,True
Raje Donne Biryani Manne,fast_food,12.9973198,77.547093,0,True
Nayan Drugs and Opticals,pharmacy,13.0078107,77.5484819,0,True
Brahmin's Thatte Idli,fast_food,13.0074057,77.5485211,0,True
Udupi Cafe,fast_food,13.0071032,77.5484867,0,True
Ambur Hot Dum Biryani,fast_food,13.0072584,77.5485048,0,True
New Shanthi Sagar,restaurant,12.9860978,77.5543504,0,True
Prashanthi Ayurvedic Centre,pharmacy,12.9963828,77.5508957,0,True
Al-Taj Restaurant,restaurant,12.9899287,77.5529918,0,True
by 2 coffy,cafe,12.9869192,77.5562131,0,True
Homoeo Mart,pharmacy,12.9993177,77.5502049,0,True
Chef Baker's,bakery,12.9970563,77.5402485,0,True
Axis Bank,bank,13.0068889,77.5488656,0,True
Hotel Vande Matharam,restaurant,13.010724,77.5502667,0,True
Hassan Iyenger Bakery,restaurant,13.0039628,77.5507974,0,True
Just Cake,fast_food,13.0005435,77.4842781,-1,False
stories,restaurant,13.0080788,77.5489767,0,True
Rolls Rice Cafe,cafe,12.9251181,77.498842,2,False
cult.fit,gym,13.0084764,77.549127,0,True
Dr. Agrawal's Eye Hospital,other,12.9998982,77.5501121,0,True
Coffee House,cafe,12.9349174,77.5367638,1,True
Mysore Road Hi-Tech Pharma,pharmacy,12.9424879,77.5258827,4,False
Santhosh Gym,gym,12.9683462,77.5270066,0,True
Indira Canteen,fast_food,12.9678509,77.5285193,0,True
MedPlus,pharmacy,12.9680666,77.5301763,0,True
Addiction,restaurant,12.9586968,77.53347,0,True
Ashok Hospital,other,12.9948905,77.5347984,0,True
Abhay Hospital,other,12.9517481,77.4939886,6,False
"Shreyas Hospital, Bengaluru Urban",other,12.9829857,77.5309655,0,True
Vaidyam Hospital,other,12.9845512,77.5528322,0,True
Suresh Hospital - Bangalore,other,12.9897745,77.5551014,0,True
Shankara Nethralaya Eye Hospital,other,13.0089953,77.5406188,0,True
ChanRe Rheumatology and Immunology Center and Research,other,12.9992083,77.550269,0,True
Chandana Hospital,other,12.9579894,77.5114394,-1,False
Sri Kalabyraveshwara Swamy Ayurvedic Medical College hospital,other,12.9650437,77.5435022,0,True
"Anugraha Hospital, Vijayanagar",other,12.9765645,77.5455876,0,True
"Sunetra Eye Hospital, Bengaluru Urban",other,12.9404548,77.5578493,1,True
Netraspandana Healthcare and Research Pvt. Ltd,other,12.9291283,77.5461361,1,True
"Padmavathi Hospital, Bengaluru Urban",other,12.9817311,77.5333714,0,True
Panchamukhi Specialityu Hospital,other,12.9957177,77.5031644,-1,False
Sri Lakshmi Multi Speciality Hospital,other,12.9881868,77.5087273,-1,False
Ring Road Hospital,other,12.9278657,77.5519297,1,True
"Supriya Hospital, Bengaluru Urban",other,12.9929043,77.5588015,0,True
Essential Hospital,other,12.974865,77.5096312,-1,False
Sidvin Hospital Pvt Ltd,other,12.982442,77.5493681,0,True
Abhilash Hospital And Sara Rehabilitation Centre,other,12.9246384,77.5509238,1,True
Sg Hospital,other,12.9275311,77.5457901,1,True
"Shreya Hospital, Bengaluru Rural",other,12.9215104,77.4832503,-1,False
Sri Annapoorneshwari Hospital,other,12.9255704,77.4857756,2,False
"Abhaya Eye Hospital, Super Speciality Eye Care Centre",other,12.9271131,77.5471291,1,True
Namratha Nursing And Maternity Home,other,13.0045747,77.5432728,0,True
The Pulse Multi Speciality Hospital,other,12.9424801,77.5473283,1,True
Gavipuramguttahalli Maternity Home,other,12.9526505,77.5548633,-1,False
Spine Care And Ortho Care Hospital,other,12.9745134,77.5493883,0,True
Tanmay Hospital,other,12.9733764,77.5474034,0,True
Susheel Hospital,other,12.9645006,77.5427189,0,True
Dhanush Hospital,other,12.9654318,77.52312,0,True
Azad Nagar Maternity Home,other,12.9559644,77.5485635,0,True
Unity Lifline Hospital Pvt Ltd,other,12.9819768,77.5108275,-1,False
J.P.Nursing Home,other,13.0098352,77.5384723,-1,False
S.S.G. Hospital,other,12.9868695,77.4794832,5,False
Vijayanagar Hospital,other,12.9716291,77.5371969,0,True
A.M. Hospital,other,12.9601022,77.5315556,0,True
"Divya Drishti Eye Hospital, Vijayanagar",other,12.9586907,77.5352668,0,True
"Shridevi Hospital, Bengaluru Urban",other,12.9617045,77.5217172,0,True
Ashraya Medinova Pvt Ltd,other,12.988865,77.5078006,-1,False
Pristine Hospital,other,12.9980009,77.5432779,0,True
K.T.G. Hospital,other,13.0004769,77.5054027,-1,False
Jai Maruthi Hospital,other,13.0068811,77.5055636,-1,False
Aaroyha Mandir Hospital,other,13.0105038,77.5502452,0,True
"Punya Hospital, Bengaluru Urban",other,12.9862161,77.5374853,0,True
"Vijaya Hospital, Bengaluru Urban",other,12.9418827,77.48376,-1,False
Sandhyashree Hospital,other,12.9761802,77.5261763,0,True
Sri Ranga Arogyadhama,other,12.9986239,77.542782,0,True
Brinda Hospital,other,12.978053,77.5115959,-1,False
Sankalpa Hospital,other,12.95119,77.4918039,6,False
Deepashri Hospital,other,12.9705902,77.5108503,-1,False
Rotary Eye Hospital (A Unit Of Bangalore North Rotary Trust),other,12.9817233,77.5549364,0,True
Gurukripa Hospital and Health Care Centre,other,13.0001802,77.5461146,0,True
Sai Baba Hospital,other,13.0093599,77.5222108,-1,False
"Madhu Hospital, Bengaluru Urban",other,12.9783164,77.5429603,0,True
Eastwind (Delicious Biryani),restaurant,12.9366068,77.5176248,4,False
Go Gas,fuel,12.9364637,77.5159062,4,False
Wellness Forever,pharmacy,12.9882933,77.5561065,0,True
Sri Raghavendra Upaahar,restaurant,12.9681659,77.5292945,0,True
Gangotri,restaurant,12.9684181,77.5324474,0,True
Sri Vani Girls High School,other,13.004793,77.553319,0,True
Mangalore Kabab Korner,restaurant,12.9728026,77.5284941,0,True
Samudra,restaurant,12.9761897,77.5331156,0,True
Brahmi Ruchi,restaurant,12.9664596,77.5344276,0,True
Udupi Aruna Grand,restaurant,12.9665005,77.5343128,0,True
South spicy bites,restaurant,12.9662613,77.5350611,0,True
Yes Bank,bank,12.9668661,77.5354811,0,True
Gurushree Grand,fast_food,12.9441073,77.5265184,4,False
Sri Manikanta Medical,pharmacy,12.9434316,77.5260074,4,False
Karavali Grand,restaurant,12.9585512,77.5253725,0,True
New Shanthi Sagar,restaurant,12.9689194,77.5361437,0,True
Saanvi Delicacy,fast_food,12.9843239,77.5486091,0,True
Padmashree Diagnostics,other,12.9745983,77.5436792,0,True
Union Bank of India,bank,12.9730367,77.5382383,0,True
Cafe 916 & Bake,cafe,12.9976465,77.5523655,0,True
Canara Bank,bank,12.9955818,77.5538957,0,True
Karavali Fine Dine,restaurant,12.9921881,77.5546494,0,True
Spicy Secret,fast_food,12.988307,77.5558618,0,True
Harshitha Medical & General Store,pharmacy,12.9906161,77.5505832,0,True
Naidu Palace,hotel,12.98714,77.5494285,0,True
Pappu Chaiwalla,cafe,12.9682966,77.536114,0,True
Government Model Primary School,other,12.9577457,77.5338261,0,True
Srinidhi Bar & Restaurant,fast_food,12.9563826,77.5343102,0,True
Kiran Diagnostics,pharmacy,12.9527335,77.5367001,0,True
Unknown,parking,12.9470768,77.5313598,-1,False
Coffee Day Essentials,convenience,12.9986585,77.5508011,0,True
Coffee Day Essentials,convenience,12.9864945,77.5555319,0,True
Thindi Mane,fast_food,12.9562669,77.5343236,0,True
Punjab National Bank,bank,12.9486204,77.5348721,-1,False
More,supermarket,12.9647768,77.5305308,0,True
B M Valley School,other,12.9417677,77.5258988,4,False
Unknown,parking,12.9771415,77.5574429,0,True
Unknown,parking,12.9390151,77.5190243,4,False
Biryani Bhavan,restaurant,12.9246587,77.4983083,2,False
Domino's,fast_food,12.9245593,77.4981916,2,False
BBMP Parking,parking,13.0059362,77.5538511,0,True
RBL Bank,bank,13.0042121,77.5508621,0,True
Lassi Shop,fast_food,13.0039148,77.5501332,0,True
Laggere Government Hospital,other,13.009817,77.5231852,-1,False
Ullalu Government Hospital,other,12.9629127,77.4751834,-1,False
Moulya Medicals,pharmacy,12.9725821,77.5117195,-1,False
By2coffee,restaurant,12.9727456,77.511896,-1,False
Khushal Medicals,pharmacy,12.9759377,77.5314973,0,True
Sree Ranga Hospital,other,12.9358669,77.4927128,-1,False
Sree Gajendra Juice and Chaats Center,fast_food,12.9991338,77.5509354,0,True
Cake and Pastries,bakery,12.9987812,77.5507637,0,True
Athulya Departmental,supermarket,13.0075364,77.5485219,0,True
Sip n Hog,cafe,12.9250769,77.4987938,2,False
Biryani Katte,fast_food,12.9250534,77.4987596,2,False
Yashas Neurocare,other,12.9853993,77.5454024,0,True
Focus Diagnostic Center,other,12.9870634,77.549951,0,True
Malnad Aroma,fast_food,12.9872008,77.556077,0,True
Lassi Corner,fast_food,12.9893831,77.5561236,0,True
Stay Happi Pharmacy,pharmacy,12.9900398,77.5557384,0,True
New Oxford High School,other,12.9847669,77.5531782,0,True
Apollo Pharmacy,pharmacy,12.9850504,77.5532533,0,True
HDFC Bank,bank,12.9857287,77.5524808,0,True
Karur Vysya Bank,bank,12.9858058,77.5513798,0,True
Ashirwad Market,supermarket,12.9862606,77.5508527,0,True
Bank of Maharashtra,bank,12.9863873,77.5508474,0,True
H K Residency,hotel,12.9883253,77.5497463,0,True
Navya Residency,hotel,12.9902802,77.5504638,0,True
The Grand Coral,hotel,12.996571,77.5508266,0,True
Antarastriya,fast_food,12.9992734,77.5493702,0,True
Bank of India,bank,12.9987729,77.5522368,0,True
Rajbhog,restaurant,12.9989715,77.5521791,0,True
State Bank of India,bank,13.0000077,77.552163,0,True
Udupi Veg,fast_food,13.0002247,77.5519605,0,True
Unknown,convenience,12.9991492,77.5518914,0,True
Dosa Hut,fast_food,12.9248061,77.4984306,2,False
Union Bank of India,bank,12.9332662,77.5403188,1,True
Janatha Seva Cooperative Bank Limited,bank,12.9706278,77.5258392,0,True
Vittal Eye HOspital,other,12.931298,77.5412566,1,True
Canara Bank,bank,12.921534,77.4842736,2,False
Axis Bank,bank,12.9237561,77.4847363,2,False
Unknown,parking,12.9221378,77.4924543,2,False
Bodysculpt Gym,gym,13.0038587,77.5496592,0,True
Breads and Co.,bakery,13.0089548,77.5491321,0,True
Gobi Corner,fast_food,12.9840076,77.5581591,0,True
Mathrushree Residency,hotel,12.9899013,77.5533586,0,True
Condiments,cafe,13.0069827,77.5483088,0,True
Kamadhenu Hospital,other,12.975501,77.534972,0,True
Benaka Hospital,other,12.9835824,77.5289448,-1,False
"Goverment Hospital, Hosahalli",other,12.9744928,77.5342045,0,True
Vijaya Hospital,other,12.96767,77.5226459,0,True
Government Hospital,other,12.9780731,77.5251934,-1,False
Sriprasad Ayurveda,other,12.9734087,77.5462808,0,True
Vidya Eye Hospital,other,12.9707429,77.5377684,0,True
Shree Dhanvantari Ayurveda Hospital,other,12.9615606,77.5222312,0,True
Srinivasam Cancer Care Multi Speciality Hospital,other,12.961509,77.523151,0,True
G.R. Hospital,other,12.9802303,77.5548818,0,True
Sneha Horizon Hospital,other,12.9754301,77.5358001,0,True
Jagjeevanram Hospital,other,12.968292,77.524492,0,True
Kangroo Hospital,other,12.974339,77.542325,0,True
Abhinav Hospital,other,12.9757486,77.553782,0,True
Suhusannidhi Hospital,other,12.969102,77.534951,0,True
Abivrud Cancer Care & Research Centre,other,12.963967,77.4973049,-1,False
Panchsheela Nagar Hospital,other,12.9745497,77.5208943,-1,False
Sai Ortho and Dental Centre,other,12.9698191,77.5360801,0,True
Ammashrees Hospital,other,12.9794315,77.5441641,0,True
Government Hospital,other,12.9639829,77.5188899,-1,False
Revathi Hospital,other,12.9679971,77.5015759,-1,False
Shanthakumari Hospital,other,12.9637162,77.5188263,3,False
Bengaluru Child Neurology and Rehabilitaion Centre,other,12.9735574,77.5461246,0,True
Sumati Hospital,other,12.976379,77.524439,-1,False
Dr. Nothesh Child Specialist,other,12.975423,77.540659,0,True
Sastry Memorial Hospital,other,12.9698787,77.5332834,0,True
Vinayaka Hospital,other,12.93753,77.549675,1,True
People Tree Hospitals,other,12.942076,77.553598,1,True
Verna Hospital,other,12.940404,77.5580361,1,True
"Government Hospital, Banglore",other,12.9587464,77.5573456,0,True
Raghavendra Hospital,other,12.938787,77.554296,1,True
Apaara Multi Speciality,other,12.938453,77.551329,1,True
Drishti Nethralaya,other,12.9422541,77.5506328,1,True
Sudha Prevention Centre,other,12.9254569,77.5467101,1,True
"Orchids The International School, Mysore Road",other,12.9254097,77.4986469,2,False
"Orchids The International School, Nagarbhavi",other,12.9771352,77.5075287,-1,False
"Orchids The International School, VijayaNagar",other,12.970057,77.5358963,0,True
St. Jhons high school,other,12.9699359,77.5077552,-1,False
Unknown,bakery,12.9683121,77.5287383,0,True
Unknown,pharmacy,12.9678599,77.5303785,0,True
Ranganath Iyyangar Bakery,bakery,12.9683542,77.5335864,0,True
Vijaya Bank,bank,12.9900506,77.5561739,0,True
Axis Bank,bank,12.9828242,77.5107928,-1,False
Canara Bank,bank,13.0012148,77.5358056,0,True
Canara Bank,bank,13.0009029,77.5046255,-1,False
State Bank of India,bank,13.0000414,77.5330938,-1,False
Union Bank of India,bank,12.9985128,77.5531829,0,True
State Bank of India,bank,12.9977915,77.5437368,0,True
IDBI Bank,bank,12.9937009,77.5556279,0,True
Federal Bank,bank,12.9926008,77.5552992,0,True
Union Bank of India,bank,12.9916668,77.5549016,0,True
Andhra Bank,bank,12.9910228,77.5576941,0,True
Bank of Baroda,bank,12.9905494,77.5578922,0,True
Andhra Bank,bank,12.9807621,77.5585094,0,True
Canara Bank,bank,12.9801316,77.5106987,-1,False
Canara Bank,bank,12.9755713,77.4836808,-1,False
Allahabad Bank,bank,12.9737273,77.5098419,-1,False
Canara Bank,bank,12.9702025,77.5576176,-1,False
Andhra Bank,bank,12.967716,77.5054094,-1,False
State Bank of India,bank,12.9605743,77.5127492,3,False
ESI Hospital,other,13.004596,77.5540033,0,True
Atharva Ayurdhama Ayurvedic Hospital,other,13.004314,77.547749,0,True
Poornayu Ayurveda Hospital,other,12.998238,77.551173,0,True
ESIC Model Hospital,other,12.9916924,77.5539007,0,True
Government Hospital,other,12.9905045,77.5566355,0,True
Esi Hospital Bangalore,other,12.9904985,77.5530924,0,True
Government Hospital,other,12.9844963,77.5551801,0,True
Anupama Hospital,other,12.9831814,77.4787872,5,False
Annakuta Prasadam Restaurant,restaurant,13.0102358,77.5516049,0,True
Unknown,pharmacy,12.9990055,77.5251143,-1,False
Bharat Petroleum,fuel,12.9951873,77.5219448,-1,False
Indian Oil,fuel,12.9584933,77.5173345,3,False
SLV Grand,fast_food,12.9581431,77.5184168,3,False
Pizza Hut,restaurant,12.9584293,77.5192308,3,False
Baker's Bay,bakery,12.9575196,77.518622,3,False
Oyalo Pizza,fast_food,12.9571916,77.518563,3,False
Five Star Chicken,fast_food,12.9567538,77.5184812,3,False
Utsav Donne Biryani Mane,fast_food,12.9560558,77.5184074,3,False
Union Bank of India,bank,12.9557788,77.5182766,3,False
Mane Upahara,fast_food,12.9348259,77.5116992,4,False
Miami Day Bakery,bakery,12.9999437,77.5402124,0,True
Masala Mane,cafe,12.9551776,77.5282122,0,True
Unknown,pharmacy,12.9981123,77.5406402,0,True
Equitas Small Finance Bank,bank,12.9977281,77.5408233,0,True
Sandwich Station,fast_food,12.9976504,77.5404578,0,True
Goli Vada Pav,fast_food,12.9976327,77.5404827,0,True
People Pharmacy,pharmacy,12.9975844,77.5404666,0,True
Family Provision Store,convenience,12.9993269,77.5251746,-1,False
Oriyan Bakery,bakery,12.9570649,77.5324107,0,True
Prakriti Deluxe,fast_food,12.9883109,77.556248,0,True
Hasanamba Benne Dosa,fast_food,12.9974681,77.5491837,0,True
Rasayana coffee bar,cafe,12.9870447,77.5422372,0,True
Pradhanmantri Bharatiya Janaushadhi Kendra,pharmacy,12.9953858,77.5546266,0,True
Daily Needs Exim Pvt. Ltd.,convenience,12.9824636,77.5375074,0,True
Union Bank of India,bank,12.9820356,77.5373867,0,True
cult.fit,gym,12.987796,77.537777,0,True
Aum Zone,restaurant,12.9983064,77.5498825,0,True
Unknown,parking,12.9294702,77.4868321,2,False
Coco Cane,fast_food,13.0082858,77.5490932,0,True
Ageis auto gas/Emission testng,fuel,12.9383074,77.4926135,-1,False
Indira Canteen,fast_food,12.9984527,77.5576884,0,True
Burger Elite,fast_food,12.9989516,77.5497464,0,True
The Baker's Dozen,bakery,13.0024676,77.5503413,0,True
NS Varier Bakery,bakery,13.0026676,77.5503083,0,True
Aster Pharmacy,pharmacy,13.0023102,77.552568,0,True
Amma's Pastries,bakery,12.9986945,77.5420618,0,True
Kotak Mahindra Bank,bank,12.9985298,77.5422657,0,True
Crepito,restaurant,12.9974557,77.5448459,0,True
Jain Bakes,bakery,12.9876209,77.5554702,0,True
Thalassery Restaurant,fast_food,12.9349331,77.5119513,4,False
Canara Bank,bank,12.9958863,77.5228518,-1,False
HDFC Bank,bank,12.98113,77.5111923,-1,False
Domino's,fast_food,12.9805027,77.5107577,-1,False
State Bank of India,bank,12.9701824,77.5068243,-1,False
VSS International Public School,other,12.9431662,77.4946216,-1,False
Apollo Pharmacy,pharmacy,12.9230032,77.4844748,2,False
Sarasa Japanese Kitchen,restaurant,12.9235809,77.4847041,2,False
HOPCOMS,fast_food,12.9844193,77.5580075,0,True
Domino's,fast_food,12.9850753,77.5567442,0,True
Air Cafe,cafe,12.9529243,77.5162442,3,False
Nayara,fuel,12.9706594,77.5256373,0,True
Slice N Dice Cafe,cafe,13.0007264,77.5494271,0,True
ICICI Bank,bank,13.0071529,77.554585,0,True
HDFC Bank,bank,12.9997549,77.5525097,0,True
Uru Coffee,fast_food,13.0022573,77.5531226,0,True
Domino's,fast_food,12.9977582,77.5482101,0,True
Dindigul Thalapakatti,restaurant,12.9972198,77.5466269,0,True
Mangalore Lunch Home,fast_food,12.9982737,77.5464942,0,True
Tandoor Chai Point,cafe,12.9895171,77.5561675,0,True
Royal Cakes and Cookies,bakery,12.9844173,77.5574496,0,True
Malnad Cafe,fast_food,12.9893616,77.5561199,0,True
Kaappi Ready,cafe,12.9977366,77.5493745,0,True
Maitey Momos,fast_food,12.998899,77.5489765,0,True
My Dentist,other,12.9429852,77.5460604,1,True
Bhoomi Medicals,pharmacy,13.005053,77.5497289,0,True
Bala Vidya Mandir School,other,12.986139,77.5508943,0,True
Hotel Madhu,hotel,12.9836966,77.5493494,0,True
Raj Lakshmi Momos Corner,fast_food,12.9982887,77.5491294,0,True
Tealicious,cafe,13.0072927,77.5485065,0,True
Vaibhav Biryani,fast_food,12.9986069,77.5503404,0,True
Starbucks,cafe,13.0107148,77.5553119,0,True
Samosa Party,fast_food,13.0088908,77.5491321,0,True
Applebee's,restaurant,13.0108103,77.555314,0,True
Bharat Petroleum,fuel,12.9285826,77.5028976,2,False
Sri Reddy Pharma,pharmacy,13.0010747,77.5505476,0,True
Organic Bharat,supermarket,13.0027891,77.5502811,0,True
Connectivitea,cafe,13.0028208,77.5502777,0,True
Sri Krishna Vaibhava,fast_food,13.0029851,77.5500521,0,True
Hasan Iyengar's Bakery,bakery,13.0039815,77.5504437,0,True
Sugar Cane and Ice Cream,fast_food,13.0041233,77.552102,0,True
Sri Lakshmi Venkateshwara Bakery,bakery,13.0043395,77.5540982,0,True
Tusker Fitness,gym,12.9840494,77.5578305,0,True
Swagat,restaurant,12.9894334,77.5540446,0,True
Popeyes,fast_food,12.993112,77.5387922,0,True
Popeyes,fast_food,12.9611699,77.5272976,0,True
IndusInd Bank,bank,12.9999811,77.552513,0,True
DCB Bank,bank,13.0003797,77.552997,0,True
Pratidinam,restaurant,13.0013181,77.553043,0,True
Savipriya Hindu Military Hotel,restaurant,13.0011678,77.5532246,0,True
Indian Bank,bank,13.0015059,77.5530553,0,True
Canara Bank,bank,12.9991903,77.5525312,0,True
Bank of Baroda,bank,12.9330518,77.5158827,4,False
The Bunt Kitchen,restaurant,12.9740758,77.5345027,0,True
Hoysala Darshini (veg),restaurant,12.9245385,77.4850731,2,False
The Rameshwaram Cafe,fast_food,13.0083537,77.5546789,0,True
Indian Oil,fuel,12.9946331,77.5225363,-1,False
Uttara Karnataka Jolada Rotti Mane,bakery,12.9882809,77.5345825,0,True
Iyengar Bakery,bakery,12.9878235,77.5368583,0,True
Kaati Rolls,fast_food,12.988439,77.534555,0,True
Sirimane,restaurant,12.9884468,77.5346227,0,True
Gnanabodhini Kannada Higher Primary School,other,12.9266736,77.4943694,2,False
Gnanabodhini English Higher Primary School,other,12.9264043,77.4942917,2,False
Cariappa Curry Company,restaurant,13.0045271,77.5533373,0,True
Subway,fast_food,12.9403965,77.5254154,4,False
Burger King,fast_food,12.9401822,77.5253256,4,False
Pizza Hut,restaurant,12.9402744,77.5253631,4,False
Sai Sogadu,restaurant,13.0002965,77.5500266,0,True
Janani Clinics,other,12.9918503,77.5437825,0,True
Tea Time,cafe,12.9996279,77.488847,-1,False
Kim Lee Restaurant,restaurant,12.9847002,77.5536101,0,True
Sicilia Point,restaurant,12.9857652,77.55176,0,True
Glen's Bakehouse,cafe,12.9899954,77.5372124,0,True
The Delhi Ritual,restaurant,13.0023309,77.5526894,0,True
Daily Baskett,convenience,13.0107514,77.5580085,0,True
Dose Mane,fast_food,13.008259,77.5549659,0,True
Iyengar Bakery,bakery,12.9584415,77.5591653,-1,False
Cafe Coffee Day,cafe,13.0079648,77.5562786,0,True
Burger King,fast_food,13.0112846,77.5553159,0,True
Chili's,restaurant,13.0111147,77.5553159,0,True
Raghavendra Juice & Condiments,convenience,13.0105143,77.5589939,0,True
MedPlus,pharmacy,13.0059256,77.555443,0,True
PizzaExpress,restaurant,13.0109277,77.5553082,0,True
Federal Bank,bank,12.9599103,77.5313926,0,True
Union Bank of India,bank,12.9571796,77.5501655,0,True
Bharat Petroleum,fuel,12.9573596,77.5511498,0,True
DMart,supermarket,12.9584119,77.5532961,0,True
Indira Canteen,fast_food,12.9364245,77.5349405,1,True
Indira Canteen,fast_food,12.9794977,77.5167002,-1,False
Unknown,fast_food,12.9415978,77.5317487,-1,False
KFC,fast_food,12.9403206,77.5253838,4,False
MBA Chatwaala,fast_food,12.9404349,77.5254297,4,False
Shivsagar Restaurant,fast_food,12.9402277,77.5253419,4,False
Wow! Momo,fast_food,12.9404593,77.5253435,4,False
Charminar,fast_food,12.9403644,77.5253986,4,False
Squeez juice bar,fast_food,12.9401567,77.5252131,4,False
Sharada Shri Public School,other,12.929597,77.5343709,1,True
State Bank of India,bank,13.0058326,77.5550356,0,True
Naidu Food Palace,fast_food,13.0081489,77.5558038,0,True
SLV Tiffin Center,fast_food,13.0081346,77.555951,0,True
Kadamba Classic Hotel,restaurant,12.9523737,77.5438444,-1,False
Krishna Cake Palace,bakery,12.9296753,77.5349343,1,True
Ba Guru Thindi Madona,restaurant,12.9294996,77.5352415,1,True
Rotti Mane,fast_food,12.9611723,77.5271508,0,True
Tandoor Chai,cafe,12.9611876,77.5261787,0,True
"Fortis Hospital, Nagarbhavi",other,12.9596032,77.5112481,-1,False
Rajanna Military Hotel,restaurant,12.9662399,77.5351318,0,True
Reliance Smart,supermarket,12.9553443,77.5282394,0,True
Karnataka Horticulture Fruits and Vegetable store,convenience,12.9549739,77.5295197,0,True
Mamta Super Bazar,convenience,12.9548869,77.5281648,0,True
Koli Hut,fast_food,12.9564444,77.5307233,0,True
Devaras Restaurant,restaurant,13.0031628,77.553654,0,True
Sri Annapoorneshwari Veg,fast_food,13.003852,77.5539609,0,True
DailyBasket,convenience,13.009492,77.5529372,0,True
HDFC Bank,bank,13.0067647,77.5545483,0,True
Sri Horanadu Cafe,fast_food,13.0076067,77.5484877,0,True
Bandhan Bank,bank,12.9594192,77.5266507,0,True
Axis Bank,bank,12.9593539,77.5266218,0,True
Karur Vysya Bank,bank,12.9600961,77.5270763,0,True
Sunrise Cafe,cafe,12.9524277,77.5153725,3,False
Krishna Vaibhava,restaurant,12.967247,77.5356517,0,True
Mandya Cafe,cafe,12.9595766,77.535977,0,True
The Fresh Greens,convenience,12.95979,77.5339559,0,True
Punjab National Bank,bank,12.9601479,77.5334384,0,True
Bramhalingeshwara Canteen,fast_food,12.9573882,77.5336721,0,True
J24 Essentials,convenience,12.9548371,77.5346246,0,True
Venkatadri Home Needs,convenience,12.9564963,77.5334443,0,True
Juicy N Spicy,fast_food,12.9567531,77.533353,0,True
Shivani Organics,supermarket,12.9654241,77.5378299,0,True
Rajajinagar Bakery,bakery,12.9653744,77.5383779,0,True
MedPlus,pharmacy,12.9639892,77.5348786,0,True
Vishal Mega Mart,supermarket,12.9581229,77.534236,0,True
Zain Muscle Fitness Studio,gym,12.9500853,77.5268298,0,True
New Bright Pharma,pharmacy,12.9497383,77.5267613,0,True
Karnataka Medicals,pharmacy,12.9509385,77.5269843,0,True
Pradhana Manthri Bharathiya Jan Aushadhi Kendra,pharmacy,12.9542581,77.5279393,0,True
PMC Hospital,other,13.0065047,77.5545009,0,True
Indira Canteen,fast_food,13.0083001,77.5548745,0,True
Ganapa Thatte Idli,fast_food,12.9977266,77.5496662,0,True
New Varalakshmi Hospital,other,12.9988382,77.5550964,0,True
Fresh Signature,supermarket,13.0102788,77.5553865,0,True
Daysie,restaurant,12.9331882,77.5167967,4,False
Canara Bank,bank,12.9609896,77.4879289,-1,False
All Season Market,supermarket,12.9606513,77.4880845,-1,False
Soda Factory,restaurant,12.9580734,77.4875539,-1,False
Burma Burma,restaurant,13.0109686,77.5554054,0,True
Dream Fuel Junction,fuel,12.9525606,77.477533,-1,False
Pali Fuel - Bharat Petroleum,fuel,12.9682598,77.4811488,-1,False
Indian Oil,fuel,12.9515993,77.4845912,-1,False
Indian Oil,fuel,12.9564191,77.4790448,-1,False
Apollo Cradle Children's Hospital,other,13.002768,77.5536287,0,True
New Meenakshi Coffee Bar,fast_food,12.9978859,77.5523038,0,True
New Shetty Lunch Home,fast_food,12.9981375,77.5519794,0,True
City Union Bank,bank,12.990542,77.5580302,0,True
Bharat Petroleum,fuel,12.9572457,77.5509305,0,True
HP,fuel,12.9294303,77.5039923,2,False
Swaada - The Melting Point,fast_food,12.940738,77.5427812,1,True
Unknown,parking,12.9244994,77.5000574,2,False
Netradhama,other,12.99743,77.5510293,0,True
Vanillaa Bakery and Cafe,bakery,12.998931,77.5503123,0,True
Starbucks,cafe,12.9403258,77.5247379,4,False
Cafe Jassie's,cafe,12.9307897,77.5434861,1,True
Serious Slice,restaurant,12.9330366,77.5166559,4,False
Socialize,cafe,12.9926112,77.5391934,0,True
Unknown,restaurant,12.9828948,77.5493318,0,True
Indira Canteen,fast_food,12.9785148,77.5491667,0,True
Apple Fitness,gym,12.9755516,77.5381299,0,True
Kuppu's Kafe,cafe,12.9607659,77.5335532,0,True
Canara Bank,bank,12.9715396,77.5367817,0,True
Suraksha Medicals,pharmacy,12.9712027,77.5365182,0,True
Jana Small Finance Bank,bank,12.9698881,77.5367069,0,True
Veera Shaiva Sahakari Bank,bank,12.9697883,77.536697,0,True
KFC,fast_food,12.9696611,77.536628,0,True
Indian Overseas Bank,bank,12.97542,77.5367267,0,True
Dear Foods,fast_food,12.9752429,77.536694,0,True
Sri Ganesha Fruit Juice Centre,fast_food,12.9756844,77.5364878,0,True
Suma Provision Store,convenience,12.9757309,77.5362061,0,True
Hiremath Hospital,other,12.9754354,77.5358965,0,True
Sri Ranga Medicals,pharmacy,12.9756469,77.5358203,0,True
Surya Iyengar's Bakery,bakery,12.9756693,77.5355314,0,True
Burger King,fast_food,12.9680768,77.5360116,0,True
Sri Krishna Vaibhav,restaurant,12.9671694,77.5355723,0,True
Seema Shoppe,supermarket,12.9742648,77.5353873,0,True
A to Z,supermarket,12.9521586,77.4994998,6,False
The Bengaluru City Co-operative Bank,bank,12.9519538,77.4987844,6,False
KFC,fast_food,12.9521165,77.4980883,6,False
Unknown,supermarket,12.95208,77.4977918,6,False
Mangaluru Stores,supermarket,12.9511672,77.4948779,6,False
Domino's,fast_food,12.9511792,77.4943916,6,False
Janasuraksha Medicals,pharmacy,12.9543928,77.497201,6,False
Surya Department Store,supermarket,12.9546117,77.4967995,6,False
Kesari Medicals,pharmacy,12.9544913,77.4967574,6,False
Manjunatha Condiments,convenience,12.954568,77.4964584,6,False
Taffy's Rooftop Pub and Kitchen,restaurant,12.9972963,77.5472693,0,True
Canara Bank,bank,12.9987935,77.54079,0,True
More,supermarket,12.9880795,77.5355606,0,True
Carry Fresh home,supermarket,12.9881733,77.5370466,0,True
Federal Bank,bank,12.9225556,77.5568479,1,True
Hotel Gowdru Mane,hotel,12.9249913,77.4846808,2,False
Smart Point,supermarket,12.9289537,77.486678,2,False
Punjab National Bank,bank,12.9986003,77.5427169,0,True
State Bank of India,bank,12.9321659,77.5155657,4,False
Shopers Shope,supermarket,12.9245345,77.4854041,2,False
V Coffee Cafe,fast_food,12.9565571,77.5291479,0,True
"Shri Mokambika Women's Clinic, Child care and Nethralaya",other,12.9519863,77.4989075,6,False
Suraksha Diagnostic Centre,other,12.9519538,77.4990341,6,False
MS Bakery,bakery,12.9519575,77.4984766,6,False
Union Bank of India,bank,13.0027342,77.5535278,0,True
Jindal Charitable Hospital,other,12.9937247,77.5539724,0,True
Taj Biryani Paradise,fast_food,12.9948384,77.5552933,0,True
Pizza Hut,restaurant,12.9955319,77.5546673,0,True
Sri Balaji Medical and General Store,pharmacy,13.0044903,77.5536452,0,True
Indira Canteen,fast_food,12.9580248,77.5272879,0,True
The Raghavendra Cafe,restaurant,12.9576679,77.5283537,0,True
Fit X Fitness,gym,12.9563227,77.5292473,0,True
Magnolia Bakery,cafe,13.0108881,77.5549465,0,True
Big Guys: Wings & More,fast_food,12.9608144,77.5119092,-1,False
Easy Bites by Empire,fast_food,12.9271408,77.5479307,1,True
Udupi Brahmins Kitchen,restaurant,12.9579424,77.533767,0,True
Third Wave Coffee Roasters,cafe,12.9859554,77.5509443,0,True
Screws and Brews,cafe,13.0007892,77.5527658,0,True
Indira Canteen Ward 131,fast_food,12.9499098,77.5219642,-1,False
Federal Bank,bank,12.9516134,77.4722573,-1,False
SG International Public School,other,13.0110387,77.5394468,0,True
Vijaya Krishna Bakery,bakery,13.0100309,77.5386261,-1,False
Sannidhi Grand,restaurant,13.009385,77.538382,-1,False
Sri Ram Medical Store,pharmacy,13.0099404,77.5390596,0,True
MedPlus,pharmacy,13.00911,77.5382451,-1,False
Cafe 363 x Neu Leaves,cafe,12.9663035,77.5090733,-1,False
Starbucks,cafe,12.9660814,77.5093295,-1,False
AIT Canteen,fast_food,12.9645993,77.5052176,-1,False
Dmart,supermarket,12.9737081,77.5515282,0,True
KFC,fast_food,12.9266268,77.547741,1,True
Unknown,gym,12.9227174,77.5059164,2,False
MM Foods,restaurant,12.9234508,77.4997987,2,False
Hotel Dream Land Family Restaurant,restaurant,12.9248386,77.4985064,2,False
Mojo Pizza,restaurant,12.9246933,77.4982973,2,False
Paakashala,restaurant,12.9300874,77.5149732,4,False
Indian Bank,bank,12.925836,77.5180757,4,False
Blossom Bean Cafe,cafe,12.9280883,77.5180799,4,False
Onesta,fast_food,12.9299662,77.5149339,4,False
The Madras Cafe,fast_food,12.9304381,77.5151002,4,False
Onesta,cafe,12.9300434,77.5149538,4,False
Ambedkar Memorial Higher and Primary School,other,13.000549262679561,77.54774880534967,0,True
Unknown,other,12.972366599999997,77.54339,0,True
Government School,other,12.969733682239239,77.54414204636326,0,True
Unknown,other,12.965491820727177,77.54161632872587,0,True
Unknown,other,12.964555512990398,77.54178386717291,0,True
Hampinagara Bus Station,bus_station,12.958995678887415,77.53545483632776,0,True
Prameelabhai BBMP High School,other,12.97352864828547,77.5482683126435,0,True
Unknown,parking,12.92397601390618,77.49840863808501,2,False
Radhakrishna Multispeciality Hospital,other,12.940966964364328,77.54557419458415,1,True
Arun Icecreams,bakery,13.007703796201271,77.54793345046137,0,True
East West Public School,other,13.007915655894477,77.54520063146383,0,True
S-Mart,supermarket,13.003995100000001,77.5435941,0,True
Atulya Stores,convenience,13.007463110526354,77.54835220163987,0,True
Gopalan Arcade Mall,mall,12.935634599485523,77.51765422447004,4,False
Vijayanagar Bus Stand,bus_station,12.965536415220313,77.53458443333342,0,True
Employees' State Insurance Corporation Model Hospital,other,12.990924775180574,77.55344127409622,0,True
Sharada Colony Bus Depot,bus_station,12.988418351922983,77.53364535829755,0,True
"Vittala International Institute Of Ophthalmology, Hosakerehalli",other,12.930807130791969,77.54121781950528,1,True
Little Flower School,other,12.931771308359071,77.54146343136874,1,True
Gopalan Mall,mall,12.958500029907068,77.55339906218956,0,True
Golden Heights Mall,mall,12.982918570440075,77.55944648408189,0,True
Unknown,parking,12.975973211507792,77.5550369398416,0,True
Unknown,other,12.984616358005962,77.55599167894258,0,True
Food World,supermarket,12.972639753181461,77.538941381413,0,True
Union Bank of India,bank,12.97397955,77.53726365,0,True
Sarvodaya Hospital,other,12.980385414167696,77.53901113400333,0,True
Dasarahalli Referral Hospital,other,12.977326054251598,77.54279900720002,0,True
Government High School and PU College,other,12.955080936141119,77.53232833463146,0,True
Sarvodaya School,other,12.97408309768857,77.53107912804539,0,True
Orion Mall,mall,13.011003946267012,77.55516741421948,0,True
SJR School,other,12.98143973333333,77.55914059999999,0,True
Venkat International School,other,12.980494587504309,77.5597772222354,0,True
KLE School,other,12.9787962915256,77.5111253829414,-1,False
Sri Sarvagna School,other,12.976178914538497,77.53933647738985,0,True
Hamsalekha Music school,other,12.9999825,77.54214784999999,0,True
Max Muller School,other,12.993989833200018,77.53195844929044,0,True
Basaweshwara School,other,12.994323891276018,77.5532599892315,0,True
GT World Mall,mall,12.97352720023047,77.55171845952084,0,True
Vidyanikethan Public School,other,12.951673095466933,77.48773358450057,-1,False
Palate Restaurant,restaurant,12.957922341379561,77.5185445228357,3,False
DMart,supermarket,12.974658436178547,77.5472719905239,0,True
My Fitness,gym,12.940628706409726,77.54548352513486,1,True
Bharat Petroleum,fuel,12.99722413461408,77.5467797563994,0,True
Supra Hospital,other,12.992849030698665,77.53866188936685,0,True
GM Hospital,other,12.992990930418012,77.53871769120776,0,True
Chitrakoota School,other,12.934557699138098,77.49413111781384,-1,False
HP,fuel,12.941375704034984,77.49317767637902,-1,False
Unknown,fuel,12.933055849999999,77.48876385,-1,False
Unknown,restaurant,12.931964250000002,77.50261520000001,-1,False
Unknown,fuel,12.932570083255124,77.49046640083446,-1,False
Martin Luther School,other,12.940131593213904,77.54852653413451,1,True
Martin Luther School,other,12.939931946919849,77.54880641969052,1,True
Prashanth Hospitals,other,12.939188250000003,77.55131265,1,True
Mamtha Petroleum,fuel,12.935814966659452,77.5476520041397,1,True
Unknown,other,12.94106377464862,77.55439870844565,1,True
Holy Saint High School,other,12.935491199999998,77.550587,1,True
JHS school,other,12.9373127,77.55038915,1,True
Vidyashankari English School,other,12.938029850000001,77.55231330000001,1,True
VSS Public School,other,12.938062865940182,77.55159718094522,1,True
Cafe Down The Alley,cafe,12.93531095899515,77.53296622411665,1,True
O G Varier Bakery,bakery,12.987517451008872,77.55012743454178,0,True
Bharath Co-operative Bank,bank,12.979980231417837,77.53695154830632,0,True
Sri Saraswati Vidya Mandira School,other,12.927045003451902,77.5559701693587,1,True
ABBS Parking,parking,13.00370769546805,77.48360026522207,-1,False
Unknown,fuel,12.985884700000003,77.47980695,5,False
Unknown,fuel,12.985867671710732,77.48013790612416,5,False
ChanRe Rheumatology And Immunology Center And Research,other,12.995566616723504,77.53542236663725,0,True
VLS International School,other,12.99140130439066,77.53571806200786,0,True
Bank of India,bank,12.989866507719098,77.53770907819793,0,True
Central Bank of India,bank,12.991624800000002,77.53747754999999,0,True
Gopala Eye Care Centre,other,12.988362206133493,77.53432613006403,0,True
State Bank of India,bank,12.988543511605712,77.53449272470746,0,True
Vidya Bharathi School,other,13.002818343717133,77.54666652005805,0,True
Union Bank of India,bank,12.988019050000002,77.5355789,0,True
National Hill View Public School,other,12.923412237717091,77.52332163796001,-1,False
VLS International School grounds,other,12.99108142095881,77.53557291082367,0,True
Shri Vidhyanagara BMTC Bus station,bus_station,12.934110831370376,77.53964671801778,1,True
National Public School Kengeri,other,12.922355248542214,77.48889780338446,2,False
Chandra Layout Bus Station,bus_station,12.959169363666257,77.52688955287685,0,True
Saibaba Womens School,other,12.997354410352786,77.55523456317722,0,True
"National Public School, Rajajinagar",other,12.98424023084767,77.54968950697794,0,True
Food Court,fast_food,12.922390139467643,77.49968436406387,2,False
Orchard International School,other,12.925393189386368,77.49860808072968,2,False
St. Theresa's Hospital,other,13.006717735766214,77.55298739291058,0,True
Unknown,parking,12.923916537553913,77.49974552932713,2,False
Mysore Road Metro Parking,parking,12.94657413662712,77.52888592117768,4,False
Rajajinagar Metro Parking,parking,12.997942574137543,77.55065817218805,0,True
VVS Sardar Patel High School,other,13.003987120568581,77.55256276673963,0,True
MM Foods,fast_food,12.923792951922564,77.50049809819555,2,False
Bethesda International School,other,12.928249523943627,77.48554239977187,2,False
Mangala Sweets,bakery,12.989788249999998,77.53810940000001,0,True
Karnataka Bank,bank,12.987987859992689,77.53574627812002,0,True
Unknown,parking,12.935459691535716,77.53233695091883,1,True
Unknown,parking,12.935433532496715,77.53540411552262,1,True
Unknown,parking,13.009579183950661,77.55284655496217,0,True
Mysore Road Metro Parking,parking,12.945804328424943,77.53045891767249,4,False
Unknown,parking,12.924121341664437,77.49292046335513,2,False
Medical centre,other,12.924643250865962,77.50062310503147,2,False
M C Modi Eye Hospital,other,12.998037970159782,77.5459077802115,0,True
Indian Oil,fuel,12.926441212786566,77.50132167766365,2,False
Reliance,fuel,12.925974949455268,77.50078425416612,2,False
Unknown,mall,12.940322663329644,77.525100711486,4,False
National Hill View Public School,other,12.928797029870774,77.5289532139692,-1,False
Puneeth Rajkumar Multispeciality Hospital,other,12.941416306034121,77.52266732845493,4,False
Unknown,parking,12.938378521182658,77.51590430795575,4,False
Unknown,parking,13.010900738905754,77.5493686480592,0,True
Assumption English High School,other,12.992503664404765,77.55491880634345,0,True
Global Academy for Learning,other,12.925307726751875,77.50448076625388,2,False
Unknown,parking,12.927131725296777,77.50312305549488,2,False
VVS School and College,other,13.00444616504754,77.55038502316395,0,True
PVP School,other,13.00480599238192,77.55009299445004,0,True
BGS World School,other,13.004986994225254,77.54489984670751,0,True
Natus Woman and Children Hospital,other,12.942728666217453,77.52550438755408,4,False
Metro Cash & Carry Parking,parking,12.9265797725704,77.50222610771537,2,False
Poornima Palace Convention Center Parking,parking,12.926141238901554,77.50183339818605,2,False
Venkat International School,other,12.98226333656312,77.55304913154897,0,True
Sri Aurobindo Vidya Mandir,other,12.998656281724442,77.54561962275342,0,True
Chetan Dhaba,restaurant,12.923010462971675,77.49595746570847,2,False
Sri Vani Education Centre,other,12.98809229486592,77.54143477629606,0,True
National Academy for Learning,other,12.987930886112691,77.54197127383154,0,True
Government Homeopathic Hospital,other,12.9830868172503,77.53657323555136,0,True
S Cadambi Vidya Kendra English Secondary School,other,12.993584628739066,77.53946139099324,0,True
Fortis Hospital,other,13.002203752281615,77.54909944893718,0,True
Unknown,parking,12.954313636786786,77.51713539220009,3,False
Unknown,parking,12.98208061754705,77.52045302358204,-1,False
Carmel High School,other,12.988624922206691,77.54436890161377,0,True
Unknown,other,12.984955234792698,77.55692405302221,0,True
Unknown,parking,12.995758268166277,77.5510690519139,0,True
Unknown,other,12.95153880070898,77.52825883264242,0,True
Apollo National Public School,other,12.923164469512969,77.5576936520247,1,True
Kotak Mahindra Bank,bank,12.92315854314947,77.55649363041985,1,True
Unknown,other,12.992135803817453,77.54801660428008,0,True
Unknown,other,12.990521834779575,77.54657767798388,0,True
Unknown,parking,13.00568642369643,77.55322683448344,0,True
GAIL,fuel,12.996140225917642,77.51940816507717,-1,False
Vokkaligara School,other,12.986360774898571,77.5112323360321,-1,False
Gnanodhaya International School,other,13.009215791167849,77.51470335606803,-1,False
Unknown,parking,12.998275233149698,77.55688325514555,0,True
Indira Canteen,fast_food,12.995169416495033,77.53812750777003,0,True
Gnanabodhini School,other,12.926245081585042,77.49396002760518,2,False
Nayara,fuel,13.008045350000002,77.54601430000001,0,True
SS Sparsh Hospital,other,12.92643873068871,77.52168632684801,4,False
Unknown,parking,13.010486542680761,77.55779656839962,0,True
Unknown,other,12.965916699999998,77.50986325,-1,False
Siddaganga Public School,other,12.9539823430916,77.52301527852673,0,True
Unknown,other,12.975610816988938,77.51432901476508,-1,False
St. Joseph's Convent High School,other,12.979626584114959,77.51826851545471,-1,False
Jindal Government School,other,12.959925042363492,77.5164975978189,3,False
Go Gas,fuel,12.937674124318386,77.53417862324851,1,True
Total Gas,fuel,12.944212900284574,77.53036815602024,4,False
Unknown,other,12.924058277811328,77.54485299885646,1,True
KSRTC Mysore Road Satellite Bus Station,bus_station,12.953060918094893,77.54373337197039,-1,False
Unknown,fuel,12.956389156868411,77.47907658003956,-1,False
Unknown,fuel,12.96215626260244,77.47913232240911,-1,False
Unknown,fuel,12.968284440177012,77.481087044055,-1,False
HP,fuel,12.935887758565139,77.51552109381402,4,False
Unknown,fuel,12.954468036079792,77.54373258603438,-1,False
Indian Oil,fuel,12.956438316290988,77.54876203485874,0,True
Hill Rock National Public School,other,12.966801865442775,77.47222359315614,-1,False
Nayandahalli Metro Station Parking,parking,12.941492717573825,77.52544256831484,4,False
Bharat Petroleum,fuel,12.929320724082965,77.5141852965826,4,False
Unknown,fuel,12.92708012139373,77.51466098965881,4,False
Indian Oil,fuel,12.932727718557905,77.51653751311517,4,False
Indian Oil,fuel,12.938193131835124,77.52223461556721,4,False
Indian Oil,fuel,12.93834710742981,77.52135350685522,4,False
Nandini Layout,bus_station,13.011517115547177,77.53581760945511,-1,False
Unknown,fuel,12.966452546583788,77.5047552614752,-1,False
Nayara,fuel,12.929677033333334,77.50452513333333,2,False
Hindustan Petroleum,fuel,12.929552934079192,77.50392836611141,2,False
Unknown,other,12.965353266529993,77.47439903063135,-1,False
Unknown,fuel,12.949526916871804,77.47767579992889,-1,False
"National Public School, SMV",other,12.94082291609675,77.48027697601785,-1,False
Unknown,fuel,12.94006906518793,77.47927321257735,-1,False
Unknown,parking,12.93171735,77.53203075,1,True
Kalabhyraveshwara Service Station,fuel,12.934235589521887,77.53927986119336,1,True
Unknown,fuel,12.95165625,77.48462165000001,-1,False
Shell,fuel,12.957639694252148,77.55187572115305,0,True
Unknown,parking,12.926739741752597,77.54839576614312,1,True
Varadaraja Petrol / Gas Station,fuel,13.005789839779965,77.55440502085588,0,True
Unknown,parking,13.006790618576995,77.55416492161194,0,True
ISKCON Temple Parking,parking,13.009262508432473,77.5516434727354,0,True
Unknown,parking,13.009779013827758,77.55195747168982,0,True
Unknown,parking,13.009365114030414,77.55202587166501,0,True
Unknown,parking,13.00889605686663,77.55197893170995,0,True
Unknown,fuel,12.953703001373098,77.5421141977467,-1,False
thoda aur,bakery,12.9234467934138,77.4997995932921,2,False
Unknown,parking,12.935779013951098,77.51228906747669,4,False
Unknown,parking,12.924894049999997,77.500246,2,False
Unknown,parking,12.923899950000001,77.49941575,2,False
Unknown,fuel,12.978896292557518,77.54162262667829,0,True
Unknown,other,12.97012885,77.53593899999998,0,True
Indian Oil,fuel,12.975574106541607,77.54829598999108,0,True
Unknown,other,12.976120844341162,77.53980272366827,0,True
Unknown,other,12.994844349137484,77.4786248035179,-1,False
Unknown,other,12.992372246340441,77.47765472369683,5,False
Unknown,fuel,12.951500249753185,77.4948548135812,6,False
Indian Oil,fuel,12.959100057117269,77.55579386730571,0,True
HP,fuel,12.99075348761172,77.46897022299201,-1,False
Unknown,parking,12.984880106692573,77.54402489874452,0,True
Unknown,fuel,12.975923526156349,77.55737890885574,0,True
Unknown,parking,12.97604327729369,77.55659515466695,0,True
Unknown,fuel,12.988468428373594,77.50865485607775,-1,False
Unknown,fuel,12.988453761469279,77.50991143871904,-1,False
Unknown,parking,12.996270273486015,77.48471241588038,-1,False
Unknown,parking,12.995828073411085,77.48440979362891,-1,False
Unknown,parking,12.996560813238867,77.4844065624617,-1,False
Unknown,parking,12.928708806440534,77.543570477639,1,True
Unknown,parking,12.927785917799303,77.54354029157471,1,True
Unknown,other,12.9538334797615,77.4772661338983,-1,False
Janani Vidya Mandira,other,12.95065725180512,77.4835653008534,-1,False
Government Multi-Speciality Hospital,other,12.951085065235612,77.48109147437152,-1,False
Unknown,other,12.952936268024352,77.46681889022413,-1,False
Unknown,other,12.970492179455203,77.46761504750572,-1,False
Go Gas,fuel,13.00293641994945,77.55363051035071,0,True
Unknown,parking,12.924234981316355,77.49259502480743,2,False
Unknown,parking,12.92426530720619,77.49246806121636,2,False
Unknown,parking,12.92420954989801,77.49230768813575,2,False
Unknown,parking,12.924336803816994,77.49314949971753,2,False
Unknown,parking,12.924235314488035,77.49315983449054,2,False
Unknown,parking,12.924107670366633,77.49317927414693,2,False
Unknown,parking,12.923995145127316,77.49314509861337,2,False
Orchids The International School,other,12.995801558883123,77.55545178969312,0,True
Unknown,other,12.959241360072019,77.53567464648563,0,True
Unknown,parking,12.997423993250022,77.54466991959777,0,True
TotalEnergies,fuel,12.98664695523059,77.4774952443351,5,False
Indian oil pump,fuel,12.986544114999939,77.47775121992353,5,False
Unknown,fuel,12.988954612019153,77.49725513562397,-1,False
Nayara,fuel,12.943685789776413,77.53881567562655,1,True
Unknown,fuel,13.009650659920375,77.4831145025533,-1,False
Unknown,fuel,12.966574118883964,77.50535044913492,-1,False
Unknown,fuel,12.965872459652124,77.50456890359989,-1,False
Unknown,parking,12.963360083753361,77.50650728344534,-1,False
Bande Maramma,bus_station,12.966799759478278,77.51606567224881,-1,False
Unknown,bus_station,12.963432185940526,77.51208409352166,-1,False
Mount Carmel School,other,12.924109626742391,77.51853505631452,4,False
Ashwini School,other,12.929917988300097,77.5226641760877,-1,False
Total Gaz,fuel,12.932460784024245,77.51619860165819,4,False
Unknown,bus_station,12.967998999999999,77.4807295,-1,False
New Baldwin Public School,other,12.989127987398307,77.47860915863261,5,False
Unknown,fuel,12.946803675076586,77.5326355237502,-1,False
Unknown,fuel,12.944364401216719,77.5294218920766,4,False
HP,fuel,12.944127685227663,77.52950447071157,4,False
Rajarajeshwari Vidya Shala,other,12.928718200000002,77.51301405000001,4,False
Unknown,parking,12.924884071079312,77.52647801242222,-1,False
Unknown,parking,12.924474025467386,77.5260610894599,-1,False
