name,category,latitude,longitude,cluster_label,is_hotspot
Axis Bank,bank,28.64725,77.194235,0,True
The Ambassador,hotel,28.6017391,77.228846,1,True
Unknown,restaurant,28.6069461,77.2299189,1,True
Unknown,bus_station,28.6108671,77.2516076,-1,False
Indian Oil,fuel,28.6175988,77.2497911,-1,False
Indraprastha Gas Limited,fuel,28.6186155,77.2493074,-1,False
Unknown,parking,28.6669732,77.2267137,7,False
Unknown,other,28.5962679,77.177701,-1,False
Unknown,fuel,28.6633196,77.2185803,-1,False
Yatri Guesthouse,hotel,28.6422845,77.2053386,0,True
Delhi Heart and Lung Institute Super Speciality Hospital,other,28.6416777,77.2052683,0,True
Hotel Metropolis,restaurant,28.6407045,77.2105994,0,True
Unknown,parking,28.6324431,77.2212149,0,True
Unknown,parking,28.6318154,77.2207988,0,True
Unknown,parking,28.6315957,77.2204152,0,True
Unknown,parking,28.633774,77.2186316,0,True
Unknown,parking,28.6340848,77.2195757,0,True
Piccadelhi,restaurant,28.635243,77.2196937,0,True
Parliament Visitor Parking,parking,28.6162015,77.2100168,0,True
Mori Gate Bus Terminal,bus_station,28.6683615,77.2251757,7,False
Hotel Tara Palace,hotel,28.6534876,77.2345124,2,False
Star Paradise,hotel,28.6410897,77.2156719,0,True
Bon Temps Cafe,cafe,28.6428339,77.186576,0,True
Big Apple,convenience,28.6324664,77.1774672,-1,False
Vivek,hotel,28.6410436,77.212675,0,True
Internet,cafe,28.6410051,77.2125387,0,True
Bangla Foods,restaurant,28.6333595,77.2083619,0,True
Vishal,hotel,28.6409016,77.2118997,0,True
Hare Krishna Guest House,hotel,28.6409675,77.2121571,0,True
Anoop,hotel,28.6409297,77.2121018,0,True
Maidens Hotel,hotel,28.674394,77.2261858,7,False
Radisson Blu Marina Hotel Connaught Place,hotel,28.6339659,77.2171659,0,True
Hotel Florence,hotel,28.6518872,77.191918,0,True
State Bank of India,bank,28.6563806,77.234434,2,False
Imperial Hotel,hotel,28.625283,77.2183628,0,True
Spice Route,restaurant,28.6253844,77.2181175,0,True
Good Earth,restaurant,28.5995254,77.226395,1,True
Nathus Sweets,restaurant,28.6297269,77.2320267,0,True
Bengali Sweet House,restaurant,28.629465,77.2318985,0,True
Unknown,fuel,28.6397503,77.1739956,0,True
Unknown,fuel,28.6396139,77.1740466,0,True
Pusa Institute,bus_station,28.640496,77.1741764,0,True
Hotel Krishna,hotel,28.6459152,77.2146894,0,True
Club India Restaurant,restaurant,28.6409319,77.2137081,0,True
Gushi International,hotel,28.6416237,77.2133024,0,True
Madan Café,cafe,28.6407272,77.2111472,0,True
New Mt. Everest Restaurant,restaurant,28.641034,77.213836,0,True
Unknown,convenience,28.641578,77.2133239,0,True
Rak International,hotel,28.6416783,77.2133717,0,True
Sapna,hotel,28.6406194,77.211041,0,True
Andhra Bhawan Canteen,restaurant,28.6169212,77.225998,-1,False
Karim's,restaurant,28.6494286,77.2337411,2,False
Pandit Kanhaiya Lal Durga Prashad Dixit Paranthe Wala,restaurant,28.6560678,77.2303749,2,False
Moti Mahal,restaurant,28.6468875,77.2399805,2,False
moti,bakery,28.6169705,77.2267362,-1,False
Ajanta,hotel,28.6457798,77.2158487,0,True
Berco's,restaurant,28.6323764,77.2172154,0,True
Starbucks,cafe,28.6321974,77.2177075,0,True
IRCTC-Ginger Rail Yatri Niwas,hotel,28.6444996,77.2226902,0,True
All American Diner,restaurant,28.589224,77.225738,-1,False
Bharat Petroleum,fuel,28.5924259,77.2375948,-1,False
Cafe Turtle,cafe,28.6002007,77.2273465,1,True
Vidya Bhawan Senior Secondary School,other,28.6387283,77.1763691,0,True
Sindhi Higher Secondary School,other,28.6357621,77.1778604,0,True
Manav Sthali School,other,28.6352772,77.1782466,0,True
Andh Kanya Vidyalaya,other,28.6368309,77.1803119,0,True
DI Khan Bharati Sabha Higher Secondary School,other,28.6307618,77.1795502,-1,False
Bapu Adarsh Vidyalaya,other,28.6306394,77.1804675,-1,False
Swami Dayanand Govt. Sarvodaya Vidyalaya,other,28.6397954,77.1856155,0,True
GD Salwan Public School,other,28.6403133,77.1858677,0,True
Uppal International,hotel,28.6464415,77.213339,0,True
sunstar heights,hotel,28.645239,77.1834003,0,True
Cottage Yes Please,hotel,28.6410109,77.2104394,0,True
Indian Coffee House,restaurant,28.6306895,77.2160507,0,True
Hira Sweets,restaurant,28.6353527,77.220063,0,True
Sayam Roof Top Restaurant,restaurant,28.6411417,77.2137445,0,True
Indian Oil Petrol Pump,fuel,28.6337158,77.2178321,0,True
Sri Vinayak,hotel,28.6459004,77.2177066,0,True
Keshav Restaurant,restaurant,28.6337495,77.2230833,0,True
Good Times,hotel,28.6464716,77.1936868,0,True
b nineteen,hotel,28.5911807,77.2521566,3,False
M B Boys School,other,28.6350118,77.2002755,0,True
Hotel Namaskar,hotel,28.6418664,77.2147421,0,True
Hotel Arina Inn,hotel,28.6414568,77.2414435,2,False
Andhra Bank,bank,28.6168699,77.225769,-1,False
New Delhi City Centre,hotel,28.6456061,77.2158483,0,True
The Exotic Rooftop Restaurant,restaurant,28.6409844,77.2137687,0,True
Madras Coffee House,cafe,28.6318506,77.2163093,0,True
Bank of India,bank,28.6563624,77.2310003,2,False
ICICI Bank,bank,28.656061,77.2329064,2,False
쉼터,restaurant,28.6414451,77.2132453,0,True
DCB Bank,bank,28.6562423,77.2348625,2,False
HDFC Bank,bank,28.6563318,77.2330386,2,False
Raj's Cozy Inn,hotel,28.6421194,77.2149507,0,True
Sterling Inn,hotel,28.6421683,77.2150151,0,True
Glow Inn,hotel,28.6421818,77.2149252,0,True
Rajmahal Inn,hotel,28.642213,77.2147442,0,True
Tadka,restaurant,28.6403009,77.2131013,0,True
Gold Regency,hotel,28.6415698,77.2169879,0,True
Satyam,hotel,28.6405822,77.2108389,0,True
Aman International,hotel,28.6414356,77.216096,0,True
Guruvas Inn,hotel,28.6415074,77.2161202,0,True
Hotel Durga International Dx,hotel,28.6445778,77.2152819,0,True
ICICI Bank,bank,28.601773,77.2413829,4,False
Nathu Sweets,restaurant,28.6025805,77.2409575,4,False
Sunder Nagar Market,convenience,28.6020757,77.2414413,4,False
Stri Shakti Canteen,cafe,28.6626448,77.2339599,-1,False
Hotel Krishna Deluxe,hotel,28.6458875,77.2150552,0,True
Unknown,fuel,28.6517715,77.2682607,-1,False
Nando's,restaurant,28.6309879,77.2197896,0,True
Federal Bank,bank,28.6319496,77.2217935,0,True
Select Hotel,hotel,28.6308041,77.2244524,0,True
Hotel Alka Annexe,hotel,28.6320913,77.2226246,0,True
State Bank of India,bank,28.6322316,77.2223143,0,True
Holiday Inn Hotels and Resorts,hotel,28.6312552,77.2209768,0,True
Amour Bistro,cafe,28.6016349,77.1859966,5,True
Hotel Lal's Haveli,hotel,28.64597,77.2112119,0,True
Surbhi hospital,other,28.6491348,77.2164415,0,True
Unknown,hotel,28.6490936,77.2170457,0,True
Hotel Grand Park Inn,hotel,28.646953,77.1958002,0,True
Hotel City Star,hotel,28.6447365,77.214923,0,True
The Colonnade,restaurant,28.6342635,77.2190699,0,True
Gola,restaurant,28.6352724,77.220127,0,True
R. S. Medicos,pharmacy,28.6467075,77.2129328,0,True
White House,hotel,28.6467605,77.2130323,0,True
Shell Deluxe,hotel,28.646794,77.2128902,0,True
Bhagwati Medicos,pharmacy,28.6467013,77.2132438,0,True
Unknown,pharmacy,28.6466897,77.2128151,0,True
Amax Inn,hotel,28.6467628,77.2135529,0,True
Hotel S&b East Inn,hotel,28.6444725,77.1763258,0,True
Fat Lulu's,restaurant,28.5996402,77.2262942,1,True
Bloomrooms,hotel,28.6455153,77.2177757,0,True
Unknown,bank,28.6294722,77.2129442,0,True
Unknown,bank,28.6321307,77.2163119,0,True
Bharat Petroleum,fuel,28.6288906,77.210219,0,True
Unknown,bank,28.6333793,77.2076665,0,True
Odeon sweets,restaurant,28.6334275,77.2080471,0,True
Imly,restaurant,28.645305,77.1785622,0,True
Hotel City Heights,hotel,28.6410598,77.2143437,0,True
Malhotra,restaurant,28.6410445,77.2105515,0,True
Sam's Cafe,restaurant,28.6410923,77.2126799,0,True
Starbucks,cafe,28.6302915,77.2204826,0,True
Festa Cafe ,cafe,28.6409134,77.2104527,0,True
Smyle Inn,hotel,28.6416911,77.2147016,0,True
Shangri-La's Eros Hotel,hotel,28.6210244,77.2178611,0,True
the spot,hotel,28.6417585,77.2152429,0,True
Kitchen Cafe Roof Top,cafe,28.6409875,77.2128901,0,True
Café office office,cafe,28.6269741,77.2202933,0,True
HOTEL PALACE HEIGHTS,hotel,28.6335783,77.2212231,0,True
Zaffran,restaurant,28.6337656,77.2213244,0,True
Barbeque Nation,restaurant,28.6303156,77.2206535,0,True
Nepali Food,restaurant,28.6411171,77.2144269,0,True
Punjab National Bank,bank,28.6316411,77.2215631,0,True
Malhotra,restaurant,28.6408661,77.2103053,0,True
Hotel Sunstar Grand,hotel,28.6462138,77.1841285,0,True
Pind Balluchi,restaurant,28.6303463,77.217545,0,True
Unknown,restaurant,28.5995342,77.2251048,1,True
Rajdhani,restaurant,28.6298048,77.2204846,0,True
Neelam Restaurant,restaurant,28.6420621,77.2179887,0,True
Unknown,bank,28.6451684,77.1945193,0,True
Reliance Fresh,supermarket,28.645693,77.2108527,0,True
S.D. Public,other,28.6473887,77.169391,0,True
Metropolis Guest House,hotel,28.6399645,77.2100934,0,True
Canara Bank,bank,28.6223326,77.2361501,0,True
Smokeys,restaurant,28.6005777,77.2273349,1,True
Fa Yian The Chinese Restaurant,restaurant,28.6328293,77.2172007,0,True
Kiran Hotel,hotel,28.6414626,77.2164508,0,True
L'Opera,bakery,28.5998152,77.2261697,1,True
Out Of The Box (OTB),cafe,28.5997702,77.2261911,1,True
State Bank of India,bank,28.6266262,77.2145324,0,True
Wow Cafe,restaurant,28.6412137,77.2147624,0,True
Hridey Inn,hotel,28.6407431,77.2123118,0,True
Livasa Inn,hotel,28.6459,77.1832113,0,True
Unknown,restaurant,28.6415909,77.2155347,0,True
Unknown,restaurant,28.6098311,77.2323979,1,True
Gulati,restaurant,28.6078499,77.2300673,1,True
U-Like,restaurant,28.6452167,77.2110064,0,True
NATRAJ restaurant,restaurant,28.6424044,77.2103819,0,True
Latitude,restaurant,28.6021414,77.2279557,1,True
Biryani Blues,restaurant,28.6298227,77.2205834,0,True
Jiwan Service Station,fuel,28.6045138,77.2245624,1,True
Bikaner Bus Depot,bus_station,28.6086972,77.2302094,1,True
cosmo,hotel,28.6458511,77.1832931,0,True
Wenger's,bakery,28.6333804,77.21807,0,True
The Big Chill,bakery,28.5999121,77.2265009,1,True
Kaliva sweets and restaurant,bakery,28.6279577,77.2472775,-1,False
The Oberoi Patisserie And Delicatessen,bakery,28.5967148,77.2398221,4,False
Bikanerwala Sweet,bakery,28.6482466,77.1928613,0,True
Bikanervala  Sweet,bakery,28.6481583,77.1929425,0,True
Shiv misthan Bander,bakery,28.6500162,77.2324574,2,False
Alkauser ( best biryani),restaurant,28.6018922,77.1936521,5,True
Aljawahir,restaurant,28.6495389,77.2335887,2,False
Alslam Chicken,restaurant,28.6482081,77.2336645,2,False
Bengali Sweet house & Pastry,bakery,28.6294288,77.2319022,0,True
Janta Sweets ( kashori samosa),bakery,28.6481235,77.2117033,0,True
"Japani Samosa, opposite Moti Cinema",bakery,28.6565844,77.2345987,2,False
Embassy Restaurant ( Samosa),restaurant,28.6336538,77.2211826,0,True
You and Me,hotel,28.6414075,77.2165842,0,True
Malabar Hotel,restaurant,28.6423302,77.2182562,0,True
Hotel Madras Dx,restaurant,28.642273,77.218265,0,True
Hyderabadi Dum Biriyaani,restaurant,28.6424057,77.2182489,0,True
South Indian Foods,restaurant,28.6424536,77.2182429,0,True
resto,convenience,28.6347993,77.2126048,0,True
Sapphire Inn Dx 379,hotel,28.6419316,77.2171017,0,True
Paharganj bus stand,bus_station,28.6447747,77.2043367,0,True
Everest Bakery Cafe,cafe,28.6417215,77.2147806,0,True
The Lalit New Delhi,hotel,28.6314643,77.2271911,0,True
Safari Restro Lounge,restaurant,28.6319603,77.2078492,0,True
Rishi Vaishno Dhaba,restaurant,28.6405446,77.217099,0,True
Sonu,restaurant,28.6409944,77.2127435,0,True
Kwality,restaurant,28.6299114,77.2172701,0,True
Adyar Ananda Bhavan,restaurant,28.6465886,77.1957658,0,True
Hotel SP,hotel,28.6521278,77.1943584,0,True
Everest kitchen,restaurant,28.6411046,77.2135151,0,True
Devna Bed & breakfast,hotel,28.6050274,77.2412834,4,False
Unknown,restaurant,28.6453864,77.1839126,0,True
Chaayos,cafe,28.6314625,77.2206262,0,True
Parth Palace,hotel,28.6409796,77.2151659,0,True
Shri Krishna Daba,restaurant,28.6478146,77.2399952,2,False
Kathmandu Food Cafe,restaurant,28.6418156,77.2126057,0,True
Brownie Cafe,cafe,28.645479,77.2163699,0,True
Lazeez Affaire,restaurant,28.6353146,77.2206088,0,True
Kovil,restaurant,28.6333695,77.2212936,0,True
Radjhani Thali,restaurant,28.630182,77.2204075,0,True
The Big Chill,restaurant,28.6006451,77.2275063,1,True
Hotel Singh Sons,hotel,28.6467365,77.1835662,0,True
Thalee,restaurant,28.6409867,77.2108048,0,True
Pizza Hut,restaurant,28.6275145,77.2198691,0,True
Mughlai Junction,restaurant,28.6307517,77.2205444,0,True
Kotak Mahindra Bank,bank,28.6296084,77.2241064,0,True
ICICI Bank,bank,28.6291812,77.2248562,0,True
Standard Chartered,bank,28.6296576,77.2239758,0,True
HSBC,bank,28.6298916,77.2237716,0,True
Punjab National Bank,bank,28.630268,77.2232644,0,True
Axis Bank,bank,28.6305309,77.222709,0,True
ICICI Mutual Funds,bank,28.6293464,77.2239496,0,True
saravan bhavan,restaurant,28.6249108,77.2194157,0,True
Pindi,restaurant,28.6078554,77.2296194,1,True
The Immigrant Cafe,restaurant,28.6341541,77.218784,0,True
Sawhney Medicos,pharmacy,28.6023889,77.1868863,5,True
Garg Store,convenience,28.6021797,77.1871301,5,True
Unknown,convenience,28.6026344,77.1866414,5,True
Hari Prakash Food Point,restaurant,28.6027056,77.1865603,5,True
Yes Bank,bank,28.6019799,77.189294,5,True
Anand Medical Stores,pharmacy,28.6023768,77.1869003,5,True
Naveen Fruit Juice,convenience,28.602274,77.1870201,5,True
Punjab National Bank,bank,28.6038119,77.1849985,5,True
Ingerpuri,restaurant,28.6579615,77.2233418,2,False
Kake di Hatti,restaurant,28.6580412,77.223216,2,False
Jagjit Restaurant,restaurant,28.657558,77.2231804,2,False
Hindustan Petroleum,fuel,28.6318815,77.2215358,0,True
Wok In The Clouds,restaurant,28.6005614,77.2273808,1,True
Indian Accent,restaurant,28.5917587,77.2379033,-1,False
Syndicate Bank,bank,28.6225443,77.2360014,0,True
OYO 7684 Hotel Repose Villa,hotel,28.6434615,77.2115005,0,True
Sir Ganga Ram Kolmet Hospital,other,28.643492,77.187296,0,True
Bhumi Spices Shop,supermarket,28.64038,77.213101,0,True
Satguru’s tea stall,cafe,28.6504719,77.2303091,2,False
Hotel Moon Palace dx,hotel,28.6417169,77.2132653,0,True
Punjab National Bank,bank,28.6312513,77.2218705,0,True
Union Bank of India,bank,28.6314468,77.2205311,0,True
Masala House,restaurant,28.6026965,77.2410926,4,False
Unknown,restaurant,28.6408832,77.213014,0,True
Sagar Ratna,restaurant,28.6353446,77.2203635,0,True
Bharat Petroleum,fuel,28.624526,77.2188215,0,True
The Janpath Hotel,hotel,28.6217589,77.2184932,0,True
Indian Oil,fuel,28.6264672,77.2199591,0,True
Hotel Vintage Inn,hotel,28.6418295,77.2144552,0,True
Bank of Baroda,bank,28.6289357,77.2174179,0,True
Tashi,hotel,28.6419034,77.2103116,0,True
Hotel India International Sitare - correct location!!,hotel,28.6439885,77.2102049,0,True
Hotel ramraj deluxe,hotel,28.6463198,77.2141943,0,True
HP,fuel,28.5913816,77.2120833,-1,False
Hotel Clark International,hotel,28.6492374,77.1882461,0,True
Unknown,cafe,28.638233,77.2120277,0,True
Organic Retail Store,convenience,28.615713,77.21373,0,True
Unknown,hotel,28.6403366,77.2094376,0,True
Unknown,other,28.6052898,77.2329222,1,True
Krishna Cafe,restaurant,28.6411123,77.2136081,0,True
Keventer's Milkshake,cafe,28.6334848,77.2181289,0,True
Unknown,fuel,28.6483622,77.213419,0,True
Punjab National Bank,bank,28.632967,77.2179001,0,True
Unknown,restaurant,28.6269167,77.2328582,0,True
ICICI Bank,bank,28.632608,77.2179719,0,True
Cafe Lota,cafe,28.6131498,77.2426321,-1,False
Yes Please Guest House,hotel,28.6405886,77.21269,0,True
Unknown,parking,28.6312911,77.2214543,0,True
Pind Balluchi,restaurant,28.6291804,77.219755,0,True
Jaypee Siddharth,hotel,28.6424826,77.1755884,0,True
Bharat Petroleum,fuel,28.6415227,77.2258674,0,True
Unknown,fuel,28.6444395,77.1987994,0,True
Unknown,fuel,28.6450079,77.1989094,0,True
The Walled City,cafe,28.6491519,77.232748,2,False
Chili's,restaurant,28.6315666,77.2223238,0,True
Chaayos,cafe,28.6315876,77.2222789,0,True
Oriental Bank of Commerce,bank,28.6317429,77.222079,0,True
Unknown,hotel,28.6450395,77.2138161,0,True
Rodeo,restaurant,28.633169,77.2179864,0,True
Western Court Bus Terminus,bus_station,28.6233298,77.2184168,0,True
Hotel Perfect,hotel,28.6456337,77.1876083,0,True
The Chai Kafe,cafe,28.6343655,77.2179596,0,True
Cafe Coffee Day,cafe,28.64467,77.2402214,2,False
HP,fuel,28.6378975,77.2413599,2,False
Unknown,hotel,28.6435611,77.2113187,0,True
Indian Oil,fuel,28.6673165,77.2201688,-1,False
Unknown,fuel,28.6504266,77.2684268,-1,False
Unknown,fuel,28.6726878,77.2524636,-1,False
Unknown,fuel,28.672626,77.2528108,-1,False
Hotel Bella Vista,hotel,28.6405914,77.2086727,0,True
HDFC Bank,bank,28.6621608,77.2068111,-1,False
24Seven,convenience,28.6437668,77.1889611,0,True
City Hospital,other,28.6439995,77.1912841,0,True
Bharat Petroleum,fuel,28.6425083,77.1764239,0,True
Indian Overseas Bank,bank,28.6650237,77.2145536,-1,False
Unknown,convenience,28.643629,77.2183234,0,True
Apollo Pharmacy,pharmacy,28.6337914,77.217038,0,True
Oriental Garden Chinese,restaurant,28.6339281,77.217254,0,True
State Bank of India,bank,28.6336342,77.2169575,0,True
Xero degrees,restaurant,28.6337075,77.2169847,0,True
Medicine House,pharmacy,28.6338871,77.2173285,0,True
Nath Brothers,pharmacy,28.6338668,77.2173585,0,True
Kotak Mahindra Bank,bank,28.6326368,77.2167019,0,True
Citibank,bank,28.6298283,77.213752,0,True
Padmanabham,restaurant,28.6271703,77.2197132,0,True
ICICI Bank,bank,28.6297605,77.217177,0,True
Palika Bazar,convenience,28.6307613,77.2189172,0,True
Cafe Coffee Day,cafe,28.6339716,77.2180188,0,True
Regent Grand,hotel,28.6431542,77.1731025,0,True
The Royal Plaza,hotel,28.6216848,77.2170271,0,True
Sharavana Bhavan,restaurant,28.632007,77.2176823,0,True
Unknown,hotel,28.6410969,77.2094428,0,True
Hotel Ashoka Palace,hotel,28.6461431,77.2136027,0,True
S.S. Medicos,pharmacy,28.5880799,77.1687667,6,False
Unknown,bank,28.6290782,77.2202827,0,True
Karachi Bakery,bakery,28.6296792,77.2320648,0,True
Hotel Sun International,hotel,28.6459101,77.2158549,0,True
Bawarchi khana,restaurant,28.6578827,77.1888491,-1,False
Jain coffee house,cafe,28.650606,77.2295833,2,False
Prínce Palace Deluxe,hotel,28.6403897,77.2113664,0,True
Diamond restaurant,restaurant,28.6410202,77.2126034,0,True
Yes Bank,bank,28.6442725,77.2006899,0,True
Central Bank of India,bank,28.6441263,77.2010453,0,True
The Junkyard Cafe,cafe,28.6303838,77.2207212,0,True
Government Sarvoday Bal Vidyalaya,other,28.6327017,77.2303905,0,True
Grand Singh restaurant,restaurant,28.6407001,77.211572,0,True
Indian Oil,fuel,28.6346388,77.2212509,0,True
Mother India,restaurant,28.6353515,77.2190315,0,True
United Coffee House,restaurant,28.6323784,77.2213733,0,True
Véda,restaurant,28.6350577,77.2181263,0,True
Wagh Bakri Tea Lounge,cafe,28.6343528,77.2220221,0,True
Unplugged Courtyard,restaurant,28.6344013,77.2214575,0,True
Punjab National Bank,bank,28.6351302,77.2210229,0,True
Hard Rock Cafe,restaurant,28.6291307,77.2197582,0,True
Local,restaurant,28.6298758,77.2210617,0,True
Hotel Taj Princess,hotel,28.6457601,77.1885161,0,True
Mittal Teas,cafe,28.6299698,77.2229648,0,True
Wood Castle Hotel,hotel,28.6444688,77.1833317,0,True
Bank of India,bank,28.5922707,77.2222351,-1,False
Cafe Coffee Day,cafe,28.6330613,77.2198505,0,True
Unknown,cafe,28.6260819,77.2327012,0,True
Triveni Terrace Cafe,restaurant,28.627319,77.2326929,0,True
Unknown,cafe,28.6252689,77.232639,0,True
Hotel La Suite,hotel,28.6422809,77.1744128,0,True
Cafe Coffee Day,cafe,28.6383221,77.1805949,0,True
State Bank of India,bank,28.637461,77.1814651,0,True
24Seven,convenience,28.6394083,77.1786423,0,True
24Seven,convenience,28.6433605,77.172539,0,True
Hotel Merry Gold,hotel,28.6409145,77.2105408,0,True
Rajasthali,restaurant,28.6347294,77.2203803,0,True
Hotmess,restaurant,28.6325274,77.2223125,0,True
HDFC Bank,bank,28.6293059,77.2319758,0,True
Bagundi,restaurant,28.6317221,77.22247,0,True
Hotel Raj Villa,hotel,28.6408602,77.2094999,0,True
Unknown,fuel,28.6184777,77.2485296,-1,False
Indian Oil,fuel,28.617889,77.2487546,-1,False
Swami Hariharanand Public School,other,28.6627534,77.2403662,-1,False
Unknown,fuel,28.608699,77.2528266,-1,False
Bharat Petroleum,fuel,28.5894992,77.2459159,3,False
Canara Bank,bank,28.6198985,77.2106056,0,True
Hotel Rosette,hotel,28.6446872,77.2153832,0,True
Blue Tokai Coffee Roasters,cafe,28.6309899,77.2218384,0,True
Mohit Guest House,hotel,28.6413569,77.2133521,0,True
UCO Bank,bank,28.6229665,77.211944,0,True
Bank of Maharashtra,bank,28.6345172,77.2195629,0,True
Cafe Coffee Day,cafe,28.6343112,77.2194624,0,True
Zen,restaurant,28.6342714,77.2192315,0,True
Cafe Coffee Day,cafe,28.6336036,77.2178165,0,True
The Big Chill,restaurant,28.6342817,77.2190663,0,True
Unknown,fuel,28.6401874,77.2564926,-1,False
Unknown,other,28.6581566,77.1940384,-1,False
24Seven,convenience,28.6594663,77.1912379,-1,False
Indian Oil,fuel,28.657125,77.1960191,-1,False
Unknown,bakery,28.640169,77.2116987,0,True
Unknown,bakery,28.6430359,77.2177296,0,True
ICICI Bank,bank,28.6591084,77.2127493,-1,False
Kotak Mahindra Bank,bank,28.6602835,77.2131021,-1,False
State Bank of India,bank,28.6590026,77.2127144,-1,False
Unknown,bank,28.6601611,77.2130942,-1,False
The Corus Hotel,hotel,28.6340937,77.2186621,0,True
OTB Café,cafe,28.6343601,77.2182711,0,True
Unknown,cafe,28.6520332,77.220882,0,True
Bistrot 55,restaurant,28.6409128,77.2136434,0,True
The Art House Cafe,restaurant,28.6305595,77.2212797,0,True
Shake Square,restaurant,28.634703,77.2205246,0,True
Open Hand Cafe (top top ;),cafe,28.6405754,77.2117485,0,True
Bank of India,bank,28.6473546,77.1879785,0,True
State Bank of India,bank,28.6539198,77.191078,0,True
The Feast House,restaurant,28.643686,77.1882167,0,True
Punjab National Bank,bank,28.6522781,77.1918029,0,True
Fish Point,restaurant,28.6497142,77.2343609,2,False
Sorento,restaurant,28.6209452,77.2180853,0,True
Unknown,restaurant,28.6013446,77.2410517,4,False
DePaul's,cafe,28.6288925,77.2186728,0,True
Unknown,bank,28.6347114,77.2217366,0,True
Parsvnath Mall Inderlok,mall,28.6731492,77.1704827,-1,False
Palatini Pizzeria,restaurant,28.6022338,77.1861298,5,True
Canara Bank,bank,28.6015923,77.1868853,5,True
Moti Mahal Delux,restaurant,28.6016675,77.186001,5,True
Lazeez Affaire,restaurant,28.6021801,77.1861058,5,True
Yes Bank,bank,28.6016723,77.1860978,5,True
Fujiya,restaurant,28.6016518,77.1861386,5,True
Angra HP Centre,fuel,28.5908405,77.1960832,-1,False
The Singh Empire,hotel,28.6445402,77.2154838,0,True
Unknown,cafe,28.5895394,77.2195741,-1,False
Aromatic @ city center,hotel,28.6383447,77.210545,0,True
Ritz hotel,hotel,28.6453238,77.2167463,0,True
Hotel Shandon,hotel,28.6385449,77.2102363,0,True
Amristari Kulcha King,restaurant,28.6477274,77.1960745,0,True
Cottage Emporium,supermarket,28.6256334,77.2201793,0,True
OYO 14710 - Hotel Pallvi Palace,hotel,28.6456241,77.2174292,0,True
Sandoz,restaurant,28.6344467,77.2220056,0,True
Bank of India,bank,28.6348608,77.2186893,0,True
Vegetarian Restaurant,restaurant,28.6599133,77.2235649,2,False
Minar,restaurant,28.6345679,77.2219125,0,True
Syndicate Bank,bank,28.6302163,77.2415659,-1,False
Caffè Tonino,restaurant,28.6350184,77.2195254,0,True
#ashery,cafe,28.6342664,77.2180918,0,True
Royal Residence,hotel,28.6471629,77.187746,0,True
Western Union & Express Money,bank,28.6412335,77.2144015,0,True
National Restaurant,restaurant,28.6345219,77.2225088,0,True
L'Opéra,cafe,28.6090339,77.2296678,1,True
Kalawati Saran Children's Hospital,other,28.6357652,77.2110664,0,True
Maulana Azad Institute of Dental Sciences,other,28.6371532,77.236999,-1,False
Chacha Nehru Bal Chikitsalaya,other,28.653163,77.268342,-1,False
Central Hospital (Northern Railways),other,28.6365867,77.2173905,0,True
Lady Hardinge Medical College & Associated Hospitals,other,28.634138,77.212909,0,True
Free Maternity & Child Welfare Centeri,other,28.6472649,77.2308534,2,False
Sunder Lal Jain Eye Hospital,other,28.6495013,77.2098206,0,True
Kasturba Hospital,other,28.649831,77.2359282,2,False
NGO Lok Kalyan Samiti,other,28.629808,77.2387009,0,True
Aruna Asaf Ali Government Hospital,other,28.6697661,77.2178501,-1,False
Dr. N. C. Joshi Memorial Hospital,other,28.6529654,77.1994853,-1,False
Shree Jeewan Hospital,other,28.6579998,77.1943948,-1,False
Mohan Eye Institute,other,28.6431266,77.1906871,0,True
Navjoyti Eye Centre,other,28.6435226,77.2424612,2,False
Jag Pravesh Chandra Hospital,other,28.6764665,77.262937,-1,False
Sharma Medical Center,other,28.6494565,77.209831,0,True
Tirath Ram Shah Hospital,other,28.6708223,77.2162565,-1,False
Neera Eye Centre,other,28.6424432,77.2427645,2,False
Mahavir International Eye Hospital,other,28.6598583,77.2157522,-1,False
Nazar Kanwar Surana Hospital,other,28.6752381,77.1907591,-1,False
State Bank of India,bank,28.596518,77.1769969,-1,False
Singh’s café & restaurant,restaurant,28.6411587,77.2134007,0,True
HDFC Bank,bank,28.6294081,77.2221975,0,True
Sabharwal Hospital,other,28.6443841,77.2385497,2,False
Dehli Hospital,other,28.6418873,77.2450734,2,False
Apollo Spectra Hospitals,other,28.6583838,77.1936638,-1,False
Jai Maa Tara Hospital,other,28.6738845,77.1800003,-1,False
Curewell Hospital,other,28.6651197,77.1952107,-1,False
Sanjeevan Hospital,other,28.6412816,77.2429413,2,False
Jeewan Hospital,other,28.643625,77.188255,0,True
Khadija National Hospital,other,28.6437984,77.2381596,2,False
Aggarwal Nursing Home,other,28.6766024,77.1804445,-1,False
Bawasher Hospital,other,28.6742139,77.1761804,-1,False
Malhotra General Store,convenience,28.6275206,77.2343913,0,True
bioQ eco solutions,supermarket,28.6556314,77.2006596,-1,False
Delhi Organic Farmers Market (DOFM),supermarket,28.6211627,77.2109121,0,True
Bombay Fruit Store,convenience,28.6004338,77.227423,1,True
Travel Yoga Cafe,cafe,28.6357531,77.2205669,0,True
Krishna Store,supermarket,28.6293912,77.2324843,0,True
HP COCO Fuel Station,fuel,28.5996071,77.1958058,-1,False
Parikrama - The Revolving Restaurant,restaurant,28.6287272,77.2229395,0,True
Chanderlok Building Bank Of India Govt Business Department,bank,28.6244261,77.2197964,0,True
Indian Overseas Bank,bank,28.6241327,77.2139025,0,True
Arvind Medicare,other,28.6311711,77.2170294,0,True
General Williams Hospital,other,28.6267808,77.2182706,0,True
UCO Bank,bank,28.6243135,77.2301541,0,True
Shyam Bakery,restaurant,28.6302728,77.1796827,-1,False
Sanjay Gandi Hospital,other,28.6337619,77.1700493,-1,False
Rohan Hotel,restaurant,28.6310878,77.1828001,-1,False
Manish Cafe,cafe,28.6296999,77.1797945,-1,False
Starbucks,cafe,28.600863,77.2270634,1,True
Cafe Coffee Day,cafe,28.6267988,77.2197099,0,True
Yes Bank,bank,28.6274298,77.2198655,0,True
Canara Bank,bank,28.6282217,77.2198897,0,True
Big Bazaar,mall,28.6738437,77.1697399,-1,False
Nik Baker's,restaurant,28.6304108,77.2198181,0,True
Canara Bank,bank,28.6349683,77.2190751,0,True
Bharat Petroleum,fuel,28.6417754,77.2338061,2,False
Unknown,other,28.6589497,77.2359195,2,False
Canara Bank,bank,28.6430476,77.2407235,2,False
Kotak Mahindra Bank,bank,28.6630786,77.232378,-1,False
Punjab & Sind Bank,bank,28.6638459,77.2316323,-1,False
24Seven,convenience,28.643798,77.2406593,2,False
Kotak Mahindra Bank,bank,28.6441723,77.2406365,2,False
Axis Bank,bank,28.6444383,77.2406057,2,False
Punjab National Bank,bank,28.6459957,77.2405293,2,False
Canara Bank,bank,28.6348361,77.2194004,0,True
ICICI Bank,bank,28.6316309,77.2230707,0,True
Unknown,bank,28.6286587,77.225828,0,True
Punjab & Sind Bank,bank,28.629755,77.220236,0,True
Punjab National Bank,bank,28.6303447,77.2220792,0,True
24Seven,convenience,28.6304116,77.2174503,0,True
Barbeque Nation,restaurant,28.6303516,77.2207134,0,True
Blues,restaurant,28.6303321,77.2206386,0,True
Castle's Barbeque,restaurant,28.6303565,77.22068,0,True
Taste of China,restaurant,28.6303371,77.2206681,0,True
Ardor 2.1,restaurant,28.6302128,77.2201334,0,True
Brown Sugar,bakery,28.6303647,77.2208543,0,True
DS Dosa Factory,restaurant,28.6303457,77.2208085,0,True
Talli Station Rajendra Place,restaurant,28.6433841,77.1777613,0,True
Federal Bank,bank,28.6434108,77.172389,0,True
State Bank of India,bank,28.6445925,77.1705075,0,True
Karol Bagh Terminal,bus_station,28.6480292,77.2008439,0,True
Major's Den,hotel,28.6410628,77.2117303,0,True
Bharat Petroleum,fuel,28.6709608,77.226134,7,False
Hindustan Petroleum,fuel,28.6700559,77.2263858,7,False
Unknown,hotel,28.645881,77.1866315,0,True
Union bank of India,bank,28.6564863,77.224811,2,False
Punjab National Bank,bank,28.6568518,77.2251484,2,False
Axis Bank,bank,28.6568022,77.2236461,2,False
Cafe Coffee Day,cafe,28.6339819,77.2185238,0,True
The Grace House,hotel,28.6422478,77.2104551,0,True
Kallu Nihari,restaurant,28.6421676,77.2373339,2,False
Blue Pearl,hotel,28.6452808,77.2157696,0,True
Unknown,cafe,28.644045,77.2093712,0,True
Bank of India,bank,28.6313034,77.1980381,-1,False
Connaught Royale,hotel,28.6322817,77.2276687,0,True
Emarald,hotel,28.6325535,77.2272428,0,True
Unknown,parking,28.6243086,77.2151522,0,True
Federal Bank,bank,28.6322114,77.2225531,0,True
Silver Shine,hotel,28.6435769,77.2126052,0,True
The Prime Balaji Deluxe,hotel,28.6452304,77.2175467,0,True
Unknown,parking,28.5903085,77.2200626,-1,False
Veg Gulati,restaurant,28.6077855,77.2299247,1,True
Unknown,restaurant,28.607798,77.2296832,1,True
Have more,restaurant,28.6077919,77.2297742,1,True
Ichiban,restaurant,28.6077837,77.2298805,1,True
New Horizon School,other,28.5947172,77.2477028,8,False
Café Turtle,cafe,28.5903723,77.2524954,3,False
Arora Stores,convenience,28.5897532,77.252527,3,False
HP,fuel,28.5891733,77.2466782,3,False
Unknown,convenience,28.5906069,77.2524094,3,False
Luthra Chemist,pharmacy,28.5896915,77.2525296,3,False
Rohini General Store,convenience,28.5895585,77.2525244,3,False
Parkash Medicos,pharmacy,28.5895222,77.2525243,3,False
Hotel Sky Rich International,hotel,28.6454752,77.1894097,0,True
San Gimignano,restaurant,28.6254773,77.2184377,0,True
Farm Square,convenience,28.5999838,77.226251,1,True
Bloom Café & Cakery,cafe,28.5998699,77.2263436,1,True
Preet Medicos,pharmacy,28.6002519,77.2270265,1,True
Youplus,pharmacy,28.600632,77.2271857,1,True
Hotel Elegant,hotel,28.6467057,77.1904595,0,True
Hotel Paras,hotel,28.6473569,77.1892494,0,True
Anand Drug Store,pharmacy,28.6001292,77.2274321,1,True
Salerm Javed,restaurant,28.6009386,77.2272031,1,True
Swisston Palace,hotel,28.6454247,77.1895733,0,True
Punjab National Bank,bank,28.6002254,77.2274818,1,True
Cafe Delhi Heights,cafe,28.6002371,77.2274371,1,True
Anglow,restaurant,28.6002956,77.2272837,1,True
A-One Store,convenience,28.5881415,77.2168666,-1,False
Chido,restaurant,28.6323157,77.2226574,0,True
In & Out,convenience,28.5921924,77.2373349,-1,False
Chemist Shop,pharmacy,28.5916336,77.2434618,8,False
Vishal Mega Mart,supermarket,28.6479199,77.1911263,0,True
Jindal store,convenience,28.601557,77.2252213,1,True
Bhaja Govindam,restaurant,28.6412498,77.2359617,2,False
Kaushal Palace,hotel,28.64155,77.2126352,0,True
Le Roi Express,hotel,28.6414534,77.2135566,0,True
Meher,convenience,28.6004953,77.225811,1,True
Blue Pearl Hotel,hotel,28.6452768,77.2158468,0,True
Comfort Lodge,hotel,28.5895183,77.2524679,3,False
Dasaprakash,restaurant,28.6346728,77.2180409,0,True
Unknown,other,28.5947114,77.2476036,8,False
Harlequin,restaurant,28.6346501,77.2195319,0,True
Andhra Canteen,restaurant,28.6336017,77.2221648,0,True
Canara Bank,bank,28.6325263,77.2222745,0,True
Mount Fuji,restaurant,28.6330893,77.2221821,0,True
Ghoomar,restaurant,28.6349675,77.2201154,0,True
Guru Harkrishan Polyclinic Bangla Sahib,other,28.6267693,77.2092035,0,True
South Indian Bank,bank,28.6563989,77.2265968,2,False
Jammu and Kashmir Bank,bank,28.6568737,77.224514,2,False
Bandhan Bank,bank,28.6568061,77.2238005,2,False
Karur Vysya Bank,bank,28.6568221,77.2238605,2,False
RBL Bank,bank,28.6568118,77.225006,2,False
Hotel Adarsh Vegetarian,restaurant,28.6563053,77.224223,2,False
Indian Bank,bank,28.6564251,77.2257507,2,False
Chaska Ram,restaurant,28.6564617,77.2303249,2,False
The Brijwasi,restaurant,28.6567781,77.2242219,2,False
Tewari Brothers,bakery,28.6565823,77.2264645,2,False
Blue Tokai Coffee Roasters,cafe,28.5997174,77.2261777,1,True
The Big Chill,cafe,28.5997717,77.2261395,1,True
Unknown,hotel,28.6419247,77.2117123,0,True
Dhaba,restaurant,28.6342696,77.2190501,0,True
Unknown,cafe,28.630689,77.2209032,0,True
Canara Bank,bank,28.6299855,77.2260606,0,True
Cafe Coffee Day,cafe,28.633884,77.2184716,0,True
Nazeer Foods,restaurant,28.6429888,77.2214491,0,True
IRCTC Food Plaza,restaurant,28.6430383,77.2214437,0,True
Jan-Aahar,restaurant,28.642164,77.2215364,0,True
Jyoti Mahal A Royal Heritage Hotel,hotel,28.6419168,77.211783,0,True
Diggin,restaurant,28.6331447,77.2179838,0,True
Hotel The Oak Plaza New Delhi,hotel,28.6455507,77.2114121,0,True
HDFC Bank,bank,28.6006831,77.2276217,1,True
Axis Bank,bank,28.6004772,77.227831,1,True
Hotel Siddharth,hotel,28.640227,77.2138774,0,True
Berco's,restaurant,28.6321001,77.2213271,0,True
QBA,restaurant,28.6321251,77.2212883,0,True
Maddonna,hotel,28.6400083,77.1827795,0,True
NCCF,convenience,28.6335205,77.2195012,0,True
NCCF,convenience,28.6324674,77.219286,0,True
Starbucks,cafe,28.6452103,77.1954815,0,True
Bheemeshwara,restaurant,28.6315631,77.2162842,0,True
Bikkgane Biryani,restaurant,28.6315236,77.2161783,0,True
State Bank of India,bank,28.6317223,77.216345,0,True
Jugmug,cafe,28.6534474,77.2399354,2,False
Barista,cafe,28.632997,77.2190193,0,True
Cafe Museo,cafe,28.6109435,77.2194122,0,True
South Indian Food,restaurant,28.6024732,77.2280844,1,True
Qureshi kabab,restaurant,28.6025531,77.2281292,1,True
Guru Kirpa Restaurant,restaurant,28.6562798,77.2329761,2,False
Unknown,parking,28.6200263,77.2417091,-1,False
Swagat,restaurant,28.6410098,77.2104547,0,True
State Bank of India,bank,28.6445453,77.1904718,0,True
Brahmin's Pure veg,restaurant,28.6459236,77.215431,0,True
Café Brownie (coffee),cafe,28.645817,77.2154412,0,True
Kotak Mahindra Bank,bank,28.6441476,77.1712831,0,True
Karnataka Bank,bank,28.6336824,77.2169663,0,True
Bank of India,bank,28.6349355,77.2189047,0,True
Punjab National Bank,bank,28.6346813,77.2183109,0,True
Chai 24/7,cafe,28.6347571,77.2184665,0,True
Monginis,bakery,28.6346218,77.2207011,0,True
Bank of Baroda,bank,28.6329073,77.216686,0,True
The Art of Dumpling,restaurant,28.6332625,77.2166944,0,True
CSB Bank,bank,28.6327615,77.2166213,0,True
Unknown,cafe,28.6307063,77.2156133,0,True
Café Bamboo Oasis,cafe,28.5941514,77.2609769,3,False
Gumbad Cafe,restaurant,28.6516779,77.2327739,2,False
Unknown,cafe,28.5984992,77.2460848,-1,False
Naivedyam,restaurant,28.6324882,77.2161512,0,True
Karol Bagh Terminal,bus_station,28.648275,77.2008227,0,True
Coffee Break,cafe,28.5908601,77.2563801,3,False
Federal Bank,bank,28.645968,77.196814,0,True
Gokulam,restaurant,28.6289157,77.2197583,0,True
Punjab Grill,restaurant,28.6284596,77.2197378,0,True
ICICI Bank,bank,28.6286352,77.2197381,0,True
Amar,hotel,28.6406162,77.2100622,0,True
Namoh,hotel,28.6406164,77.2101574,0,True
Xero Degrees,cafe,28.6328859,77.2227714,0,True
HDFC Bank,bank,28.6328496,77.2227651,0,True
Hotel Bright,hotel,28.6328135,77.2227621,0,True
Union Bank of India,bank,28.6327451,77.2227537,0,True
HDFC Bank,bank,28.6444389,77.2004624,0,True
Bikanervala,restaurant,28.6391042,77.2084744,0,True
Fat Tiger,restaurant,28.639207,77.2083127,0,True
24Seven,convenience,28.6392221,77.208287,0,True
Barista,cafe,28.6482157,77.2001362,0,True
California Burrito,restaurant,28.6481858,77.2001834,0,True
Off Campus,restaurant,28.5884383,77.1687482,6,False
QD All Day Diner,restaurant,28.5886052,77.1690217,6,False
Pizza Hut,restaurant,28.5883016,77.1685409,6,False
Love Bite Cafe,cafe,28.588688,77.1691745,6,False
Igniter Cafe,cafe,28.588414,77.1686436,6,False
Café 69,cafe,28.5886031,77.1689683,6,False
Café Sandoz,restaurant,28.5887593,77.169349,6,False
Ricos,cafe,28.5885827,77.1690539,6,False
Awarapan Cafe,cafe,28.5884966,77.1688106,6,False
Wrap O Burger,restaurant,28.5884365,77.1686906,6,False
Immortal Gaming Cafe,cafe,28.5879768,77.1688142,6,False
Best Print,convenience,28.5878707,77.168874,6,False
Tirupati Bhawan,cafe,28.6333646,77.2226483,0,True
IGL,fuel,28.6417761,77.2259725,0,True
Unknown,other,28.6636,77.2069986,-1,False
Indraprastha Sehkari Bank,bank,28.6575262,77.2033099,-1,False
HP,fuel,28.6512729,77.2046862,-1,False
Punjab National Bank,bank,28.6459492,77.209867,0,True
State Bank of India,bank,28.6300407,77.2254919,0,True
Foodiez,restaurant,28.6296858,77.2260475,0,True
HDFC Bank,bank,28.6299332,77.2258282,0,True
Canara Bank,bank,28.6290813,77.2249334,0,True
Aditya Birla Capital,bank,28.6290137,77.2252225,0,True
RBL Bank,bank,28.6288659,77.2256733,0,True
Dhanlaxmi Bank,bank,28.6291263,77.2249525,0,True
Foodieez,restaurant,28.6289688,77.2247681,0,True
Unknown,convenience,28.6775104,77.2080437,-1,False
Unknown,convenience,28.6669797,77.2087908,-1,False
Need Corner,convenience,28.6669717,77.2088369,-1,False
Emporio Hotel (formerly Excellency),hotel,28.6441753,77.214868,0,True
Sheetal Snacks Point,convenience,28.626646,77.2329117,0,True
Himachal Bhawan Dining Hall,restaurant,28.6260814,77.2330264,0,True
ICICI Bank,bank,28.645047,77.2012362,0,True
ICICI Bank,bank,28.6439521,77.2013826,0,True
Del Bite,cafe,28.6440611,77.2014836,0,True
Bank of Baroda,bank,28.64426,77.2014351,0,True
Unknown,parking,28.6297334,77.2629485,-1,False
Hotel Bright,hotel,28.6328893,77.2227144,0,True
The House Of Commons,restaurant,28.6329669,77.2226585,0,True
The G.T. Road,restaurant,28.6329706,77.2226985,0,True
The Imperial Spice,restaurant,28.633035,77.2226864,0,True
Carmel Convent School,other,28.6013333,77.1881167,5,True
The Ashok Hotel,hotel,28.5970312,77.1957008,-1,False
Unknown,restaurant,28.6429981,77.2221821,0,True
Banwari Lal Charitable Trust Diagnostic Centre,other,28.6420044,77.2042941,0,True
Arpit Palace,hotel,28.6449876,77.1898486,0,True
Crossroads,restaurant,28.644963,77.1897926,0,True
Vinod Medicos,pharmacy,28.6377937,77.2114515,0,True
Apollo Pharmacy,pharmacy,28.6337258,77.2085135,0,True
Flavours Of China,restaurant,28.6344804,77.2175301,0,True
HDFC Bank,bank,28.63814,77.2109771,0,True
South Indian Bank,bank,28.6339108,77.2215847,0,True
Bank of India,bank,28.6325936,77.2167018,0,True
Indian Bank,bank,28.6325537,77.216701,0,True
J&K Bank,bank,28.6324968,77.2167179,0,True
Central Bank of India,bank,28.6324472,77.2167369,0,True
Indian Overseas Bank,bank,28.6329143,77.2221806,0,True
HDFC Bank,bank,28.6474998,77.1923348,0,True
Bandhan Bank,bank,28.6476251,77.1921758,0,True
Indian Bank,bank,28.6475785,77.1921406,0,True
AU Small Finance Bank,bank,28.6474925,77.1919734,0,True
Indian Overseas Bank,bank,28.647544,77.1918739,0,True
Punjab National Bank,bank,28.6458277,77.1920817,0,True
Swaran Palace,hotel,28.6462638,77.1889635,0,True
Hooter,restaurant,28.6467726,77.1878823,0,True
Citi Continental,hotel,28.6467726,77.1872938,0,True
Hotel Lucky INN,hotel,28.6465986,77.1876316,0,True
Hotel Magic Tree,hotel,28.6465659,77.1878716,0,True
Hotel Kashish Plaza,hotel,28.6465567,77.1875329,0,True
Golden DX,hotel,28.6465057,77.1876219,0,True
Goddess Acccmonodation,hotel,28.6464564,77.1876697,0,True
Star Palace,hotel,28.6463905,77.1878717,0,True
Nand Kartar Orchid Suites,hotel,28.64638,77.1878917,0,True
Grand President,hotel,28.6453682,77.1891857,0,True
Chawlas2,restaurant,28.6469386,77.1879658,0,True
Radhey Krishna Udupi Restaurant,restaurant,28.6470426,77.1881214,0,True
SR Medicos,pharmacy,28.6478782,77.1886384,0,True
Geeta Medicos,pharmacy,28.6480158,77.1887282,0,True
Shahi Store,convenience,28.6481003,77.1888169,0,True
cvsv,cafe,28.6610786,77.2273116,2,False
Unknown,convenience,28.626321,77.2072825,0,True
Unknown,convenience,28.6226251,77.2028415,-1,False
The Garden Restaurant,cafe,28.6188178,77.178503,-1,False
HP,fuel,28.5915129,77.17549,-1,False
Flavour of Southvaala,restaurant,28.647351,77.1918284,0,True
Amritsari Chaap Corner,restaurant,28.6545835,77.189109,0,True
Om Corner,restaurant,28.653992,77.1898706,0,True
RBL Bank,bank,28.6533614,77.19226,0,True
ICICI Bank,bank,28.6493692,77.1938736,0,True
HDFC Bank,bank,28.6493408,77.1938637,0,True
ICICI Bank,bank,28.6517334,77.1943078,0,True
Royal Comfort,hotel,28.6460413,77.1907977,0,True
HDFC Bank,bank,28.6562884,77.232749,2,False
Karim's,restaurant,28.5911564,77.2436745,8,False
Tirumala,restaurant,28.6307181,77.2204376,0,True
Five Star Guest House,hotel,28.6447128,77.2401573,2,False
Yes Bank,bank,28.6434739,77.240638,2,False
Nazeer Foods,restaurant,28.6441692,77.2401768,2,False
IndusInd Bank,bank,28.6434042,77.240645,2,False
ICICI Bank,bank,28.6433702,77.2406441,2,False
Rang Mahal Hotel,hotel,28.6472128,77.2400088,2,False
Hotel Oasis,hotel,28.6475497,77.2398592,2,False
Wall Street,hotel,28.6460456,77.2400966,2,False
Royal Afghan,hotel,28.6459521,77.2401008,2,False
Capital Small Finance Bank,bank,28.6451931,77.2405089,2,False
Kasturba Hospital,other,28.6485447,77.2385223,2,False
Punjab National Bank,bank,28.6235066,77.211871,0,True
Ajit Singh Harminder Singh Amritsari Papad and Badiyan,convenience,28.655645,77.2308187,2,False
Kotak Mahindra Bank,bank,28.6497144,77.2264167,2,False
State Bank of India,bank,28.6499077,77.2261794,2,False
Pandit Gaya Prashad Shiv Charan,restaurant,28.6560167,77.2303693,2,False
Canara Bank,bank,28.6506329,77.2251469,2,False
mahesh inn near new delhi railway station,hotel,28.6423423,77.2171563,0,True
Babu Ram Devi Dayal,restaurant,28.6560917,77.23067,2,False
Sharma Milk Point,cafe,28.6554802,77.229172,2,False
Unknown,cafe,28.6555667,77.2302182,2,False
Lutyens's,restaurant,28.6025053,77.2279312,1,True
Gola Sizzlers,restaurant,28.600109,77.2268124,1,True
Cafe  Vagabond by Saffron,restaurant,28.6457847,77.216007,0,True
Chillax And Relax,cafe,28.6567596,77.2256427,2,False
Mohabbat Ka Sharbat,convenience,28.6564334,77.2254509,2,False
HDFC bank,bank,28.6564446,77.2243483,2,False
Shiv Pharmaceuticals,pharmacy,28.6568226,77.2252891,2,False
Narang medical store,pharmacy,28.6564271,77.2256782,2,False
Dharamshala Rai Sahab Lala Lakshmi Narayan,hotel,28.6583727,77.2234784,2,False
Aggarwal Cold Drinks,convenience,28.6587599,77.2240571,2,False
Rai Sahab Seth Girdhari Lal,pharmacy,28.6587821,77.224527,2,False
L.N. Girdharri Lal,other,28.6587675,77.2237125,2,False
Novotel New Delhi City Centre,hotel,28.6468928,77.206444,0,True
State Bank of India,bank,28.639392,77.2084666,0,True
Cicchetti Italiano,restaurant,28.5998608,77.2263453,1,True
The Grammar Room,restaurant,28.6000106,77.2262255,1,True
Modi General Store,convenience,28.5999511,77.2262793,1,True
Sharda Store,convenience,28.5999168,77.2263048,1,True
Gulshan Da Dhaba,restaurant,28.6324913,77.2067022,0,True
R. K. Health Care,pharmacy,28.6324933,77.2067303,0,True
Aggarwal Rice Store,convenience,28.6332864,77.2062025,0,True
A M Store,convenience,28.633528,77.2064788,0,True
Flavours of Chaap,restaurant,28.6326424,77.2066112,0,True
Ration Store Siyaram and Co.,convenience,28.6332151,77.2061779,0,True
Chakna Junction,convenience,28.6335515,77.206498,0,True
Indian Overseas Bank,bank,28.6328593,77.2086314,0,True
Canara Bank,bank,28.6330762,77.2086634,0,True
Central Bank of India,bank,28.6327401,77.2086242,0,True
ICICI Bank,bank,28.633125,77.2086705,0,True
State Bank of India (Global),bank,28.6328172,77.2086299,0,True
Axis Bank,bank,28.632595,77.2086075,0,True
Kaleva All day Diner Family Restaurant,restaurant,28.6330218,77.2084316,0,True
Dayal Da Dhaba,restaurant,28.6324936,77.2066109,0,True
Medsurg Pharma,pharmacy,28.6328049,77.2072974,0,True
Unknown,convenience,28.6324107,77.2096025,0,True
Kendriya Bhandar,convenience,28.6349905,77.2040339,0,True
Canara Bank,bank,28.6486832,77.1778933,0,True
The Host,restaurant,28.6316962,77.2209454,0,True
Gupta Foods,restaurant,28.6307787,77.2207013,0,True
Siyam Store,convenience,28.6307529,77.2206002,0,True
Canara Bank,bank,28.6308652,77.2203632,0,True
Dr. Shroff Charity Eye Hospital,other,28.6459381,77.242051,2,False
HDFC,bank,28.6023239,77.1864616,5,True
Fig,restaurant,28.6023688,77.1863791,5,True
Fire & Ice,restaurant,28.6410473,77.214,0,True
Nellai Annapoorna,restaurant,28.6460767,77.1875244,0,True
Unknown,restaurant,28.6429879,77.2117488,0,True
German school,other,28.594099,77.1802814,-1,False
Diggin,cafe,28.5950905,77.1979808,-1,False
Cafe De Flora,cafe,28.5948908,77.1984828,-1,False
The Lodhi,hotel,28.5915262,77.238125,-1,False
Satguru Dhaba,restaurant,28.642225,77.2143627,0,True
Ero by Family Hotels,hotel,28.6418866,77.2150316,0,True
Nothing Before Coffee,cafe,28.6340619,77.2180117,0,True
Unknown,cafe,28.593059,77.2454576,8,False
Karan South Indian,restaurant,28.6422224,77.2182015,0,True
Leo,hotel,28.6433768,77.2146255,0,True
Unknown,restaurant,28.601876630166256,77.19979616312455,-1,False
Haveli Dharampura,hotel,28.653240463771432,77.23229792394918,2,False
St. Lawrence School,other,28.653080966492528,77.26946572205969,-1,False
Unknown,parking,28.617282387466094,77.2141748252857,0,True
Ram Manohar Lohia Hospital,other,28.6258846696936,77.20064369404483,-1,False
Kashmere Gate ISBT,bus_station,28.668715263168327,77.23039896709462,7,False
The British School,other,28.59748976104962,77.18027886877957,-1,False
Unknown,parking,28.597835499999995,77.179953,-1,False
Unknown,parking,28.643633417804914,77.21858659169274,0,True
Unknown,parking,28.64262325479556,77.21877189119779,0,True
Unknown,parking,28.642382541265377,77.22262162901708,0,True
Unknown,other,28.64341738665981,77.2269323121224,0,True
Unknown,parking,28.668388244654903,77.24899472001734,-1,False
Unknown,parking,28.607048595269752,77.24111581143082,4,False
Unknown,parking,28.621581524042853,77.23998068920679,0,True
Northern Railway Hospital,other,28.662163825926797,77.2199524482509,2,False
Sanskriti School,other,28.588870763384797,77.17703368729549,-1,False
Indian Bank,bank,28.629539219801984,77.21655655186254,0,True
Taj Palace Hotel,hotel,28.595469487747515,77.17060458615069,-1,False
Unknown,other,28.6255783432131,77.21040174890767,0,True
Unknown,parking,28.600421877656856,77.22654000552683,1,True
Unknown,parking,28.600182366237707,77.22557720496437,1,True
Unknown,parking,28.61096001746047,77.24664715854989,-1,False
J.D Tytler School,other,28.633540370420835,77.18430158075836,-1,False
"Springdales School, Pusa Road",other,28.644409734069257,77.19632838803346,0,True
"St. Michaels School, Pusa Road",other,28.644187859905955,77.19489420855396,0,True
Sir Ganga Ram Hospital,other,28.638485046874568,77.1896496655797,0,True
The Taj Mahal Hotel,hotel,28.604774018212712,77.22350621801503,1,True
Unknown,parking,28.5885535,77.25619255,3,False
Doctor B.L. Kapoor Memorial Hospital,other,28.6434996701383,77.17982643025559,0,True
Unknown,other,28.647866710354258,77.18138967320051,0,True
Unknown,other,28.677213452480537,77.19414797631651,-1,False
Unknown,other,28.645657811747142,77.19374594712373,0,True
Unknown,other,28.646441070110765,77.19449697364566,0,True
Saint Thomas' Girls Senior Secondary School,other,28.644950033333334,77.18894413333334,0,True
Unknown,other,28.654891029053413,77.18786879327524,0,True
Army Public School,other,28.600432212189528,77.16917716065116,-1,False
Primus Super Specialty Hospital,other,28.593138165984357,77.18123397807496,-1,False
American Embassy School,other,28.599006182950493,77.18233009227585,5,True
Ramakrishna Mission T.B.Clinic and Medical Centre,other,28.645897047845775,77.19604877066469,0,True
Unknown,parking,28.65096472244556,77.24037974862213,2,False
Sardar Vallabh Bhai Patel Hospital,other,28.647023003647167,77.16905320583216,0,True
Anglo Arabic Public School,other,28.645960330486584,77.22216081729105,0,True
Shafiq Memorial Sr Sec School,other,28.6586427213128,77.20555513521094,-1,False
Unknown,other,28.65673083365944,77.20610964208032,-1,False
Unknown,other,28.65982284661219,77.21226921961197,-1,False
Raghubir Saran Public School,other,28.658848598216146,77.20641300129857,-1,False
Unknown,other,28.645853994867572,77.24213725696177,2,False
Unknown,other,28.64852178367044,77.24211102699587,2,False
Unknown,other,28.641800140807096,77.24264689268871,2,False
Unknown,other,28.64765305981592,77.24181000879413,2,False
Unknown,other,28.644278793336966,77.24353661929901,2,False
HMDAV Senior Secondary School,other,28.645403050000002,77.24121375000001,2,False
Dr Shroff Charity Eye Hospital Training,other,28.647027124112093,77.24115308964898,2,False
Unknown,other,28.647057755632318,77.24207372398027,2,False
Anglo Sanskrit Victoria Jubilee Senior Secondary School,other,28.64770369140889,77.2410773571267,2,False
Unknown,other,28.64947532070095,77.2421372580413,2,False
बच्चों का घर,other,28.646230710155464,77.24115821022731,2,False
Tibetan Medical and Astro Institute,other,28.587854924800318,77.25154150369656,3,False
Unknown,parking,28.596880796860045,77.22300270653353,1,True
Unknown,parking,28.59228318740539,77.21653865104153,-1,False
Saint Columba's School,other,28.62933860493424,77.20594345940928,0,True
ITC Maurya,hotel,28.597130499999995,77.17364385,-1,False
The Metropolitan Hotel,hotel,28.63159802976269,77.20788956693997,0,True
Convent of Jesus and Mary,other,28.629080896223048,77.20736875407279,0,True
Khrist Raja School,other,28.629460589573053,77.20899550678894,0,True
Shivaji Stadium Bus Terminal,bus_station,28.632517449999998,77.2155255,0,True
Air Force Bal Bharati School,other,28.589633079555032,77.2269257880905,-1,False
Guru Nanak Eye Hospital,other,28.638302458354552,77.23223465283134,-1,False
Doctor Ambedkar Terminal (Dilli Gate),bus_station,28.639382800413298,77.24372280849558,2,False
Hindu Rao Hospital,other,28.67603763557198,77.2121804413867,-1,False
Modern School Barakhamba Road,other,28.62902962148244,77.22906769825067,0,True
Unknown,other,28.67607946064733,77.19376970692704,-1,False
Unknown,parking,28.61027492655587,77.23725370014205,1,True
Chowgule Public School,other,28.647486227491985,77.19990376138598,0,True
Dr. B.R. Ambedkar School of Specialised Excellence,other,28.645528437033782,77.19846932838561,0,True
Science Centre Cum Central Workshop,other,28.646444159024757,77.19916130093108,0,True
Sarvodaya Bal School,other,28.645704269087318,77.19975144174126,0,True
Nutan Marathi HS School,other,28.645433703545173,77.20805003770906,0,True
DAV School,other,28.643727706213685,77.20832282658391,0,True
Ramjas School,other,28.64451510824214,77.20859409071058,0,True
"Delhi Public School, Mathura Road",other,28.597238676339835,77.24250771296076,4,False
Rail Yatri Niwas,hotel,28.644468884938053,77.22267144878697,0,True
Unknown,other,28.645025023143283,77.21615505932043,0,True
The Park,hotel,28.628909502970238,77.21612878964307,0,True
Unknown,parking,28.659497501737633,77.22662962282325,2,False
Unknown,parking,28.659031249667496,77.22427320442694,2,False
Unknown,parking,28.66105820236161,77.2234970491583,2,False
Lycée Français de Delhi,other,28.60299454699194,77.22155409995983,1,True
Sardar Patel Vidyalaya,other,28.597033003203883,77.22651761403328,1,True
Junior School Ground,other,28.598023745265117,77.22663277746828,1,True
Ahuja Residency,hotel,28.6050512,77.24076880000001,4,False
HP,fuel,28.602133062992188,77.23000869297995,1,True
Sarvodaya Vidyalaya Jor Bagh,other,28.587996134797276,77.21884002635498,-1,False
Bharat Petroleum,fuel,28.59613785636134,77.2048642731404,-1,False
HP,fuel,28.596245903906432,77.20446467518397,-1,False
Indian Oil,fuel,28.631345573667005,77.20607207116105,0,True
Indian Oil,fuel,28.631024657588643,77.20564652589638,0,True
Hotel Alaska,hotel,28.646286498243704,77.19708603424007,0,True
Hotel Venus International,hotel,28.64314102639161,77.21037685503156,0,True
Union Bank of India,bank,28.64820738403859,77.1998318689481,0,True
Kotak Mahindra Bank,bank,28.643942978000382,77.20943453924649,0,True
Unknown,fuel,28.641171349999997,77.22898260000001,0,True
Indian Oil,fuel,28.629240850000002,77.21262144999999,0,True
Punjab National Bank,bank,28.663111150000006,77.20779475,-1,False
Unknown,parking,28.614918482202107,77.21042385897184,0,True
Unknown,parking,28.612782739440966,77.21031589768985,0,True
Unknown,parking,28.613254582130768,77.21034339363936,0,True
Unknown,parking,28.614439938538293,77.2104228060231,0,True
Unknown,parking,28.6150725,77.21138010000001,0,True
Unknown,parking,28.613574212358667,77.20073000306414,-1,False
Unknown,parking,28.61502174862283,77.2007691450369,-1,False
Unknown,parking,28.613413874959615,77.20439899068437,-1,False
Unknown,parking,28.614803690360283,77.20450296938206,-1,False
Le Méridien,hotel,28.618744348709054,77.21775181840955,0,True
Unknown,parking,28.668506582823852,77.22956609632554,7,False
Unknown,parking,28.66223519135759,77.18624257438123,-1,False
Shangri-La Hotel,hotel,28.6215031676028,77.22385153956316,-1,False
Unknown,parking,28.612009173140798,77.207266593794,0,True
Unknown,parking,28.611697672504278,77.20671126536713,0,True
Unknown,parking,28.65514620939289,77.21637682201899,2,False
Hari Piorko,hotel,28.64096621048678,77.21415474370522,0,True
Manav Sthali School,other,28.632954866202223,77.18369729477958,-1,False
Chaudhary Eye Centre,other,28.642035936158123,77.24367443216191,2,False
School of planning and architecure,other,28.632678969528435,77.24601297771913,-1,False
New Delhi Railway Station (Ajmeri Gate),bus_station,28.64261351290085,77.22358507555161,0,True
Unknown,parking,28.64193991518845,77.22324635747874,0,True
Unknown,parking,28.641054529863485,77.222914919293,0,True
Unknown,parking,28.643599139257,77.22224995745893,0,True
Saint Stephen's Hospital,other,28.666154010679403,77.2141572657816,-1,False
Unknown,parking,28.6142218138962,77.27094188180303,-1,False
Unknown,parking,28.6233916384618,77.2693710202372,-1,False
Unknown,parking,28.62315377051452,77.26877411958306,-1,False
Punjabi Dhaba,restaurant,28.66787205,77.2302267,7,False
DTC Kashmere Gate Bus Station,bus_station,28.666706351114268,77.22820130369293,7,False
Omaxe Mall,mall,28.65771106438857,77.23093106053521,2,False
Rams inn,hotel,28.6314801,77.2142618,0,True
Unknown,other,28.669709651616255,77.20559762667548,-1,False
HP,fuel,28.590967735881218,77.22996156334878,-1,False
Mater Dei School,other,28.616443916648382,77.23689886776222,-1,False
Guru Harkrishan Public School,other,28.615829609267227,77.23609920206971,-1,False
"The Oberoi, New Delhi",hotel,28.596482393873693,77.2398045342105,4,False
Unknown,parking,28.666041692023285,77.21510085300581,-1,False
Unknown,parking,28.667125219756922,77.21316298732717,-1,False
Indian Oil,fuel,28.601996259417973,77.23716917978608,4,False
Ramjas School,other,28.64393560575356,77.19264642502132,0,True
Unknown,parking,28.609829218132393,77.23581053206209,1,True
Unknown,parking,28.623804820784283,77.24146217523142,0,True
Unknown,parking,28.669889595568197,77.26485634813609,-1,False
Unknown,parking,28.666297060433745,77.20757974787423,-1,False
Unknown,parking,28.67293772937636,77.17047348816624,-1,False
Unknown,parking,28.665141129860224,77.21655513733026,-1,False
Unknown,parking,28.6666869445741,77.19801547542659,-1,False
Unknown,parking,28.611842351810658,77.2124152740329,0,True
Unknown,parking,28.619123688672218,77.21200897556969,0,True
Unknown,parking,28.61649419553997,77.2127434369315,0,True
Unknown,parking,28.616079412356473,77.21274916239327,0,True
Unknown,parking,28.615639686247295,77.21265659843586,0,True
Unknown,parking,28.676084363559085,77.26413311210564,-1,False
Unknown,parking,28.628698972908968,77.21815379863683,0,True
Unknown,parking,28.61618405211891,77.20638323796874,0,True
Unknown,parking,28.591221595613007,77.23646537825948,-1,False
Unknown,fuel,28.652356634998814,77.268246586069,-1,False
Sai Bhavan School,other,28.652212305047975,77.26770173585186,-1,False
Unknown,other,28.641724172998686,77.18386818451962,0,True
Ram Service Station,fuel,28.614620456295683,77.2405850451833,-1,False
Gulabi Bagh petrol pump,fuel,28.67365933914866,77.18698625665854,-1,False
Murli Wala Kuan Sabzi Bazar,supermarket,28.675124574973694,77.20226992859432,-1,False
Indian Oil,fuel,28.61751416632084,77.20525213658854,0,True
Unknown,restaurant,28.643377344043166,77.17783740618054,0,True
Unknown,parking,28.624221219041914,77.23155466717263,0,True
GGSSS School Playground,other,28.636410549914725,77.27115617054649,-1,False
Unknown,parking,28.5896113741424,77.24876506561006,3,False
Unknown,parking,28.595795804609175,77.25171311016967,-1,False
Unknown,parking,28.594846750000002,77.25286605000001,3,False
Unknown,parking,28.5952889,77.24772425,8,False
Unknown,parking,28.588508099999995,77.24715929999999,3,False
Unknown,parking,28.608193981502524,77.24077213587688,4,False
Unknown,parking,28.626154934456483,77.2375252435847,0,True
Unknown,parking,28.626080689470037,77.2374600652999,0,True
Unknown,parking,28.62611902260132,77.23804960352587,0,True
Unknown,parking,28.626173176359732,77.23787883814406,0,True
Unknown,parking,28.62623510363298,77.23684295024107,0,True
Unknown,parking,28.626262147212465,77.23605129982604,0,True
Unknown,parking,28.627419475842906,77.23527874772192,0,True
Nazar Kanwar Surana Hospital,other,28.67533467408107,77.19086208381312,-1,False
Diwan Chand Arya Senior Secondary School,other,28.58884374875844,77.2244445380406,-1,False
Sondhi Motors,fuel,28.634490329281718,77.2207924323584,0,True
Juggernaut,restaurant,28.629421483935896,77.22606940674959,0,True
19 Dal Chawal Masale,supermarket,28.65724099001487,77.2201944708962,2,False
Unknown,parking,28.591265854607908,77.25540876040371,3,False
Unknown,other,28.591489444781573,77.25559373176958,3,False
Sant Parmanand Hospital,other,28.663193331704548,77.23781404523145,-1,False
Unknown,parking,28.62526475248963,77.23292797322594,0,True
Unknown,parking,28.667898596997734,77.25115860554723,-1,False
Warehouse Café,restaurant,28.633778127012892,77.22103562594687,0,True
Unknown,parking,28.667352745941347,77.25319370831289,-1,False
Unknown,parking,28.632361048996586,77.216340314889,0,True
Unknown,parking,28.634126962559233,77.22076009976523,0,True
Unknown,parking,28.632642769524573,77.22114797031948,0,True
The Connaught,hotel,28.632787298959798,77.21317003836657,0,True
Unknown,parking,28.591878149999996,77.2402932,8,False
Raghubir Singh Junior Modern School,other,28.60393997874125,77.22804894511017,1,True
Indian Oil,fuel,28.67119826396087,77.27089762312424,-1,False
Unknown,parking,28.61115678940789,77.23595775608624,1,True
Unknown,cafe,28.618558076997594,77.24229785898495,-1,False
Unknown,parking,28.62317485038101,77.24228523023869,0,True
Vivek Summit School,other,28.64250867736297,77.17417637410466,0,True
Wok In The Cloud,restaurant,28.63429635490613,77.22010981039675,0,True
Dr. Zombie,restaurant,28.634328821988966,77.22023749473428,0,True
Openhouse Cafe,restaurant,28.634265270488026,77.22042906649028,0,True
Cafe MRP,restaurant,28.634599505738272,77.22063879849335,0,True
Unknown,parking,28.594463305222764,77.24378386231992,8,False
Indian Oil,fuel,28.649849481245827,77.23957467420254,2,False
HP Petrol Pump,fuel,28.60623301620967,77.24056356722755,4,False
Unknown,parking,28.646723350000006,77.1922141,0,True
HP,fuel,28.64457470717251,77.19452000412448,0,True
Unknown,cafe,28.592695000000003,77.2564174,3,False
Unknown,parking,28.620376049999994,77.2096641,0,True
Unknown,parking,28.591502899999995,77.18653355000001,-1,False
Unknown,parking,28.60214425,77.19546534999999,-1,False
Sarvodaya Kanya Vidyalaya,other,28.677508603143313,77.2073072995417,-1,False
Unknown,parking,28.592053636810352,77.1921790530424,-1,False
Unknown,parking,28.63081320325675,77.22278195454676,0,True
Unknown,parking,28.629023501756556,77.22591394758577,0,True
Unknown,parking,28.622142526582973,77.19533855552962,-1,False
Unknown,parking,28.621886961793304,77.19481525551824,-1,False
Unknown,parking,28.61253244672676,77.21287951531974,0,True
Unknown,parking,28.66054729710979,77.22769791842465,2,False
Unknown,parking,28.64591086108929,77.20165895929952,0,True
Bharat Petroleum,fuel,28.63140319929809,77.22181903372005,0,True
Unknown,parking,28.60141445988547,77.1872725945029,5,True
Unknown,parking,28.611966401696343,77.2152487214145,0,True
Unknown,parking,28.59069161418808,77.26031771799599,3,False
Unknown,parking,28.622945344665375,77.2146222291714,0,True
Unknown,parking,28.641498050000006,77.205148,0,True
Ramjas Primary School,other,28.63781827714993,77.21149127544967,0,True
Unknown,parking,28.64249273958017,77.18841883633837,0,True
Unknown,parking,28.622960897254412,77.19726416359406,-1,False
Unknown,parking,28.620645949999997,77.19291905,-1,False
Unknown,parking,28.63346933644817,77.22140303702707,0,True
Unknown,parking,28.631553300630706,77.22204891621566,0,True
Unknown,parking,28.63175304732246,77.22132682586657,0,True
Unknown,parking,28.631979549999997,77.22127889999999,0,True
Third Wave Coffee Roasters,cafe,28.632616104359048,77.22152535656966,0,True
Bharat Petroleum,fuel,28.634866299999995,77.21775985000001,0,True
Unknown,parking,28.6284967694423,77.21688994059957,0,True
Bharat Petroleum,fuel,28.6296595,77.22135554999998,0,True
Unknown,parking,28.6273568,77.21322845000002,0,True
Unknown,parking,28.626056745721044,77.2114141116171,0,True
Unknown,parking,28.627010849999998,77.212792,0,True
Unknown,parking,28.626259390563103,77.21185278345268,0,True
Government Boys Middle School,other,28.65789505471721,77.20371801965376,-1,False
Unknown,parking,28.620217199881157,77.17789773979787,-1,False
Unknown,parking,28.652287886736886,77.21094053920353,0,True
Unknown,parking,28.64058337539452,77.22982795608368,0,True
Unknown,parking,28.668593142056597,77.22806523438082,7,False
Fatehpur Muslim Senior Secondary School,other,28.656680203617622,77.22263005655448,2,False
Dhaula Kuan,bus_station,28.590401991597993,77.16842962357786,6,False
Unknown,parking,28.658943253237744,77.22429527825533,2,False
Unknown,parking,28.65897373801906,77.22412307558785,2,False
Unknown,parking,28.659041850000005,77.2245278,2,False
Sarvodaya Kanya Vidyalaya,other,28.657638261222257,77.23503652295442,2,False
Unknown,parking,28.637850224312693,77.18326584169444,0,True
Saint Xavier's Senior Secondary School,other,28.67170469395791,77.2226849365183,7,False
Unknown,parking,28.638881113367688,77.20801883193235,0,True
Atal Adarsh Prathmik Vidyalaya,other,28.63858009593166,77.2055223801818,0,True
Navyug School,other,28.636096246357187,77.20391147049502,0,True
Unknown,parking,28.591713480181934,77.19616109994894,-1,False
Saint Thomas Girls Senior Secondary School,other,28.63985089038258,77.20313961270766,0,True
Unknown,parking,28.63992290833661,77.2042394901573,0,True
Unknown,parking,28.640232377195765,77.20447280754335,0,True
Unknown,parking,28.639513985762125,77.20394105238172,0,True
Unknown,fuel,28.63861120883609,77.20310300526138,0,True
Raisina Bengali School,other,28.63720899520597,77.20146268052824,0,True
Atal Adarsh Bal Vidyalaya,other,28.63638018369234,77.20031684834204,0,True
Atal Adarsh Vidyalaya,other,28.64214256159641,77.20281914797107,0,True
Unknown,parking,28.672227533786867,77.2487664966136,-1,False
Unknown,parking,28.63866276918729,77.20898804523111,0,True
Palika Parking,parking,28.63137300687756,77.21788553476563,0,True
The Claridges,hotel,28.600631688088725,77.21627047385358,-1,False
Shyama Prasad Vidyalaya,other,28.596688641463526,77.22564088887611,1,True
DTEA Senior Secondary School,other,28.595097961599198,77.22571049654961,1,True
Vidya Bhawan Mahavidyalaya Senior Secondary School,other,28.595143835924855,77.22657893325211,1,True
Unknown,parking,28.600959209097557,77.2376556240579,4,False
Unknown,parking,28.598760855761228,77.23917657504226,4,False
Unknown,parking,28.648486215826882,77.17884984833302,0,True
Unknown,parking,28.61121976597515,77.21241251984834,0,True
Unknown,parking,28.61175845,77.2128358,0,True
Unknown,parking,28.6117296737149,77.2135166216285,0,True
Unknown,parking,28.611386523720505,77.21348812162886,0,True
Unknown,parking,28.611422573714894,77.21281392162848,0,True
Unknown,parking,28.61102052372046,77.2127913716232,0,True
Unknown,parking,28.610995870579025,77.21345384533896,0,True
Unknown,parking,28.60043840027845,77.22316221657069,1,True
Unknown,parking,28.6251797,77.2388251,0,True
Navyug School,other,28.633504551789496,77.20094698269622,0,True
Sant Parmanand Hospital,other,28.677749090933258,77.22422103775924,-1,False
Bal Bharti Public School,other,28.639983146895048,77.19040782843676,0,True
Unknown,parking,28.642498137821107,77.19176545275334,0,True
Unknown,parking,28.59032820856512,77.17515536439781,-1,False
Unknown,parking,28.617683510760685,77.21321114116898,0,True
Bharti Vidya Bhawan,other,28.620669295787707,77.22783529735737,-1,False
Lady Irwin Senior Secondary School,other,28.620223581557102,77.22382113454427,-1,False
MCD Primary Co-Ed School,other,28.66257807014759,77.20680002197192,-1,False
Unknown,parking,28.588285637711376,77.19025159433568,-1,False
Unknown,fuel,28.617884924099254,77.24873942518252,-1,False
Unknown,fuel,28.637927746335514,77.24146652533976,2,False
